{"points": [{"beneficiar": "ERDEI FRANCISC si CURARIU SIMONA", "lat": 45.757666, "adresa": " GHEORGHE LAZAR nr.6 bl.- sc.- et.P ap.6", "data": "13.05.2002", "descriere": "Amplasare firme luminoase pe fatada imobilului pentru S.C. RADCOM S.R.L.", "lng": 21.22607}, {"beneficiar": "S.C. L.T.H.D.    S.R.L.", "lat": 45.732534, "adresa": "B-Dul Dambovita nr.1-3 bl.- sc.- et.- ap.-", "data": "13.05.2002", "descriere": "Bransament apa", "lng": 21.20801}, {"beneficiar": "DRAUCEANU  NINA", "lat": 45.757615, "adresa": "Str Gheorghe Lazar nr.3 bl.- sc.- et.2 ap.6", "data": "13.05.2002", "descriere": "Separare consum apa", "lng": 21.227013}, {"beneficiar": "ROSCA  GHEORGHE  si sotia ROSCA  MALVINA", "lat": 45.727036, "adresa": "Str Theodor Pallady nr.12 bl.- sc.- et.- ap.-", "data": "13.05.2002", "descriere": "Bransament gaze naturale prin pozare subterana", "lng": 21.271339}, {"beneficiar": "RADLER  ELISABETA  MAGDALENA", "lat": 45.726023, "adresa": " TRAIAN SIMU nr.15 bl.- sc.- et.- ap.-", "data": "13.05.2002", "descriere": "Bransament gaze naturale prin pozare subterana", "lng": 21.272005}, {"beneficiar": "COJOCARU    VALENTINA", "lat": 45.764987, "adresa": "Str Closca nr.39 bl.- sc.- et.- ap.-", "data": "13.05.2002", "descriere": "Racord canal", "lng": 21.20306}, {"beneficiar": "GHIMIS VIOARA", "lat": 45.754577, "adresa": "Str Banul Severinului nr.14 bl.- sc.- et.- ap.-", "data": "13.05.2002", "descriere": "Racord canal", "lng": 21.1839394}, {"beneficiar": "BAKAY IOSIF si sotia BAKAY MARIA", "lat": 45.7220579, "adresa": " Muncitorilor nr.35 bl.- sc.- et.- ap.-", "data": "13.05.2002", "descriere": "Bransament gaze naturale prin pozare subterana", "lng": 21.230966}, {"beneficiar": "MIHAI IOAN si sotia ZINA DUMITRA", "lat": 45.76473, "adresa": " CRISAN nr.22 bl.- sc.- et.- ap.-", "data": "13.05.2002", "descriere": "Locuinta - demolare casa parter.", "lng": 21.20831}, {"beneficiar": "ASOCIATIA   DE PROPRIETARI", "lat": 45.7449579, "adresa": " Iancu Vacarescu nr.24 bl.- sc.- et.- ap.-", "data": "13.05.2002", "descriere": "Bransament gaze naturale prin pozare subterana", "lng": 21.208928}, {"beneficiar": "S.C. SPACEIMOBIL  S.R.L.", "lat": 45.7417276, "adresa": " MANGALIA nr.39A bl.- sc.- et.- ap.-", "data": "14.01.2002", "descriere": "Bransament gaze naturale prin pozare subterana", "lng": 21.2045172}, {"beneficiar": "ILEA SOFRONIA", "lat": 45.724767, "adresa": " MUZICESCU nr.164 bl.- sc.- et.- ap.-", "data": "13.01.2002", "descriere": "Bransament apa si racord canal", "lng": 21.238185}, {"beneficiar": "IURESEL  VASILIA", "lat": 45.744791, "adresa": " MIHAI VITEAZU nr.28 bl.- sc.- et.- ap.-", "data": "15.11.2002", "descriere": "Extindere retea; bransament gaze naturale prin pozare subterana", "lng": 21.225486}, {"beneficiar": "OLARU NICOLAE SI SOTIA OLARU ANETA", "lat": 45.724404, "adresa": " NOTTARA nr.10 bl.- sc.- et.- ap.-", "data": "18.10.2002", "descriere": "Locuinta parter : Extindere cu un corp de caldire in regim P+1E .", "lng": 21.174071}, {"beneficiar": "GOMBOS  VASILE  SI  SOTIA MARIOARA", "lat": 45.764209, "adresa": " CRISAN nr.9 bl.- sc.- et.- ap.-", "data": "04.11.2002", "descriere": "Bransament gaze naturale prin pozare subterana", "lng": 21.209844}, {"beneficiar": "MULLER   IOSIF", "lat": 45.722724, "adresa": " CHISODEI nr.31 bl.- sc.- et.- ap.-", "data": "04.11.2002", "descriere": "Bransament gaze naturale prin pozare subterana", "lng": 21.210567}, {"beneficiar": "TRINCA DANIELA", "lat": 45.7657118, "adresa": " BRANDUSEI nr.16 sc.A et.5 ap.24", "data": "04.11.2002", "descriere": "Locunta - Amenajari interioare si inlocuirea tamplariei existente cu tamplarie PVC geam termopan.", "lng": 21.2216759}, {"beneficiar": "MATYAS  TUTY", "lat": 45.765934, "adresa": " TELEGRAFULUI nr.92/A bl.- sc.- et.- ap.-", "data": "04.11.2002", "descriere": "Bransament apa; racord canal", "lng": 21.25883}, {"beneficiar": "KOVACS  ROZALIA  SI  TODOR  ADALBERT", "lat": 45.731232, "adresa": " MAGIUCA nr.24 bl.- sc.- et.- ap.-", "data": "04.11.2002", "descriere": "Bransament apa si racord canal", "lng": 21.225755}, {"beneficiar": "PODOLEANU CONSTANTIN SI  PODOLEANU MARIA", "lat": 45.731322, "adresa": " MANGIUCA nr.19 bl.- sc.- et.- ap.-", "data": "04.11.2002", "descriere": "Racord canal", "lng": 21.225765}, {"beneficiar": "GRABEANU GOGAE SI GRABEANU RICA", "lat": 45.7274051, "adresa": " MILOIA nr.31 bl.- sc.- et.- ap.-", "data": "04.11.2002", "descriere": "Bransament apa si racord canal", "lng": 21.2216277}, {"beneficiar": "DANCEA  IOAN  SI   DANCEA OFELIA", "lat": 45.725598, "adresa": " MUZICESCU nr.86 bl.- sc.- et.- ap.-", "data": "04.11.2002", "descriere": "Extindere retea; bransament gaze naturale prin pozare subterana", "lng": 21.22446}, {"beneficiar": "CARANEANT NICU   TRAIAN", "lat": 45.760991, "adresa": " SCHWICKER nr.3 bl.- sc.- et.- ap.-", "data": "04.11.2002", "descriere": "Racord canal", "lng": 21.192589}, {"beneficiar": "SZUCS EVA SI ROLANDO LACRIMIOARA", "lat": 45.7327859, "adresa": " ULPIA TRAIANA nr.47 bl.- sc.- et.- ap.-", "data": "04.11.2002", "descriere": "Racord canal", "lng": 21.226253}, {"beneficiar": "TRIF ILARIE si TRIF RODICA", "lat": 45.7417779, "adresa": " PIATA CRUCII nr.2 ap.5-6", "data": "04.11.2002", "descriere": "Locuinta - modificari interioare si exterioare, extindere si amenajare pod existent in mansarda.", "lng": 21.232327}, {"beneficiar": "TAPALAGA ION", "lat": 45.746238, "adresa": " BV.EROILOR nr.7/A bl.- sc.- et.- ap.-", "data": "23.12.2002", "descriere": "Legalizare garaj auto conf. HCL 132/2002", "lng": 21.237243}, {"beneficiar": "ZAVOLAN MIHAI DORU", "lat": 45.746238, "adresa": " EROILOR nr.7/A bl.- sc.- et.- ap.-", "data": "23.12.2002", "descriere": "Legalizare garaj auto conf. HCL 132/2002.", "lng": 21.237243}, {"beneficiar": "DRAGOS VICTOR, MIRZA IONEL MIRCEA, BEREVOIANU DANUT", "lat": 45.77422989999999, "adresa": " PERLEI NR. 2 - STR.IRLANDA 53", "data": "23.12.2002", "descriere": "Legalizare 3 garaje - pozitiile 2,3,4 (cele marcate) conf. H.CL. 132/2002.", "lng": 21.2337401}, {"beneficiar": "SAVA LIDIA  SIMONA", "lat": 45.7320469, "adresa": " HEBE nr.33", "data": "23.12.2002", "descriere": "Extindere imobil in regim P. - Legalizare conf. art. 25 din L.453/2001.", "lng": 21.2152962}, {"beneficiar": "ROSU GABRIEL SI SOTIA ROSU ELENA", "lat": 45.761587, "adresa": " SALCIEI nr.2 sc.B et.IV ap.19", "data": "23.12.2002", "descriere": "Locuinta - modificari interioare la ap. 19.", "lng": 21.21172}, {"beneficiar": "TOTH MARIA MARGARETA , TOTH FEDERIC - ARPAD si TOTH GUTU ATTILA", "lat": 45.7342254, "adresa": " SALCIMILOR nr.23 sc.A ap.1", "data": "23.12.2002", "descriere": "Construire balcon la parterul blocului pt. imbunatatirea confortului.", "lng": 21.2311655}, {"beneficiar": "S.A. GATTI FORNITURE S.R.L.", "lat": 45.770902, "adresa": " CALAN nr.2", "data": "23.12.2002", "descriere": "Garaj - construire in regim parter si construire scara acces.", "lng": 21.220793}, {"beneficiar": "SOMICU MIHAITA SI SOMICU AURICA", "lat": 45.746483, "adresa": " SATU MARE nr.21", "data": "23.12.2002", "descriere": "Locuinta - Construire casa parter si imprejmuire.", "lng": 21.264121}, {"beneficiar": "POPOVICI VICTOR", "lat": 45.75706, "adresa": " MERCY nr.7 bl.- sc.- et.- ap.-", "data": "20.12.2002", "descriere": "Amenajare Cafe Bar in boxele de la subsolul imobilului - Realizare acces de la parter la subsol, recompartimentare subsol - Legalizare conf. art. 25 din L.453/2001.", "lng": 21.228761}, {"beneficiar": "LUDWIG  MIHAI  SI SOTIA  GABRIELA  CORA", "lat": 45.75712739999999, "adresa": " BANUL MARACINE nr.21", "data": "20.12.2002", "descriere": "Bransament gaze naturale prin pozare subterana.", "lng": 21.2069183}, {"beneficiar": "SC MODATIM S.A.", "lat": 45.756417, "adresa": " BREDICEANU nr.10 bl.- sc.- et.- ap.-", "data": "19.12.2002", "descriere": "Construire tunel de legatura intre fabrica de productie si hala de depozitare.", "lng": 21.22109}, {"beneficiar": "CRETU LIVIU SI SOTIA CRETU ANA", "lat": 45.736689, "adresa": " DREPTATEA nr.1A bl.- sc.- et.- ap.-", "data": "19.12.2002", "descriere": "Locuinta - Mansardare garaj si anexa parter in executie conf. A.C. 1739/2002 rezultand regim P+M.", "lng": 21.201759}, {"beneficiar": "SC HEMARTEX PLUS S.R.L.", "lat": 45.741436, "adresa": " Cal.Buziasului nr.18 bl.- sc.- et.- ap.-", "data": "19.12.2002", "descriere": "Hala de productie si depozitare - refatadadizare la hala existenta in regim P+2E (inlocuire timplarie metalica cu tamplarie PVC; zugraveli exterioare) si recompartimentari la hala realizata cu A.C. 985/2000 - modificare regim de inaltime de la P+2E la P+1E si constructie scara de incendiu exterioara.", "lng": 21.255878}, {"beneficiar": "SOPT FLORICA ELENA", "lat": 45.769353, "adresa": " ION ROATA nr.15", "data": "14.12.2002", "descriere": "Locuinta cu cabinet medical la parter - legalizare modificari la A.C. 192/1995 - conform art. 25 din L.453/2001.", "lng": 21.238438}, {"beneficiar": "SAMFESCU DAN OVIDIU , SAMFESCU DANIELA CONSTANTA", "lat": 45.761604, "adresa": " MIRCEA CEL BATRAN nr.27 bl.- sc.- et.- ap.1", "data": "19.12.2002", "descriere": "Locuinta - construire balcon la ap. nr. 1 pentru imbunatatirea confortului.", "lng": 21.209775}, {"beneficiar": "MOCAN  ROVIN  SI  SOTIA MOCAN ECATERINA", "lat": 45.761484, "adresa": " BV. TAKE IONESCU nr.69 bl.- sc.- et.- ap.-", "data": "19.12.2002", "descriere": "Bransament gaze naturale prin pozare subterana", "lng": 21.243628}, {"beneficiar": "PRODAN MARIOARA", "lat": 45.7785182, "adresa": " CIRCUMVALATIUNII nr.37 bl.72 sc.A et.2 ap.10", "data": "14.12.2002", "descriere": "Locuinta - Modificari interioare la ap. 10 pentru imbunatatirea confortului", "lng": 21.2120382}, {"beneficiar": "JURCA MIRCEA SI SOTIA CARMEN", "lat": 45.7785182, "adresa": " CIRCUMVALATIUNII nr.37 bl.72 sc.A et.5 ap.21", "data": "14.12.2002", "descriere": "Locuinta - Modificari interioare la ap. 21 pentru imbunatatirea confortului.", "lng": 21.2120382}, {"beneficiar": "LUPULESCU COREOLAN SI SOTIA ELENA", "lat": 45.7785182, "adresa": " CIRCUMVALATIUNII nr.37 bl.72 sc.A et.7 ap.32", "data": "14.12.2002", "descriere": "Locuinta - amenajari interioare la ap. 32 pt. imbunatatirea confortului.", "lng": 21.2120382}, {"beneficiar": "DIOSAN IOAN si sotia DIOSAN ANA", "lat": 45.7535049, "adresa": " C.A.ROSETTI nr.26", "data": "14.12.2002", "descriere": "Extindere casa parter, modificari interioare, schimbare invelitoare.", "lng": 21.185378}, {"beneficiar": "S.C. MOL ROMANIA P.P. S.R.L.", "lat": 45.769186, "adresa": " MIRESEI nr.1 bl.- sc.- et.-", "data": "14.12.2002", "descriere": "Constructie cu caracter provizoriu pe durata valabilitatii contractului de inchiriere - Amplasare 2 panorui publicitare 5 x 2,38 m pentru S.C. MULTIRECLAMA S.R.L.", "lng": 21.2201999}, {"beneficiar": "ACHIMESCU AUREL SI SOTIA ACHIMESCU CALIOPI AURELIA", "lat": 45.7398906, "adresa": " MEMORANDULUI nr.43", "data": "19.12.2002", "descriere": "Locuinta - Demolare constructii si construire imprejmuire.", "lng": 21.2299563}, {"beneficiar": "S.C. DIBSER S.R.L.", "lat": 45.762813, "adresa": " S.BARNUTIU nr.30 bl.- sc.- et.- ap.1", "data": "19.12.2002", "descriere": "Sediu firma - schimbare destinatie din spatiu de locuit si realizare acces direct din strada. Constructie provizorie - amplasare firma pe fatada.", "lng": 21.248179}, {"beneficiar": "ACHIMESCU AUREL si sotia ACHIMESCU CALIOPI AURELIA", "lat": 45.7399667, "adresa": " MEMORANDULUI nr.45 bl.- sc.- et.- ap.-", "data": "19.12.2002", "descriere": "Locuinta - demolare casa parter si construire imprejmuire.", "lng": 21.2302044}, {"beneficiar": "ASOCIATIA  DE PROPRIETARI prin MARIUS ADRIANA", "lat": 45.774365, "adresa": " LIEGE nr.1 bl.- sc.- et.- ap.-", "data": "14.12.2002", "descriere": "Locuinta - construire acoperis tip sarpanta cu invelitoare din tigla la bloc P+4E.", "lng": 21.220651}, {"beneficiar": "PICIOR LIVIU SI SOTIA MONICA DIANA", "lat": 45.769006, "adresa": " VISTULA nr.1/B bl.- sc.- et.- ap.-", "data": "14.12.2002", "descriere": "Locuinta - Modificare etaj la casa autorizata cu A.C. nr. 665/2000 in regim S+P+1E.", "lng": 21.2003933}, {"beneficiar": "BUS ECATERINA", "lat": 45.760601, "adresa": " Badea Cartan nr.1", "data": "14.12.2002", "descriere": "Locuinta - extindere cu o terasa inchisa si acoperita in regim P pe teren concesionat.", "lng": 21.248425}, {"beneficiar": "CENTRUL DE EDUCATIE CRESTINA SI CULTURA CONTEMPORANA \"AREOPAGUS\" TIMISOARA", "lat": 45.726681, "adresa": " C.MARTIRILOR nr.106", "data": "14.12.2002", "descriere": "Desfiintare casa si anexa parter.", "lng": 21.236885}, {"beneficiar": "S.C. BEGA CHIM S.A.", "lat": 45.7416399, "adresa": " C.BUZIASULUI nr.3 bl.- sc.- et.- ap.-", "data": "19.12.2002", "descriere": "Amenajare centrala termica 2 X 2T/H in cladirea compresoarelor.", "lng": 21.2561329}, {"beneficiar": "NICOLICEA PAIDOLA PETRU si NICOLICEA PAIDOLA MARIANA", "lat": 45.7410824, "adresa": " C.BRANCOVEANU nr.16 bl.- sc.- et.- ap.-", "data": "19.12.2002", "descriere": "Amenajare spatiu comercial la imobil parter, realizare acces direct si amplasare firma pe fatada pt. S.C. KUHLBURGER S.R.L.", "lng": 21.2141512}, {"beneficiar": "ROSCA DUMITRU SI ROSCA RODICA", "lat": 45.735675, "adresa": " CAL.SAGULUI nr.1 sc.A ap.17", "data": "19.12.2002", "descriere": "Amplasare firma pe fatada pt. S.C. MEDIMUN S.R.L.- Constructie cu caracter provizoriu pe durata contractului de inchiriere.", "lng": 21.209591}, {"beneficiar": "PUSTAI GAVRIL si sotia PUSTAI ELENA", "lat": 45.721284, "adresa": " HERCULANE nr.101 bl.- sc.- ap.-", "data": "14.12.2002", "descriere": "Construire gard - la limita din dreapta ( l = 24 m)", "lng": 21.216722}, {"beneficiar": "IONESCU VIRGIL EMIL SI SOTIA IONESCU TAMARA MARIA", "lat": 45.718064, "adresa": " MARGARITARILOR nr.52 bl.- sc.- et.-", "data": "14.12.2002", "descriere": "2 anexe gospodaresti - construire in regim P.", "lng": 21.21662}, {"beneficiar": "SERBAN IOAN SI SOTIA MARIA", "lat": 45.7785182, "adresa": " CIRCUMVALATIUNII nr.37 bl.72 sc.A et.2 ap.11", "data": "14.12.2002", "descriere": "Locuinta - Amenajari interioare la ap. 11 pentru imbunatatirea confortului.", "lng": 21.2120382}, {"beneficiar": "ASOCIATIA DE LOCATARI prin NAGY FLORICA", "lat": 45.729999, "adresa": " A.IPATESCU nr.18 sc.D", "data": "14.12.2002", "descriere": "Bloc locuinte - Realizare acoperis tip sarpanta din lemn cu invelitoare sin tigla sc.D etapa I-a", "lng": 21.203024}, {"beneficiar": "BISERICA PENTICOSTALA  \"FILADELFIA\"", "lat": 45.74933799999999, "adresa": " TORAC nr.3 ap.2,3,4", "data": "10.12.2002", "descriere": "Amenajare spatiu existent la parter si realizarea unei mansarde in podul existent rezultand regim P+M.", "lng": 21.255579}, {"beneficiar": "SUBA CONSTANTIN SI SUBA EUGENIA", "lat": 45.7457459, "adresa": " Bv.Eroilor nr.10-12 sc.c et.4 ap.17", "data": "10.12.2002", "descriere": "Inchidere logie cu tamplarie aluminiu si geam termopan.", "lng": 21.237921}, {"beneficiar": "S.C. U.P.C. ROMANIA S.A.", "lat": 45.772123, "adresa": " CAL. ARADULUI nr.32 bl.- sc.- et.- ap.-", "data": "10.12.2002", "descriere": "Amplasare tothem publicitar in fata caseriei conf. HCL 274/2001 - constructie cu caracter provizoriu pe durata contractului de inchiriere", "lng": 21.222766}, {"beneficiar": "ABRUDAN FLORIN SAVU si sotia ABRUDAN FELICIA", "lat": 45.730003, "adresa": " J.WEISSMULLER nr.25 bl.- sc.- et.- ap.-", "data": "10.12.2002", "descriere": "Locuinta - construire locuinta in regim P+1E, garaj parter si imprejmuire teren.", "lng": 21.195343}, {"beneficiar": "INSTITUTUL NATIONAL DE CERCETARE - DEZVOLTARE PT. MASINI  SI INSTALATII DESTINATE AGRICULTURII SI IN", "lat": 45.7557209, "adresa": " BV.rEVOLUTIEI nr.15A bl.- sc.- et.- ap.-", "data": "10.12.2002", "descriere": "Constructie cu caracter provizoriu - pe durata contractului de inchiriere - amplsare 3 firme luminoase pe fatada cladirii pt. S.C. Asigurare Reasigurare AGI - Romania S.A.", "lng": 21.2359372}, {"beneficiar": "MOROZ REMUS MIHAI si sotia MOROZ VIORICA", "lat": 45.762321, "adresa": " Mircea cel Batran nr.58 bl.- sc.- et.- ap.-", "data": "10.12.2002", "descriere": "Locuinta  -  Modificari interioare la ap. nr. 11.", "lng": 21.202015}, {"beneficiar": "IVAN DANIEL, IVAN CRISTINA", "lat": 45.754728, "adresa": " BIRZAVA nr.3 bl.- sc.- et.- ap.-", "data": "19.12.2002", "descriere": "Construire locuinta P+M si imprejmuire.", "lng": 21.198458}, {"beneficiar": "BUTNARIU   CONSTANTIN  SI  BUTNARU  CORNELIA", "lat": 45.7318472, "adresa": " RANETTI nr.44 bl.- sc.- et.- ap.-", "data": "19.12.2002", "descriere": "Bransament gaze naturale prin pozare subterana", "lng": 21.2131567}, {"beneficiar": "CHIPER VASILE  SI CLAUDINA PRIN BRAYTIM S.R.L.", "lat": 45.723524, "adresa": " MARTIRILOR nr.51/67 bl.- sc.- et.- ap.-", "data": "19.12.2002", "descriere": "Locuinta - casa familiala in regim P+M si garaj.", "lng": 21.236726}, {"beneficiar": "BOCSA NICOLAE", "lat": 45.762813, "adresa": " S.BARNUTIU nr.1", "data": "14.12.2002", "descriere": "Spatiu comercial - amenajari interioare si exterioare , acces direct din exterior; constructie provizorie pe durata contractului  de inchiriere - amplasare firma luminoasa pe fatada cladirii.", "lng": 21.248179}, {"beneficiar": "UNIVERSITATEA  DE VEST", "lat": 45.748233, "adresa": " N.TITULESCU nr.11", "data": "14.12.2002", "descriere": "Locuinta de serviciu - amenajari interioare pentru imbunatatirea confortului.", "lng": 21.210475}, {"beneficiar": "S.C. ELECTRICA S.A.", "lat": 45.7469827, "adresa": " 16 DECEMBRIE 1989", "data": "15.11.2002", "descriere": "Panou publicitar - Amplasare panou publicitar pe stalp ELECTRICA - cu caracter provizoriu pana la expirarea contractului de inchiriere cu P.M.T.", "lng": 21.2169281}, {"beneficiar": "PALEU  DUMITRU  SI  sotia PALEU GABRIELA", "lat": 45.728119, "adresa": " FRUCTELOR nr.1/B bl.- sc.- et.- ap.-", "data": "27.11.2002", "descriere": "Bransament gaze naturale prin pozare subterana.", "lng": 21.204149}, {"beneficiar": "LAUTAS ELVIRA, LAUTAS  MIRCEA", "lat": 45.76048, "adresa": " BUSUIOC nr.2A bl.- sc.- et.- ap.-", "data": "27.11.2002", "descriere": "Bransament apa si racord canal", "lng": 21.198193}, {"beneficiar": "S.C. DOMLUX  S.R.L.", "lat": 45.760693, "adresa": " PAULIS nr.3-5 bl.- sc.- et.- ap.-", "data": "27.11.2002", "descriere": "Bransament apa si racord canal", "lng": 21.201346}, {"beneficiar": "GOLUB  ANDREI  SI GOLUB  ANA", "lat": 45.76039, "adresa": " BUSUIOC nr.1", "data": "27.11.2002", "descriere": "Bransament apa, racord canal.", "lng": 21.198193}, {"beneficiar": "SC ACELLUM S.R.L.", "lat": 45.731219, "adresa": " C.BUZIASULUI nr.11 bl.- sc.- et.- ap.-", "data": "19.12.2002", "descriere": "Unitate productie industriala - amenajare fatada si constructie sopron materiale deschis.", "lng": 21.2649}, {"beneficiar": "PARVANI STEFAN PT. MEGA AUTO S.R.L.", "lat": 45.7373779, "adresa": " L.LREBREANU nr.113 bl.- sc.- et.- ap.-", "data": "14.12.2002", "descriere": "Spatiu comercial - modificari interioare si xterioare prin realizare acces directa din strada pt. amenajare magazin si amplasare firma pe fatada.", "lng": 21.2338358}, {"beneficiar": "SC BEGA INVEST S.A. TIMISOARA", "lat": 45.7424156, "adresa": " V.ONITIU nr.13-15 bl.- sc.- et.- ap.-", "data": "13.12.2002", "descriere": "Imobi - Desfiintare partiala imobil P existent- corp 2,3,4,5,6.", "lng": 21.2222878}, {"beneficiar": "IGNATOAIE  ADRIAN  SI   SOTIA IGNATOAIE ALINA , BALANEAN NELU -DANIEL SI SOTIA BALANEAN FLORICA, POT", "lat": 45.771341, "adresa": " VERDE nr.4/B bl.- sc.- et.- ap.-", "data": "13.12.2002", "descriere": "Bransament gaze naturale prin pozare subterana.", "lng": 21.242061}, {"beneficiar": "ARDELEANU FLORIN", "lat": 45.7677509, "adresa": " Plugarilor nr.14 bl.- sc.- et.- ap.-", "data": "13.12.2002", "descriere": "Mansardare anexa parter.", "lng": 21.205201}, {"beneficiar": "MARCU  LUCIAN  ALEXANDRU  SI  SOTIA MARCU LOTICA CAZARICA", "lat": 45.731133, "adresa": " DRUBETA nr.75 bl.- sc.- et.- ap.-", "data": "12.12.2002", "descriere": "Bransament gaze naturale prin pozare subterana", "lng": 21.227736}, {"beneficiar": "TAKACS VALENTIN - TOMY si sotia TAKACS NICOLETA  IOVANCA", "lat": 45.771519, "adresa": " ALBINELOR nr.66 bl.- sc.- et.- ap.-", "data": "12.12.2002", "descriere": "Bransament gaze naturale prin pozare subterana.", "lng": 21.248264}, {"beneficiar": "POPOVICIU  AURORA  FLORICA", "lat": 45.751131, "adresa": " BV. C.D.LOGA nr.24 bl.- sc.- et.- ap.-", "data": "09.12.2002", "descriere": "Bransament gaze naturale prin pozare subterana", "lng": 21.2322479}, {"beneficiar": "MICLEA DRAGOS FLORIN SI TIGARAN DAN", "lat": 45.767539, "adresa": " Cal. Aradului nr.25 bl.- sc.B et.- ap.12", "data": "09.12.2002", "descriere": "Cabinet medical - creare 2 accese la ap. 1 si ap. 2 pentru cabinet urologie si andrologie.", "lng": 21.2242019}, {"beneficiar": "SIMOI GLIGOR", "lat": 45.770241, "adresa": " OBOIULUI nr.2A", "data": "06.12.2002", "descriere": "Legalizare garaj nr. 3 conf. HCL 132/2002.", "lng": 21.213644}, {"beneficiar": "ASOCIATIA DE PROPRIETARI prin ELISABETA IOAN", "lat": 45.736417, "adresa": " CAL.MARTIRILOR nr.42 bl.C2 sc.B", "data": "06.12.2002", "descriere": "Construire acoperis tip sarpanta cu invelitoare din tigla la bloc S+P+4E.", "lng": 21.237701}, {"beneficiar": "CIRPACI  BRATICA  SI  SOTIA CIRPACI ANA", "lat": 45.718506, "adresa": " BUJORILOR nr.130/A bl.- sc.- et.- ap.-", "data": "27.11.2002", "descriere": "Bransament apa si racord canal", "lng": 21.209386}, {"beneficiar": "OLTEAN  LUCRETIA", "lat": 45.7707139, "adresa": " COSARILOR nr.7 bl.- sc.- et.- ap.-", "data": "27.11.2002", "descriere": "Bransament gaze naturale prin pozare subterana", "lng": 21.1979746}, {"beneficiar": "BUZAN  VASILE", "lat": 45.7704159, "adresa": " COSARILOR nr.12 bl.- sc.- et.- ap.-", "data": "27.11.2002", "descriere": "Extindere retea si bransament gaze naturale prin pozare subterana", "lng": 21.1980081}, {"beneficiar": "BUZAN  VASILE  SI SOTIA BUZAN  ELENA", "lat": 45.7706311, "adresa": " COSARILOR nr.4 bl.- sc.- et.- ap.-", "data": "27.11.2002", "descriere": "Bransament gaze naturale prin pozare subterana", "lng": 21.1973316}, {"beneficiar": "BIRGEAN  MARIUS  AUREL , BIRGEAN ALINA", "lat": 45.757192, "adresa": " CIOCARLIEI nr.25 bl.- sc.- et.- ap.-", "data": "27.11.2002", "descriere": "Bransament apa si racord canal", "lng": 21.187969}, {"beneficiar": "MUNTEAN  IOSIF  si sotia MUNTEAN  OLGITA", "lat": 45.720205, "adresa": " BIRSEI nr.26 bl.- sc.- et.-", "data": "05.11.2002", "descriere": "Bransament gaze naturale prin pozare subterana.", "lng": 21.20627}, {"beneficiar": "IDORASI ADRIAN CORNEL si sotia CORINA", "lat": 45.719525, "adresa": " BUJORILOR nr.122", "data": "05.11.2002", "descriere": "Anexe gospodaresti in regim de inaltime parter - Demolare", "lng": 21.208793}, {"beneficiar": "BIRO ROZALIA SI SOTUL BIRO ANDREI", "lat": 45.755212, "adresa": " I.MICU KLEIN nr.5", "data": "05.11.2002", "descriere": "Locuinta - extindere ap. nr. 3/B in regim de inaltime P+M.", "lng": 21.259246}, {"beneficiar": "BERTOLASO FAUSTO, TREVISANI LUCIANO, LERCO DANIELA", "lat": 45.74098, "adresa": " C.PORUMBESCU nr.6 ap.9,10,11", "data": "05.11.2002", "descriere": "Reamenajare si recompartimentari interioare la ap. 9,10,11 rezultand 4 ap. cu 2 camere - ap. 9,10,11,12.", "lng": 21.223377}, {"beneficiar": "LIPOVAN  MIRCEA ,LAZAR TRAIAN, ONAC ADRIANA, POPESCU EVA SI MEZEI MARIA", "lat": 45.7469827, "adresa": " 16 DECEMBRIE 1989 nr.4 bl.- sc.- et.-", "data": "18.12.2002", "descriere": "Extindere retea si bransament gaze naturale prin pozare subterana.", "lng": 21.2169281}, {"beneficiar": "IOVANOV  DRAGUTIN  SI IOVANOV  BISERCA", "lat": 45.750715, "adresa": " NEKRASOV nr.11 bl.- sc.- et.- ap.-", "data": "18.12.2002", "descriere": "Bransament gaze naturale prin pozare subterana.", "lng": 21.18601}, {"beneficiar": "S.C. OCTALI  CHIMPROD  S.R.L.", "lat": 45.728748, "adresa": " CAL. BUZIASULUI nr.19A bl.- sc.- et.- ap.-", "data": "18.12.2002", "descriere": "Bransament gaze naturale prin pozare subterana", "lng": 21.270581}, {"beneficiar": "CUT  DORIN  ION  SI  SOTIA CUT ANDREIA  ELISABETA", "lat": 45.757709, "adresa": " CAL. BOGDANESTILOR nr.76 bl.- sc.- et.- ap.-", "data": "18.12.2002", "descriere": "Racord canal in str. Ion Ratiu", "lng": 21.196024}, {"beneficiar": "SIKLI  ELISABETA", "lat": 45.756558, "adresa": " STEFAN CEL MARE nr.4 bl.- sc.- et.- ap.11", "data": "12.12.2002", "descriere": "Bransament gaze naturale prin pozare subterana", "lng": 21.249107}, {"beneficiar": "S.C. MAREBLU & CO S.R.L.", "lat": 45.763542, "adresa": " SIMION BARNUTIU nr.28 bl.- sc.- et.- ap.-", "data": "12.12.2002", "descriere": "Racord canal", "lng": 21.252516}, {"beneficiar": "TUDUCE  IOAN  SI  SOTIA TUDUCE MARIA", "lat": 45.726273, "adresa": " EMIL RACOVITA nr.25A bl.- sc.- et.- ap.-", "data": "12.12.2002", "descriere": "Bransament gaze naturale prin pozare subterana", "lng": 21.26405}, {"beneficiar": "ROSU  PETRE  SI  ROSU EVA", "lat": 45.73429590000001, "adresa": " HEBE nr.17 bl.- sc.- et.- ap.-", "data": "12.12.2002", "descriere": "Bransament gaze naturale prin pozare subterana", "lng": 21.2155002}, {"beneficiar": "VELA SIMONA MIHAELA SI VELA SORIN pentru ZABORILA FLORIN SI ZABORILA FLORINA", "lat": 45.738568, "adresa": " MEMORANDULUI nr.82 bl.- sc.- et.- ap.1", "data": "12.12.2002", "descriere": "Extindere retea; bransament gaze naturale prin pozare subterana", "lng": 21.225195}, {"beneficiar": "BADETI  DOINITA", "lat": 45.76530899999999, "adresa": " PALMIERILOR nr.21 bl.- sc.- et.- ap.-", "data": "12.12.2002", "descriere": "Bransament gaze naturale prin pozare subterana", "lng": 21.264636}, {"beneficiar": "S.C. SAIFTIM S.A.", "lat": 45.75639, "adresa": " BREDICEANU nr.8 bl.- sc.- et.- ap.-", "data": "06.12.2002", "descriere": "Constructie cu caracter  provizoriu pe durata contractului de inchiriere - Amplasare firma luminoasa pe imobil pt. S.C. PCNET DATA", "lng": 21.2216549}, {"beneficiar": "URSU MARITA si URSU DAN", "lat": 45.774698, "adresa": " Cal.Lipovei nr.319 ap.2", "data": "06.12.2002", "descriere": "Locuinta - extindere locuinta prin construire balcon.", "lng": 21.232817}, {"beneficiar": "ARDELEANU RODICA CORNELIA", "lat": 45.737359, "adresa": " PRAHOVA nr.11 bl.- sc.- et.- ap.-", "data": "06.12.2002", "descriere": "Locuinta - Reparatii, extindere si amanejarea podului existent in mansarda rezultand regim P+M fara depasirea inaltimii la coama existenta.", "lng": 21.201882}, {"beneficiar": "PAUNEATA EMIL si sotia MINUTA AURICA", "lat": 45.719145, "adresa": " MARGARITARILOR nr.32", "data": "06.12.2002", "descriere": "Construire garaj pentru 2 autoturisme pe teren proprietate si gard la frontul stradal.", "lng": 21.21558}, {"beneficiar": "IURESEL  VASILIA", "lat": 45.744791, "adresa": " MIHAI VITEAZU nr.28 bl.- sc.- et.- ap.-", "data": "15.11.2002", "descriere": "Extindere retea; bransament gaze naturale prin pozare subterana", "lng": 21.225486}, {"beneficiar": "EL HASSAINA MOUSA", "lat": 45.7315413, "adresa": " C.MARTIRILOR nr.39", "data": "15.11.2002", "descriere": "Legalizare spatii comerciale in regim parter.", "lng": 21.2375117}, {"beneficiar": "BRAD   GHEORGHE", "lat": 45.755192, "adresa": " Cal.Bogdanestilor nr.94", "data": "14.11.2002", "descriere": "Bransament apa si racord canal.", "lng": 21.191786}, {"beneficiar": "CRETU  ADRIAN  DAN  SI  SOTIA CRETU VOLUMIA  DANIELA", "lat": 45.75822, "adresa": " FLACARA nr.39 bl.- sc.- et.- ap.-", "data": "14.11.2002", "descriere": "Bransament apa", "lng": 21.277752}, {"beneficiar": "DIMA VICTOR si sotia GABRIELA", "lat": 45.7715478, "adresa": " MILOS CIRNEANSKI nr.33A", "data": "14.11.2002", "descriere": "Locuinta - construire casa P+M.", "lng": 21.2003651}, {"beneficiar": "BATRIN  GHEORGHE  SI SOTIA BATRIN  FLOAREA", "lat": 45.736629, "adresa": " PRAHOVA nr.9 bl.- sc.- et.- ap.-", "data": "14.11.2002", "descriere": "Bransament apa si racord canal", "lng": 21.202841}, {"beneficiar": "MUSTETI    IOAN  SI  MUSTETI MARTA", "lat": 45.760368, "adresa": " BUSUIOC nr.3 bl.- sc.- et.- ap.-", "data": "27.11.2002", "descriere": "Bransament apa si racord canal", "lng": 21.197852}, {"beneficiar": "BRICIU  SIMION  SI  BRICIU SAVA", "lat": 45.760435, "adresa": " BUSUIOC nr.6 bl.- sc.- et.- ap.-", "data": "27.11.2002", "descriere": "Bransament apa si racord canal", "lng": 21.197494}, {"beneficiar": "S.C. HELIOFARM  S.R.L.", "lat": 45.743591, "adresa": " I. PREYER nr.1 bl.- sc.- et.- ap.-", "data": "27.11.2002", "descriere": "Bransament gaze naturale prin pozare subterana", "lng": 21.206494}, {"beneficiar": "FUNDATIA \"PROGRESS\" CLUJ NAPOCA prin VETESI ZOLTAN", "lat": 45.7446399, "adresa": " PUTNA nr.7 bl.- sc.- et.- ap.-", "data": "27.11.2002", "descriere": "Bransament gaze naturale prin pozare subterana", "lng": 21.233459}, {"beneficiar": "SC CLASS CONSULTING SRL", "lat": 45.760907, "adresa": " CIRCUMVALATIUNII nr.37", "data": "05.11.2002", "descriere": "Schimbare destinatie spatiu n birou, prin modificari interioare, amplasare firma pe fatada.", "lng": 21.218283}, {"beneficiar": "STOICA LIVIU SI SOTIA STOICA ALISA", "lat": 45.72414699999999, "adresa": " BUJORILOR nr.45", "data": "05.11.2002", "descriere": "Demolare partiala anexa si garaj. Locuinta - Modificari interioare si exterioare prin extindere si mansardare  partiala rezultand locuinta in regim P+M partial si construire garaj parter.", "lng": 21.20627}, {"beneficiar": "IONESCU  ANDREI   CRISTIAN", "lat": 45.7436282, "adresa": " ODOBESCU nr.30 bl.- sc.- et.- ap.-", "data": "18.12.2002", "descriere": "Modificare interioara la canalizare", "lng": 21.218408}, {"beneficiar": "TARINA  DORINA", "lat": 45.758027, "adresa": " C. NEGRUZZI nr.27 bl.- sc.- et.- ap.-", "data": "18.12.2002", "descriere": "Extindere retea; bransament gaze naturale prin pozare subterana", "lng": 21.253461}, {"beneficiar": "STRAUT IOAN  SI  STRAUT STELA", "lat": 45.7334468, "adresa": " ENEAS nr.27 bl.- sc.- et.- ap.-", "data": "18.12.2002", "descriere": "Bransament gaze naturale prin pozare subterana", "lng": 21.2146772}, {"beneficiar": "ENE  PUIU  PAUL", "lat": 45.763699, "adresa": " VIRTUTII nr.14 bl.- sc.- et.- ap.-", "data": "18.12.2002", "descriere": "Bransament gaze naturale prin pozare subterana", "lng": 21.2423412}, {"beneficiar": "S.C.  SULFATIM  S.A.", "lat": 45.715545, "adresa": " BUJORILOR nr.173 bl.- sc.- et.- ap.-", "data": "18.12.2002", "descriere": "Bransament gaze naturale prin pozare subterana", "lng": 21.2112659}, {"beneficiar": "MIHAILESCU  RADU  MIHAI SI  SOTIA MIHAILESCU VALERIA", "lat": 45.760031, "adresa": " GAROFITEI nr.2 bl.- sc.- et.- ap.-", "data": "18.12.2002", "descriere": "Extindere retea si bransament gaze naturale prin pozare subterana.", "lng": 21.265459}, {"beneficiar": "UNIVERSITATEA  POLITEHNICA", "lat": 45.7535292, "adresa": " P-TA VICTORIEI nr.2 bl.- sc.- et.- ap.-", "data": "18.12.2002", "descriere": "Bransament gaze naturale prin pozare subterana.", "lng": 21.2249286}, {"beneficiar": "TIBA SEBASTIAN SI  SOTIA TIBA GABRIELA", "lat": 45.7457806, "adresa": " I., VACARESCU nr.37 bl.- sc.- et.- ap.-", "data": "11.12.2002", "descriere": "Bransament gaze naturale prin pozare subterana", "lng": 21.2081203}, {"beneficiar": "JEBELEANU  EMILIA  SI SOTUL JEBELEANU NICOLAE EUGEN", "lat": 45.7413586, "adresa": " I. VACARESCU nr.35A bl.- sc.- et.1 ap.1", "data": "11.12.2002", "descriere": "Bransament gaze naturale prin pozare subterana", "lng": 21.2110053}, {"beneficiar": "IOVANEL  LIVIA", "lat": 45.730922, "adresa": " MILOIA nr.8 bl.- sc.- et.- ap.-", "data": "10.12.2002", "descriere": "Bransament gaze naturale prin pozare subterana", "lng": 21.221948}, {"beneficiar": "GLIGOR VASILE SI SOTIA GLIGOR MIHAELA ADRIANA", "lat": 45.774095, "adresa": " PISA nr.6A bl.- sc.- et.- ap.-", "data": "10.12.2002", "descriere": "Bransament apa si racord canal", "lng": 21.248386}, {"beneficiar": "SARDENI  CONSTANTIN", "lat": 45.738484, "adresa": " MEMORANDULUI nr.12 bl.- sc.- et.- ap.-", "data": "10.12.2002", "descriere": "Bransament apa si racord canal", "lng": 21.2252389}, {"beneficiar": "PACURARIU PAVEL CORNEL, GRIBINCEA ADRIAN, BLAJ IULIU DIMITRIE, GRIBINCEA NICOLAI, VULCU AURELIA", "lat": 45.7556716, "adresa": " DR. NEMOIANU nr.13 bl.- sc.- et.- ap.1,2,3,7,10", "data": "10.12.2002", "descriere": "Bransament gaze naturale prin pozare subterana", "lng": 21.2212207}, {"beneficiar": "BORTUN ILIE", "lat": 45.754527, "adresa": " L.BLAGA nr.1 bl.- sc.- et.- ap.4", "data": "06.12.2002", "descriere": "Constructie cu caracter provizoriu pe durata contractului de inchiriere - Amplasare firma pe fatada cladirii conform variantei I pt. S.C.EUROPA TRAVEL S.R.L.", "lng": 21.227577}, {"beneficiar": "POPA SABIN ALEXANDRU si POPA DELIA", "lat": 45.75850399999999, "adresa": " Intrarea Zenit nr.8 bl.- sc.- et.- ap.-", "data": "06.12.2002", "descriere": "Locuinta - Modificari interioare ap. nr. 1.", "lng": 21.214914}, {"beneficiar": "IFTIMIE ROZALEA", "lat": 45.7403826, "adresa": " C.PORUMBESCU nr.15 bl.- sc.- et.- ap.-\n", "data": "06.12.2002", "descriere": "Constructie  cu caracter provizoriu pe durata valabilitatii contractului de inchiriere - Amplasare firma pe fatada pt S.C. PROGES S.R.L.", "lng": 21.2225418}, {"beneficiar": "VOICU IOAN si sotia VOICU MITA", "lat": 45.724203, "adresa": " C.MARTIRILOR nr.134", "data": "06.12.2002", "descriere": "Locuinta - Mansardare casa parter cu scara exterioara rezulta regim P+M.", "lng": 21.236623}, {"beneficiar": "CLETIU  CONSTANTIN  EUGEN  SI SOTIA DANIELA", "lat": 45.722607, "adresa": " GALILEI nr.18", "data": "14.11.2002", "descriere": "Bransament apa si racord canal.", "lng": 21.218155}, {"beneficiar": "IENCI NICOLAE SI IENCI ELISABETA", "lat": 45.7391102, "adresa": " C. BRANCAVEANU nr.39 bl.- sc.- et.- ap.-", "data": "14.11.2002", "descriere": "Bransament gaze naturale prin pozare subterana", "lng": 21.2156579}, {"beneficiar": "BRISCAN  TEODOR  SI SOTIA  BRISCAN DOMNICA", "lat": 45.757439, "adresa": " FLACARA nr.28 bl.- sc.- et.- ap.-", "data": "14.11.2002", "descriere": "Bransament gaze naturale prin pozare subterana", "lng": 21.2776609}, {"beneficiar": "ALBU EMIL  SI  LIPSCHNER  DOINA", "lat": 45.750227, "adresa": " JULES VERNE nr.61 bl.- sc.- et.- ap.-", "data": "14.11.2002", "descriere": "Bransament gaze naturale prin pozare subterana", "lng": 21.279446}, {"beneficiar": "TIMOTEI  MIRCEA", "lat": 45.775721, "adresa": " LOTUSULUI nr.12/A bl.- sc.- et.- ap.-", "data": "14.11.2002", "descriere": "Extindere retea; bransament gaze naturale prin pozare subterana", "lng": 21.240709}, {"beneficiar": "DAMIAN  IOAN  SI  SOTIA DAMIAN  LEONTINA", "lat": 45.758802, "adresa": " BOBALNA nr.17 bl.- sc.- et.- ap.-", "data": "14.11.2002", "descriere": "Bransament gaze naturale prin pozare subterana", "lng": 21.2754}, {"beneficiar": "BORCA  GHEORGHINA", "lat": 45.7534909, "adresa": " XENOPOL nr.5", "data": "27.11.2002", "descriere": "Bransament gaze naturale prin pozare subterana.", "lng": 21.1846609}, {"beneficiar": "TAKACS  VALENTIN  TOMY  SI SOTIA TAKACS NICOLETA  IOVANCA", "lat": 45.771519, "adresa": " ALBINELOR nr.66 bl.- sc.- et.- ap.-", "data": "26.11.2002", "descriere": "Bransament apa si racord canal.", "lng": 21.248264}, {"beneficiar": "CIOROGARIU ILIE", "lat": 45.759727, "adresa": " UZINEI nr.6", "data": "26.11.2002", "descriere": "Construire 2 garaje in regim P pe teren proprietate.", "lng": 21.261585}, {"beneficiar": "CAMCIUC DUMITRU SI CHIU TRIFU ALEXANDRU", "lat": 45.742476, "adresa": " I.VACARESCU nr.19 ap.7, 8", "data": "26.11.2002", "descriere": "Locuinta - amenajare ap. 7 si 8, realizare acces direct in ap. 7 pentru imbunatatirea confortului fara schimbarea destinatiei de locuinta.", "lng": 21.210603}, {"beneficiar": "VERESS GYONGYI GABRIELA si sotul NICOLAE", "lat": 45.7611445, "adresa": " GHE. LAZAR nr.34 et.7 ap.64", "data": "05.11.2002", "descriere": "Locuinta - Modificari interioare la ap. 64 pentru imbunatatirea confortului.", "lng": 21.2166479}, {"beneficiar": "S.C.ERICA ROMANIA CERMICHE ITALIANE S.R.L.", "lat": 45.764093, "adresa": " S.BARNUTIU nr.56A", "data": "05.11.2002", "descriere": "Complex comercial expozitional - creare goluri, amplasare firme si copertina pe fatadele cladirii.", "lng": 21.258202}, {"beneficiar": "ASOCIATIA DE PROPRIETARI prin SOIMU MARGARETA", "lat": 45.735067, "adresa": " D.KIRIAC nr.21 bl.A26", "data": "05.11.2002", "descriere": "Bloc locuinte P+4E. Construire sarpanta cu invelitoare tigla.", "lng": 21.211778}, {"beneficiar": "MARZA  FLORIAN MIRCEA", "lat": 45.7553632, "adresa": " IOSIF NEMOIANU nr.8", "data": "18.12.2002", "descriere": "Bransament gaze naturale prin pozare subterana.", "lng": 21.2212072}, {"beneficiar": "ASOCIATIA   DE  PROPRIETARI", "lat": 45.752759, "adresa": " PIATRA CRAIULUI nr.3 sc.D2, D3 et.- ap.-", "data": "18.12.2002", "descriere": "Bransament gaze naturale prin pozare subterana.", "lng": 21.223942}, {"beneficiar": "MIHALI  PETRU  si sotia MIHALI SANDA", "lat": 45.761885, "adresa": " TAPIA nr.7/A bl.- sc.- et.- ap.-", "data": "18.12.2002", "descriere": "Bransament gaze naturale prin pozare subterana.", "lng": 21.241257}, {"beneficiar": "PRIMARIA MUNICIPIULUI TIMISOARA - DIRECTIA PATRIMONIU", "lat": 45.755312, "adresa": " TACIT nr.23 bl.- sc.- et.- ap.-", "data": "10.12.2002", "descriere": "Extindere retea; bransament gaze naturale pentru Scoala generala nr. 11", "lng": 21.188516}, {"beneficiar": "ASOCIATIA DE PROPRIETARI", "lat": 45.75569, "adresa": " BREDICEANU nr.1A bl.- sc.- et.- ap.-", "data": "10.12.2002", "descriere": "Extindere retea; bransament gaze naturale prin pozare subterana", "lng": 21.223955}, {"beneficiar": "BIHOI  IOANA SIMONA  SI  BIHOI ADRIAN  ILIE", "lat": 45.7698931, "adresa": " C. DAVILLA nr.30 bl.- sc.- et.- ap.-", "data": "10.12.2002", "descriere": "Bransament gaze naturale prin pozare subterana", "lng": 21.2406036}, {"beneficiar": "TUDUCAN  TEODOR  CRACIUN  SI  SOTIA GIANINA  VIORICA", "lat": 45.775181, "adresa": " LINISTEI nr.7-9 bl.- sc.- et.- ap.-", "data": "10.12.2002", "descriere": "Bransament gaze naturale prin pozare subterana", "lng": 21.223388}, {"beneficiar": "CENTRUL CRESTIN TIMISOARA", "lat": 45.7659611, "adresa": " C.ARADULUI nr.15A", "data": "06.12.2002", "descriere": "Clinica \"BETESDA\" - continuare lucrari , modificari la fatade si acoperis, la 2 corpuri de cladiri S+P+2E si S+P+1E autorizate cu A.C. 200/1993.", "lng": 21.2245257}, {"beneficiar": "PIRSCOVEANU  DUMITRU  SI  ELENA  ,  PISLARU  GABRIELA SI PISLARU DUMITRU ION", "lat": 45.7401278, "adresa": " FELDIOARA nr.1 bl.- sc.- et.- ap.-", "data": "06.12.2002", "descriere": "Bransament termic ap. 2,4,6", "lng": 21.2279729}, {"beneficiar": "DIRECTIA PT.CULTURA, CULTE SI  PATRIMONIU NATIONAL A JUD. TIMIS", "lat": 45.756994, "adresa": " A.PACHA nr.8", "data": "06.12.2002", "descriere": "Sediu - lucrari de reparatii exterioare si interioare.", "lng": 21.229848}, {"beneficiar": "ASOCIATIA DE LOCATARI", "lat": 45.75624, "adresa": " BREDICEANU nr.17-21 bl.- sc.- et.-", "data": "14.11.2002", "descriere": "Bransament gaze naturale prin pozare subterana.", "lng": 21.220622}, {"beneficiar": "TRIFU    ILEANA", "lat": 45.75702200000001, "adresa": " LUNCANI nr.27 bl.- sc.- et.- ap.-", "data": "14.11.2002", "descriere": "Bransament apa", "lng": 21.278714}, {"beneficiar": "BECHE  MARIANA   ANGELA", "lat": 45.7307584, "adresa": " ARIADNA nr.27", "data": "14.11.2002", "descriere": "Racord canal.", "lng": 21.2176221}, {"beneficiar": "CARABAS  TRIFU  SI   KUNIGUNDE   MARIA", "lat": 45.7688585, "adresa": " OLANDA nr.18 bl.- sc.- et.- ap.-", "data": "14.11.2002", "descriere": "Bransament apa, racord canal", "lng": 21.2397744}, {"beneficiar": "POP  GHEORGHE  SI  POP FLORICA, OPREA PASCU", "lat": 45.72634799999999, "adresa": " ARCIDAVA nr.56 bl.- sc.- et.- ap.-", "data": "14.11.2002", "descriere": "Separare consum apa", "lng": 21.224402}, {"beneficiar": "BEJENARU  VASILE  GHEORGHE  SI SOTIA NELA", "lat": 45.749132, "adresa": " 1 DECEMBRIE nr.29", "data": "14.11.2002", "descriere": "Bransament gaze naturale prin pozare subterana.", "lng": 21.220053}, {"beneficiar": "SAVA VIOREL si SAVA DARINCA", "lat": 45.722639, "adresa": " ALUNIS nr.71-73 bl.- sc.- et.- ap.-", "data": "26.11.2002", "descriere": "Construire garaj parter, anexa si terasa inchisa S = 78,25 in regim Parter.", "lng": 21.231068}, {"beneficiar": "ACS LUDOVIC si ACS MARIOARA", "lat": 45.723611, "adresa": " ALUNIS nr.30", "data": "26.11.2002", "descriere": "Locuinta - Extindere, modificari interioare, exterioare si mansardare imobil P rezultand imobil P+M.Anexa - Extindere, modificari interioae , exterioare si mansardare rezultand anexa P+M.Legalizare conf. L.453/2001 art. 25, sentinta civila nr. 357/CA/2001 si Decizie Civila nr. 117/2002.", "lng": 21.224387}, {"beneficiar": "LUPESCU STELIAN SI LUPESCU ANA", "lat": 45.74529889999999, "adresa": " VICTOR BABES nr.33-35 et.P ap.4", "data": "26.11.2002", "descriere": "Amenajare cabinet medical si amplasare firma pe fatada.", "lng": 21.235804}, {"beneficiar": "TOROK  ANA", "lat": 45.755513, "adresa": " TIGRULUI nr.10 bl.- sc.- et.- ap.-", "data": "26.11.2002", "descriere": "Bransament gaze naturale prin pozare subterana", "lng": 21.256735}, {"beneficiar": "TUFARIU EUGEN ALIN, TUFARIU MARIOARA, TUFARIU EUGEN NICOLAE", "lat": 45.7284054, "adresa": " ranetti nr.69A", "data": "05.11.2002", "descriere": "Locuinta - Construire locuinta cuplata in regim P+M.", "lng": 21.2128743}, {"beneficiar": "TODOR DORIN", "lat": 45.7652704, "adresa": " M. KOGALNICEANU nr.12 bl.- sc.- et.- ap.-", "data": "05.11.2002", "descriere": "Extindere retea si bransament gaze naturale prin pozare pe str. Zurich", "lng": 21.2460071}, {"beneficiar": "DEHELEAN  GHEORGHE si sotia DEHELEAN CONSTANTA", "lat": 45.7312834, "adresa": " G. VERDI nr.5 bl.- sc.- et.- ap.-", "data": "31.10.2002", "descriere": "Bransament gaze naturale prin pozare subterana", "lng": 21.2068199}, {"beneficiar": "MARICA  GHEORGHE  SI  MARICA CONSTANTA", "lat": 45.72758, "adresa": " CAL. BUZIASULUI nr.45 bl.- sc.- et.- ap.-", "data": "31.10.2002", "descriere": "Bransament gaze naturale prin pozare subterana", "lng": 21.274408}, {"beneficiar": "BUREA ILIE si BUREA RAMONA SIMONA", "lat": 45.725606, "adresa": " PROGRESUL nr.6", "data": "24.10.2002", "descriere": "Locuinta - Construire imobil in regim D+P+E+M.", "lng": 21.221983}, {"beneficiar": "BOTOS FLORIN SI BOTOS VIORICA LUMINITA", "lat": 45.7352485, "adresa": " RANETTI nr.5A", "data": "24.10.2002", "descriere": "Locuinta - Extindere si mansardare locuinta D+P+M rezultand locuinta Dp+P+M.", "lng": 21.2136881}, {"beneficiar": "NUSFELEAN  ADRIAN  RADU  SI SOTIA   DORINA", "lat": 45.76791, "adresa": " PLUGARILOR nr.19/A bl.- sc.- et.- ap.-", "data": "24.10.2002", "descriere": "Bransament gaze naturale prin pozare subterana", "lng": 21.204253}, {"beneficiar": "DOBRE CORNEL si sotia DOBRE NELA NONOLETA", "lat": 45.7407033, "adresa": " PLATANILOR nr.10 ap.3", "data": "24.10.2002", "descriere": "Sediu firma - Amenajare sediu firma in apartament nr. 3 situat la parter cu acces direct din exterior.", "lng": 21.2077139}, {"beneficiar": "POPESCU LAURA NICOLETA", "lat": 45.7725, "adresa": " POMICULTURII nr.6", "data": "24.10.2002", "descriere": "Locuinta parter - modificari interioare si exterioare, completare imprejmuire.", "lng": 21.232459}, {"beneficiar": "AVADANEI  CONSTANTIN  SI SOTIA AVADANEI GABRIELA  ADRIANA", "lat": 45.763757, "adresa": " CAL.GHIRODEI nr.34", "data": "18.12.2002", "descriere": "Bransament apa.", "lng": 21.275747}, {"beneficiar": "ASOCIATIA DE PROPRIETARI", "lat": 45.752759, "adresa": " PIATRA CRAIULUI nr.3 bl.- sc.G et.- ap.-", "data": "18.12.2002", "descriere": "Bransament gaze naturale prin pozare subterana", "lng": 21.223942}, {"beneficiar": "SC 17 MARKS COMPANY S.R.L.", "lat": 45.728624, "adresa": " EDUARD BENES nr.2 bl.- sc.- et.- ap.-", "data": "18.12.2002", "descriere": "Locuinta - constructie casa in regim P+1E si imprejmuire proprietate.", "lng": 21.2452}, {"beneficiar": "CIOBANU MARCEL SI SOTIA LACRIMIOARA", "lat": 45.753219, "adresa": " COSMONAUTILOR nr.2 bl.- sc.A + B et.- ap.25", "data": "17.12.2002", "descriere": "Bransament gaze naturale prin pozare subterana", "lng": 21.200875}, {"beneficiar": "HANEA  IOAN  DORIN  SI SOTIA HANEA TEODORA", "lat": 45.777207, "adresa": " FELIX nr.4F bl.- sc.- et.- ap.-", "data": "10.12.2002", "descriere": "Bransament gaze naturale prin pozare subterana", "lng": 21.219373}, {"beneficiar": "MOHARI  ELISABETA", "lat": 45.725801, "adresa": " BUJORILOR nr.16 bl.- sc.- et.- ap.-", "data": "10.12.2002", "descriere": "Bransament gaze naturale prin pozare subterana", "lng": 21.205196}, {"beneficiar": "CHIPEI  MARIOARA", "lat": 45.758717, "adresa": " TIBRULUI nr.24 bl.- sc.- et.- ap.-", "data": "10.12.2002", "descriere": "Bransament apa si racord canal", "lng": 21.191865}, {"beneficiar": "ELLIS DAVID FLOYD si sotia ELLIS DAVID TINA ALIS", "lat": 45.727835, "adresa": " CHEVERESULUI nr.6 bl.- sc.- et.- ap.-", "data": "05.12.2002", "descriere": "Bransament gaze naturale prin pozare subterana", "lng": 21.2771769}, {"beneficiar": " CONSILIUL LOCAL - DIRECTIA PATRIMONIU", "lat": 45.76308, "adresa": " HORIA nr.24 bl.- sc.- et.- ap.-", "data": "05.12.2002", "descriere": "Amenajare parcare auto pentru 5 masini pe domeniul public in fata sediului Inspectoratului General pt. Telecomunicatii si Tehnologia Informatiei - Directia Teritoriala Timisoara.", "lng": 21.2067729}, {"beneficiar": "BUZIC  VASILE  SI SOTIA BUZIC  NICULINA", "lat": 45.761246, "adresa": " ZIMNICEA nr.39 bl.- sc.- et.- ap.-", "data": "05.12.2002", "descriere": "Bransament gaze naturale prin pozare subterana", "lng": 21.269863}, {"beneficiar": "OTA FLORIN TRAIAN cu sotia OTA CARMEN CONSTANTA, OTA IOAN TRAIANA si OTA VIORICA ILIANA", "lat": 45.748187, "adresa": " PARANG nr.19", "data": "14.11.2002", "descriere": "Desfiintare locuinta in regim parter.", "lng": 21.277373}, {"beneficiar": "DOBRITOIU CONSTANTIN SI SOTIA DOBRITOIU EMILIA", "lat": 45.7303489, "adresa": " OLARILOR nr.12A", "data": "14.11.2002", "descriere": "Locuinta - schimbare de functiune si mansardare imobil existent parter rezultand regim P+M.", "lng": 21.271997}, {"beneficiar": "S.C. PROCAR TIMISOARA S.A.", "lat": 45.71540599999999, "adresa": " Cal.Sagului nr.138B bl.- sc.- et.- ap.-", "data": "14.11.2002", "descriere": "Construire complex auto: SCHOWROOM SKODA in regim P+1E partial, atelier de reparatii si intretinere, corp de legatura, drumuri si platforme.", "lng": 21.194297}, {"beneficiar": "OLARIU   GABRIELA", "lat": 45.755111, "adresa": " VALISOARA nr.23 bl.- sc.- et.- ap.-", "data": "13.11.2002", "descriere": "Bransament apa", "lng": 21.278761}, {"beneficiar": "COCOS  MARIN  SI  SOTIA COCOS SILVIA", "lat": 45.723278, "adresa": " CHISODEI nr.46 bl.- sc.- et.- ap.-", "data": "13.11.2002", "descriere": "Bransament gaze naturale prin pozare subterana", "lng": 21.21012}, {"beneficiar": "S.C. MGA  MOD  TEX  S.R.L.", "lat": 45.763496, "adresa": " INT. CARULUI nr.4 bl.- sc.- et.- ap.-", "data": "25.11.2002", "descriere": "Bransament gaze naturale prin pozare subterana", "lng": 21.264282}, {"beneficiar": "MERA TRAIAN  SI  SOTIA MERA CATINCA", "lat": 45.72128499999999, "adresa": " ANUL 1848 nr.51 bl.- sc.- et.- ap.-", "data": "25.11.2002", "descriere": "Bransament gaze naturale prin pozare subterana", "lng": 21.229133}, {"beneficiar": "FOLDVARI  IRINA  LUDOVIC  EMERIC si sotia FOLDVARI IRINA", "lat": 45.7398146, "adresa": " MEMORANDULUI nr.41 bl.- sc.- et.- ap.-", "data": "25.11.2002", "descriere": "Bransament gaze naturale prin pozare subterana", "lng": 21.2297072}, {"beneficiar": "POPA IOAN  SI SOTIA  VICTORIA", "lat": 45.7217996, "adresa": " STEAUA nr.46 bl.- sc.- et.- ap.-", "data": "31.10.2002", "descriere": "Bransament apa si racord canal", "lng": 21.2053272}, {"beneficiar": "BAGOCZKY   HILDA  SI BAGOCZKY IULIANA", "lat": 45.724512, "adresa": " CHISODEI nr.24 bl.- sc.- et.- ap.-", "data": "31.10.2002", "descriere": "Bransament apa si racord canal", "lng": 21.209422}, {"beneficiar": "MARAN TIBERIU", "lat": 45.757434, "adresa": " MENDELEEV nr.4 et.X ap.42", "data": "31.10.2002", "descriere": "Modificari interioare la ap. nr. 42 pentru imbunatatirea confortului.", "lng": 21.2141041}, {"beneficiar": "HORN MARTIN SI SOTIA HORN AURELIA", "lat": 45.749212, "adresa": " PINDULUI nr.24", "data": "24.10.2002", "descriere": "Desfiintare anexa gospodareasca (2 magazii).", "lng": 21.259633}, {"beneficiar": "KRAMER ANDREI SI SOTIA KRAMER MARIA", "lat": 45.772453, "adresa": " CONSTANTIN CEL MARE nr.32/A", "data": "24.10.2002", "descriere": "Locuinta - extindere prin mansardare rezulta regim P+M si construire garaj parter.", "lng": 21.234327}, {"beneficiar": "BURDAN IOAN", "lat": 45.763022, "adresa": " MOLDOVEI nr.4 bl.- sc.- et.- ap.-", "data": "24.10.2002", "descriere": "Bransament gaze naturale prin pozare subterana", "lng": 21.2657269}, {"beneficiar": "VIRAG PETER", "lat": 45.729116, "adresa": " C.BRANCOVEANU nr.131 bl.- sc.- et.- ap.-", "data": "24.10.2002", "descriere": "Locuinta - Mansardare, construire terasa si pivnita la imobil P existent, rezultand regim Sp+P+M.", "lng": 21.2187534}, {"beneficiar": "GLIGOR VASILE SI SOTIA GLIGOR MIHAELA ADRIANA", "lat": 45.774095, "adresa": " PISA nr.6/A bl.- sc.- et.- ap.-", "data": "16.10.2002", "descriere": "Bransament gaze naturale prin pozare subterana", "lng": 21.248386}, {"beneficiar": "NOVACOVICI IOAN SI NOVACOVICI VIORICA", "lat": 45.721922, "adresa": " HERCULANE nr.62 bl.- sc.- et.- ap.-", "data": "16.10.2002", "descriere": "Bransament apa si racord canal", "lng": 21.215538}, {"beneficiar": "CRISAN CONSTANTIN SI SOTIA CRISAN PARASCHIVA", "lat": 45.775718, "adresa": " ION IONESCU DE LA BRAD nr.54B bl.- sc.- et.- ap.-", "data": "16.10.2002", "descriere": "Bransament gaze naturale prin pozare subterana", "lng": 21.2501399}, {"beneficiar": "GAVRILA  TANASE SI  SOTIA CRISTINA", "lat": 45.768217, "adresa": " PLUGARILOR nr.29 bl.- sc.- et.- ap.-", "data": "17.12.2002", "descriere": "Bransament gaze naturale prin pozare subterana", "lng": 21.20313}, {"beneficiar": "POPESCU  EUGEN  SI POPESCU ELENA", "lat": 45.7392854, "adresa": " C. PORUMBESCU nr.44 bl.- sc.- et.- ap.-", "data": "17.12.2002", "descriere": "Bransament gaze naturale prin pozare subterana", "lng": 21.2188723}, {"beneficiar": "MORICZ  IOSIF  SI  MORICZ GEORGETA", "lat": 45.7262316, "adresa": " MUZICESCU nr.51 bl.- sc.- et.- ap.-", "data": "17.12.2002", "descriere": "Racord canal", "lng": 21.2198235}, {"beneficiar": "BERCEA  VALER  SI  BERCEA  SORINA", "lat": 45.759612, "adresa": " SCHWICKER nr.32a bl.- sc.- et.- ap.-", "data": "10.12.2002", "descriere": "Racord canal", "lng": 21.19298}, {"beneficiar": "SZANI  MIHAI SI SOTIA SZANI ILEANA", "lat": 45.726603, "adresa": " EMIL RACOVITA nr.22 bl.- sc.- et.- ap.-", "data": "10.12.2002", "descriere": "Bransament apa.", "lng": 21.262417}, {"beneficiar": "RIZEANU ADRIAN si sotia RIZEANU HELGA", "lat": 45.7468645, "adresa": " e.gojdu nr.6 bl.- sc.- et.- ap.-", "data": "05.12.2002", "descriere": "Alimentatie publica - Reamenajare cladire cu functiune restaurant si extindere in regim parter fara afectarea fatadei existente.", "lng": 21.2146259}, {"beneficiar": "POPOVICI VICTOR", "lat": 45.75706, "adresa": " MERCY nr.7 bl.- sc.- et.- ap.-", "data": "05.12.2002", "descriere": "Spatiu cu alta destinatie - Zugravire fatada conform recomandarii Comisiei de Monumente.", "lng": 21.228761}, {"beneficiar": "FAGARASANU   HORIA VASILE", "lat": 45.7207753, "adresa": " POLONA nr.2 bl.5 sc.- et.- ap.-", "data": "04.12.2002", "descriere": "Extindere retea gaze naturale si bransament gaze naturale prin pozare subterana la bloc nr. 5", "lng": 21.1580134}, {"beneficiar": "DIRECTIA PATRIMONIU", "lat": 45.73788529999999, "adresa": " C.BRANCOVEANU nr.55 bl.- sc.- et.- ap.-", "data": "12.11.2002", "descriere": "Modificare acces spatiu comercial pt. S.C. \"PET CLUB\" S.R.L.", "lng": 21.2165022}, {"beneficiar": "CHILARESCU CONSTANTIN SI CHILARESCU DOINA", "lat": 45.7523727, "adresa": " GLORIEI nr.20", "data": "12.11.2002", "descriere": "Locuinta - Casa unifamiliala in regim P+M si imprejmuire front stradal.", "lng": 21.2504558}, {"beneficiar": "S.C. GRAZY PRICE S.R.L.", "lat": 45.7633672, "adresa": " RENASTERII nr.6", "data": "12.11.2002", "descriere": "Hotel - amenajare casa familiala P+2E+Pod  prin modificari (interioare + exterioare) si extindere rezultand P+2E+M partiala si amplasare firma pe fatada, cu respectarea conditiilor impuse de Ministerul Turismului.", "lng": 21.2563925}, {"beneficiar": "PACURAR  DANIELA  SI   HABUC  EUGENIA", "lat": 45.7533249, "adresa": " XENOPOL nr.3 bl.- sc.- et.- ap.-", "data": "25.11.2002", "descriere": "Bransament apa si racord canal", "lng": 21.18474}, {"beneficiar": "PUSKAS MARIA", "lat": 45.7292887, "adresa": " C.BRANCOVEANU nr.129", "data": "25.11.2002", "descriere": "Garaj - Construire in regim P.", "lng": 21.218766}, {"beneficiar": "SC MOBIFON  S.A.", "lat": 45.752025, "adresa": " STEFAN CEL MARE nr.45 bl.C14", "data": "31.10.2002", "descriere": "Amplasare statie fixa telefonie mobila sistem GSM 900.", "lng": 21.251634}, {"beneficiar": "MUZEUL BANATULUI", "lat": 45.753376, "adresa": " P-ta Huniade nr.1 bl.- sc.- et.- ap.-", "data": "24.10.2002", "descriere": "Constructie provizorie - amplasare firma luminoasa tip totem .", "lng": 21.227863}, {"beneficiar": "TAKACS LUDOVIC si sotia TAKACS IULIANA", "lat": 45.725915, "adresa": " EURIPIDE nr.4 bl.- sc.- et.- ap.-", "data": "24.10.2002", "descriere": "Modificari interioare si  exterioare la casa realizata cu A.C. 875/1996 in regim P+M si constructie anexa gospodareasca in regim P (extindere).", "lng": 21.263907}, {"beneficiar": "S.C. FLOSUD-MONTAJ S.R.L.", "lat": 45.723937, "adresa": " CERCULUI nr.41/A bl.- sc.- et.- ap.-", "data": "24.10.2002", "descriere": "Construire showroom  auto - regim parter.", "lng": 21.220793}, {"beneficiar": "ROMTELECOM", "lat": 45.751409, "adresa": " Bv.M.EMINESCU nr.2B bl.- sc.- et.-", "data": "24.10.2002", "descriere": "Constructie provizorie - Amplasare firma luminoasa tip totem.", "lng": 21.228166}, {"beneficiar": "CAZMIR MARIE", "lat": 45.7393229, "adresa": " MARAMURES nr.11 bl.- sc.- et.- ap.-", "data": "16.10.2002", "descriere": "Bransament gaze naturale prin pozare subterana", "lng": 21.1914791}, {"beneficiar": "POP VALER SI  POP MARIA", "lat": 45.751214, "adresa": " DUNAREA  nr.32 bl.- sc.- et.- ap.-", "data": "16.10.2002", "descriere": "Bransament gaze naturale prin pozare subterana", "lng": 21.192266}, {"beneficiar": "LENCU COSMIN VASILE", "lat": 45.714478, "adresa": " BUJORILOR nr.187/A bl.- sc.- et.- ap.-", "data": "16.10.2002", "descriere": "Bransament apa", "lng": 21.2119019}, {"beneficiar": "URIAS  CONSTANTIN", "lat": 45.752937, "adresa": " BATANIA nr.73 bl.- sc.- et.- ap.-", "data": "16.10.2002", "descriere": "Bransament gaze naturale prin pozare subterana", "lng": 21.261429}, {"beneficiar": "ANGHEL  RADU  SI ANGHEL BACANA", "lat": 45.722384, "adresa": " EMIL ZOLA nr.53/B bl.- sc.- et.- ap.-", "data": "16.12.2002", "descriere": "Bransament gaze naturale prin pozare subterana", "lng": 21.216026}, {"beneficiar": "MOLDOVAN  VALER", "lat": 45.721593, "adresa": " ANUL 1848 nr.47 bl.- sc.- et.- ap.-", "data": "16.12.2002", "descriere": "Racord canal", "lng": 21.2292099}, {"beneficiar": "COSA  ANDREEA", "lat": 45.7590829, "adresa": " ECATERINA TEODOROIU nr.17 bl.- sc.- et.- ap.-", "data": "16.12.2002", "descriere": "Bransament apa si racord canal", "lng": 21.253971}, {"beneficiar": "BADESCU  CATALINA  SI BADESCU  MIRCEA", "lat": 45.7338197, "adresa": " C.BRANCOVEANU nr.78 bl.- sc.- et.-", "data": "16.12.2002", "descriere": "Racord canal.", "lng": 21.2189439}, {"beneficiar": "IUGA  AUGUSTIN  SI SOTIA IUGA  FLORICA", "lat": 45.755756, "adresa": " AMZEI nr.2 bl.- sc.- et.- ap.-", "data": "16.12.2002", "descriere": "Bransament apa.", "lng": 21.195328}, {"beneficiar": "S.C. GERECO  S.R.L. prin RIZEANU ADRIAN si sotia RIZEANU HELGA", "lat": 45.7468645, "adresa": " E. GOJDU nr.6 bl.- sc.- et.- ap.-", "data": "10.12.2002", "descriere": "Bransament gaze naturale prin pozare subterana.", "lng": 21.2146259}, {"beneficiar": "BALABAN   LUCIA  SI  SOTUL BALABAN VASILE", "lat": 45.736166, "adresa": " LIVIU REBREANU nr.89 bl.- sc.- et.- ap.-", "data": "10.12.2002", "descriere": "Bransament gaze naturale prin pozare subterana", "lng": 21.229827}, {"beneficiar": "DIRECTIA PATRIMONIU", "lat": 45.723309, "adresa": " ALUNIS nr.36 bl.- sc.- et.- ap.-", "data": "10.12.2002", "descriere": "Bransament gaze naturale prin pozare subterana - Gradinita PP nr. 11", "lng": 21.2265419}, {"beneficiar": "SAMFIESCU ROMULUS si SAMFIESCU RODICA", "lat": 45.736127, "adresa": " Bv. SUDULUI nr.2 et.P ap.1", "data": "03.12.2002", "descriere": " Locuinta - Constructie balcon extins pentru imbunatatirea confortului.", "lng": 21.249506}, {"beneficiar": "S.C. TEX VIROM S.R.L.", "lat": 45.725998, "adresa": " V.HUGO nr.23 bl.- sc.- et.- ap.-", "data": "03.12.2002", "descriere": "Reparatii si extindere hala P.", "lng": 21.211325}, {"beneficiar": "FEKHETE EMERIC SI SOTIA FEKHETE FLORICA", "lat": 45.7303939, "adresa": " CAL.URSENI nr.12 bl.- sc.- et.- ap.-", "data": "03.12.2002", "descriere": "Locuinta - Constructie casa familiala in regim P+1E, refacere partiala imprejmuire, realizare acces auto (din str.Lidia) si desfiintare garaj in regim P.", "lng": 21.2537379}, {"beneficiar": "BISERICA  CRESTINA BAPTISTA \"BETEL\"", "lat": 45.7485739, "adresa": " A.ENDRE nr.20", "data": "03.12.2002", "descriere": "Lacas cult - Extindere biserica existenta cu corp administrativ regim D+P+1E+M cu asigurare locuri parcare in incinta.", "lng": 21.2150169}, {"beneficiar": "BRAD  PETRU", "lat": 45.75642999999999, "adresa": " BREDICEANU nr.33 bl.- sc.- et.- ap.-", "data": "12.11.2002", "descriere": "Bransament gaze naturale prin pozare subterana", "lng": 21.219119}, {"beneficiar": "MOCLINDA   NICOLAE  SI  MOCLINDA VERONICA", "lat": 45.758042, "adresa": " TIBRULUI nr.16 bl.- sc.- et.- ap.-", "data": "12.11.2002", "descriere": "Racord canal", "lng": 21.192036}, {"beneficiar": "GLOCKNER  IOANA", "lat": 45.725389, "adresa": " BUJORILOR nr.33A bl.- sc.- et.- ap.-", "data": "12.11.2002", "descriere": "Racord canal", "lng": 21.205583}, {"beneficiar": "PETRE  ECATERINA", "lat": 45.752378, "adresa": " MELODIEI nr.10 bl.- sc.- et.- ap.-", "data": "12.11.2002", "descriere": "Bransament gaze naturale prin pozare subterana; bransament apa si racord canal", "lng": 21.257347}, {"beneficiar": "FASUI  ARMINA  SI  NICOARA  PETRU", "lat": 45.76880500000001, "adresa": " ION ROATA nr.9/A bl.- sc.- et.-", "data": "12.11.2002", "descriere": "Bransament gaze naturale prin pozare subterana.", "lng": 21.238097}, {"beneficiar": "COSTEA  VASILE", "lat": 45.722655, "adresa": " RASCOALA DIN 1907 nr.32 bl.- sc.- et.- ap.-", "data": "12.11.2002", "descriere": "Bransament apa", "lng": 21.167228}, {"beneficiar": "SC CARON SRL", "lat": 45.758244, "adresa": " G.COSBUC nr.5", "data": "25.11.2002", "descriere": "Birou notarial - Modificari interioare si exterioare si amplasare firma pe fatada cladirii - (constructie provizorie).", "lng": 21.231741}, {"beneficiar": "POPA MINDROANE NELU LEONTE si sotia POPA MINDROANE SIMONA  MONICA", "lat": 45.7322401, "adresa": " L.REBREANU nr.2/7 bl.2/7 et.P ap.2", "data": "25.11.2002", "descriere": "Locuinta - Construire balcon parter la ap.nr. 2.Modificari interioare si exterioare.", "lng": 21.2113084}, {"beneficiar": "POPESCU EUGEN SI SOTIA POPESCU VIORICA", "lat": 45.761204, "adresa": " MISTRAL nr.4", "data": "25.11.2002", "descriere": "Locuinta - construire casa in regim P+M, construire gard.", "lng": 21.26331}, {"beneficiar": "CHITESCUL COSARA", "lat": 45.7430202, "adresa": " 16 DECEMBRIE 1989 nr.39", "data": "25.11.2002", "descriere": "Locuinta - Amenajare acces direct la demisol, fara schimbare destinatie spatiu.", "lng": 21.2130593}, {"beneficiar": "BARIU  FLORIN  SI BARIU  ANA", "lat": 45.771001, "adresa": " INTRAREA COCOSULUI nr.3 bl.- sc.- et.- ap.-", "data": "30.10.2002", "descriere": "Extindere retea si bransament gaza naturale prin pozare subterana", "lng": 21.24417}, {"beneficiar": "LASLO ADRIANA", "lat": 45.7466351, "adresa": " ION GHICA nr.12 bl.- sc.- et.- ap.4", "data": "30.10.2002", "descriere": "Bransament gaze naturale prin pozare subterana", "lng": 21.2130599}, {"beneficiar": "DUMITRESCU CATALIN  DANIEL  , DUMITRESCU CRISTINA DANIELA, BIBER BOGDAN CALIN si CIUCIOIU DORIN IOAN", "lat": 45.75222429999999, "adresa": " GLORIEI nr.18 bl.- sc.- et.- ap.-", "data": "30.10.2002", "descriere": "Bransament apa si racord canal", "lng": 21.2501736}, {"beneficiar": "CRETU  LIVIU  SI  SOTIA ANA", "lat": 45.736689, "adresa": " DREPTATEA nr.1/A bl.- sc.- et.- ap.-", "data": "30.10.2002", "descriere": "Extindere retea si bransament gaze naturale prin pozare subterana", "lng": 21.201759}, {"beneficiar": "LATIS TIBERIU SI SOTIA LATIS GABRIELA - S.C. TYRESERVICES & CO  S.R.L.", "lat": 45.73873820000001, "adresa": " MARAMURES nr.2 bl.- sc.- et.- ap.-", "data": "30.10.2002", "descriere": "Bransament gaze naturale prin pozare subterana", "lng": 21.1920175}, {"beneficiar": "STAN ALINA IOANA CRISTINA", "lat": 45.7356358, "adresa": " DRUBETA nr.26", "data": "24.10.2002", "descriere": "Locuinta - Mansardare imobil P+1E rezultand imobil P+1E+M.", "lng": 21.2264689}, {"beneficiar": "STRAINESCU MIRCEA SI SOTIA STRAINESCU AURICA", "lat": 45.751695, "adresa": " BISTREI nr.15 bl.- sc.- et.-", "data": "24.10.2002", "descriere": "Locuinta - Construire in regim P+M.", "lng": 21.274541}, {"beneficiar": "NEGRUTIU MEDA LAVINIA SI MARCOVICI MILENA", "lat": 45.7620108, "adresa": " BADEA CARTAN nr.10", "data": "24.10.2002", "descriere": "Spatiu comercial - modificare exterioare prin creare acces direct din strada.", "lng": 21.248467}, {"beneficiar": "TERESCU PETRU SI SOTIA TERESCU LUCICA", "lat": 45.7463716, "adresa": " SOMES nr.12", "data": "24.10.2002", "descriere": "Garaj - constructie garaj in reg. P pe teren proprietate particulara.", "lng": 21.2490555}, {"beneficiar": "POPOVICI IOVANCA DIANA", "lat": 45.748909, "adresa": " APATEU nr.22/A bl.- sc.- et.- ap.-", "data": "16.10.2002", "descriere": "Racord canal", "lng": 21.259364}, {"beneficiar": "MUNTEAN MIHAI", "lat": 45.7499303, "adresa": " NICOLINT nr.1/A bl.- sc.- et.- ap.-", "data": "16.10.2002", "descriere": "Bransament gaze naturale prin pozare subterana", "lng": 21.2463741}, {"beneficiar": "PRIMARIA MUNICIPIULUI TIMISOARA", "lat": 45.7441822, "adresa": " RADULESCU nr.5 bl.- sc.- et.- ap.-", "data": "16.10.2002", "descriere": "Bransament gaze naturale prin pozare subterana pentru Gradinita PP nr. 21", "lng": 21.2163654}, {"beneficiar": "VUICI STANISLAV si sotia VUICI VALENTINA", "lat": 45.7415739, "adresa": " DAMBOVITA nr.106", "data": "10.10.2002", "descriere": "Locuinta - Desfiintare casa parter degradata.", "lng": 21.1947177}, {"beneficiar": "DIRECTIA DE TELECOMUNICATII", "lat": 45.752312, "adresa": " LENAU nr.4-6 bl.- sc.- et.- ap.-", "data": "10.10.2002", "descriere": "Centrala telefonica - montare 2 casete luminoase.", "lng": 21.2268389}, {"beneficiar": "DIRECTIA DE TELECOMUNICATII", "lat": 45.751409, "adresa": " M.EMINESCU nr.2B", "data": "10.10.2002", "descriere": "Amplsare 2 casete luminoase pe fatada cladirii.", "lng": 21.228166}, {"beneficiar": "CSUKA PAVEL", "lat": 45.756073, "adresa": " MANOLE nr.7 bl.- sc.- et.-", "data": "10.10.2002", "descriere": "Desfiintare constructie existenta in regim P.", "lng": 21.1901054}, {"beneficiar": "COSTACHE CONSTANTIN SI SOTIA GHEORGHINA", "lat": 45.7785182, "adresa": " CIRCUMVALATIUNII nr.37 bl.72 sc.A et.5 ap.22", "data": "16.12.2002", "descriere": "Locuinta - amenajari interioare la ap. 22 pentru imbunatatirea confortului.", "lng": 21.2120382}, {"beneficiar": "BORTUN MIRCEA", "lat": 45.754732, "adresa": " L.BLAGA nr.1 bl.- sc.- et.- ap.-", "data": "16.12.2002", "descriere": "Constructie cu caracter provizoriu pe durata contractului de inchiriere - Amplasare firma pe fatada cladirii pt. S.C. ASIBAN S.A.", "lng": 21.227735}, {"beneficiar": "SC CAN - LEO S.R.L. JIMBOLIA pt. VAIOVA SRL", "lat": 45.7642529, "adresa": " cantului nr.3 bl.- sc.- et.- ap.-", "data": "16.12.2002", "descriere": "Spatiu comercial - Modificari interioare si exterioare cu acces direct din strada pentru amenajare spatiu comercial.", "lng": 21.267973}, {"beneficiar": "SOCIETATEA ROMANA SPERANTA", "lat": 45.7268374, "adresa": " ANA IPATESCU nr.54 bl.- sc.- et.- ap.-", "data": "14.12.2002", "descriere": "Locuinta - Modificari interioare la o cladire S+P.", "lng": 21.2078376}, {"beneficiar": "TRASCULEASA  ILIE   SI  TRASCULEASA ECATERINA", "lat": 45.755467, "adresa": "  nr.CIOCARLIEI bl.2 sc.- et.- ap.-", "data": "10.12.2002", "descriere": "Bransament gaze naturale prin pozare subterana si racord canal", "lng": 21.188515}, {"beneficiar": "ZAGREAN  VASILE  si sotia  ESTERA", "lat": 45.775138, "adresa": " Haga nr.18 bl.- sc.- et.- ap.-", "data": "10.12.2002", "descriere": "Bransament apa si racord canal.", "lng": 21.229508}, {"beneficiar": "BEJINAR  OCTAVIAN LEONEL   SI SOTIA BEJINAR  MARGARETA", "lat": 45.7669996, "adresa": " GENEVA nr.15/A bl.- sc.- et.- ap.-", "data": "10.12.2002", "descriere": "Bransament apa, racord canal.", "lng": 21.2499171}, {"beneficiar": "MIUT  DANIELA", "lat": 45.7334565, "adresa": " ULPIA TRAIANA nr.40 bl.- sc.- et.- ap.-", "data": "10.12.2002", "descriere": "Bransament gaze naturale prin pozare subterana", "lng": 21.2258133}, {"beneficiar": "SIMION  DORU  SI   MARIA", "lat": 45.768572, "adresa": " CETATII nr.89 bl.- sc.- et.- ap.-", "data": "10.12.2002", "descriere": "Inlocuire bransament apa existent", "lng": 21.218661}, {"beneficiar": "ERDELYI   VERONICA", "lat": 45.751983, "adresa": " JOKAI MOR nr.22 bl.- sc.- et.- ap.-", "data": "10.12.2002", "descriere": "Bransament gaze naturale prin pozare subterana", "lng": 21.280515}, {"beneficiar": "OLARIU TIBERIU SI SOTIA OLARIU ARENTINA", "lat": 45.739401, "adresa": " BABA NOVAC nr.35 bl.- sc.- et.- ap.-", "data": "03.12.2002", "descriere": "Locuinta - Extindere in regim parter locuinta parter existenta.", "lng": 21.187512}, {"beneficiar": "ANTON  GETA", "lat": 45.766437, "adresa": " ORASTIE nr.20 bl.- sc.- et.- ap.-", "data": "03.12.2002", "descriere": "Bransament gaze naturale prin pozare subterana", "lng": 21.265757}, {"beneficiar": "POPETI LAURA CODRUTA", "lat": 45.76050499999999, "adresa": " AL.CASCADEI nr.2 sc.A et.1 ap.4", "data": "03.12.2002", "descriere": "Modificari interioare la ap. nr. 4 pentru imbunatatirea confortului.", "lng": 21.213353}, {"beneficiar": "COSTEA  VICTORIA  SI  SOTUL COSTEA GHEORGHE", "lat": 45.728157, "adresa": " CAL. BUZIASULUI nr.29/A bl.- sc.- et.- ap.-", "data": "12.11.2002", "descriere": "Bransament gaze naturale prin pozare subterana", "lng": 21.272503}, {"beneficiar": "MOT  IOAN  SI  MOT HORTENSIA  ALICE", "lat": 45.763941, "adresa": " TULCEA nr.32 bl.- sc.- et.- ap.-", "data": "12.11.2002", "descriere": "Extindere retea si bransament gaze naturale prin pozare subterana", "lng": 21.195559}, {"beneficiar": "KREISZ  TASIA", "lat": 45.746237, "adresa": " OLANESCU nr.3 bl.- sc.- et.- ap.-", "data": "12.11.2002", "descriere": "Bransament apa si racord canal", "lng": 21.19781}, {"beneficiar": "LAZA MIRCEA TIBERIU SI SOTIA LAZA LENUTA DOINA", "lat": 45.7307266, "adresa": " AGRONOMIEI nr.4 bl.- sc.- et.- ap.-", "data": "12.11.2002", "descriere": "Racord canal", "lng": 21.1869291}, {"beneficiar": "LAZAR  EMANOIL", "lat": 45.7243319, "adresa": " BUJORILOR nr.44 bl.- sc.- et.- ap.-", "data": "12.11.2002", "descriere": "Bransament gaze naturale prin pozare subterana", "lng": 21.2060299}, {"beneficiar": "PODEA MARINEL MUGUREL, PODEA MARINELA EUGENIA", "lat": 45.7556453, "adresa": " TEBEA nr.25A", "data": "25.11.2002", "descriere": "Extindere locuinta cu bucatarie de vara in regim P.", "lng": 21.2040214}, {"beneficiar": "REZ VIOREL SI SOTIA REZ MARIA", "lat": 45.76191499999999, "adresa": " BOBALNA nr.40", "data": "25.11.2002", "descriere": "Locuinta - modificari (interioare+ exterioare) , mansardare partiala imobil existent, rezultand regim de inaltime P+M partial.", "lng": 21.27571}, {"beneficiar": "STOICHESCU ILIE PETRU SI ADAM CRISTINA DOROTHEA", "lat": 45.7785182, "adresa": " CIRCUMVALATIUNII nr.37 sc.A et.8 ap.34", "data": "25.11.2002", "descriere": "Locuinta - Modificari inteiroare in apartament nr. 34.", "lng": 21.2120382}, {"beneficiar": "ERDEI FRANCISC  SI CURARIU SIMONA", "lat": 45.757666, "adresa": " GHE. LAZAR nr.6 bl.- sc.- et.- ap.6", "data": "25.11.2002", "descriere": "Constr. cu caracter provizoriu pe durata contractului de inchiriere - Amplasare firma pe fatada pt. S.C. KOPIERNICUS S.R.L.", "lng": 21.22607}, {"beneficiar": "BLESCUN MIHAI SI SOTIA BLESCUN ELENA", "lat": 45.725218, "adresa": " JOSEPH STRAUSS nr.4 bl.- sc.- et.- ap.-", "data": "30.10.2002", "descriere": "Bransament apa si racord canal", "lng": 21.257213}, {"beneficiar": "MOISA GHEORGHE SI SOTIA MOISA ANGELA", "lat": 45.725519, "adresa": " JOSEPH STRAUSS nr.6 bl.- sc.- et.- ap.-", "data": "30.10.2002", "descriere": "Bransament apa si racord canal", "lng": 21.25722}, {"beneficiar": "BASCA MARIAN SI SOTIA BASCA ANA", "lat": 45.72582, "adresa": " JOSEPH STRAUSS nr.8 bl.- sc.- et.- ap.-", "data": "30.10.2002", "descriere": "Extindere canal; racord canal", "lng": 21.257227}, {"beneficiar": "POPA CONSTANTIN SI SOTIA POPA ALEXANDRINA", "lat": 45.725822, "adresa": " JOSEPH STRAUSS nr.5 bl.- sc.- et.- ap.-", "data": "30.10.2002", "descriere": "Bransament apa si racord canal", "lng": 21.257099}, {"beneficiar": "GAINA  PAVEL  SI GAINA MARIA, GAINA  STEFAN  AUREL SI MARIA", "lat": 45.731207, "adresa": " MANGIUCA nr.26 bl.- sc.- et.- ap.-", "data": "30.10.2002", "descriere": "Extindere retea canal, bransament apa si racord canal.", "lng": 21.2262479}, {"beneficiar": "MONEA VIOREL MARIN", "lat": 45.728133, "adresa": " MILOIA nr.51 sc.C ap.8", "data": "24.10.2002", "descriere": "Locuinta - Modificari exterioare - inchidere terasa si balcon pt. imbunatatirea confortului la ap. 8.", "lng": 21.221284}, {"beneficiar": "COSTEA  MIHAELA  ROXANA", "lat": 45.748812, "adresa": " VERGILIU nr.36 bl.- sc.- et.- ap.-", "data": "24.10.2002", "descriere": "Bransament gaze naturale prin pozare subterana", "lng": 21.262323}, {"beneficiar": "ILIS MARIOARA", "lat": 45.735886, "adresa": " KIRIAC nr.3 sc.A ap.18", "data": "24.10.2002", "descriere": "Locuinta - Modificari interioare si exterioare pentru imbunatatirea confortului.", "lng": 21.212119}, {"beneficiar": "S.C. ROMINEX  S.A.", "lat": 45.76438700000001, "adresa": " S.BARNUTIU nr.58-60", "data": "23.10.2002", "descriere": "Spatiu comercial - amenajari (interioare + exterioare),amplasare panou firma pe fatada pt. S.C. ATHERMO PROD SRL.", "lng": 21.259416}, {"beneficiar": "DANA DIMITRIE DORU SI DANA AGNETA", "lat": 45.738013, "adresa": " AXENTE SEVER nr.14 bl.- sc.- et.- ap.-", "data": "16.10.2002", "descriere": "Bransament gaze naturale pin pozare subterana", "lng": 21.231628}, {"beneficiar": "PAROHIA  ORTODOXA  ROMANA TIMISOARA  FRATELIA", "lat": 45.725645, "adresa": " HERCULANE nr.1 bl.- sc.- et.- ap.-", "data": "16.10.2002", "descriere": "Extindere retea; bransament gaze naturale prin pozare subterana", "lng": 21.20993}, {"beneficiar": "STRENGAR CORNEL", "lat": 45.765759, "adresa": " Alpinistilor nr.5 bl.- sc.- et.- ap.-", "data": "16.10.2002", "descriere": "Racord canal", "lng": 21.265289}, {"beneficiar": "SC HOTEL REGHINA SRL TIMISOARA", "lat": 45.7397043, "adresa": " COZIA nr.51-53", "data": "16.10.2002", "descriere": "Bransament gaze naturale prin pozare subterana.", "lng": 21.2334559}, {"beneficiar": "SC MODATIM SA", "lat": 45.756417, "adresa": " C. BREDICEANU nr.10 bl.- sc.- et.- ap.-", "data": "16.10.2002", "descriere": "Bransament gaze naturale prin pozare subterana", "lng": 21.22109}, {"beneficiar": "S.C. AUTOTIM S.A.", "lat": 45.744391, "adresa": " I.MANIU nr.54", "data": "10.10.2002", "descriere": "Sala asteptare - Renovare, reamenajare, modificari interioare si exterioare sala asteptare AUTOGARA Timisoara si anexe, amplasare fire luminoase pe fatada cladirii.", "lng": 21.206004}, {"beneficiar": "SC ECOMID SERV SRL", "lat": 45.7237889, "adresa": " SHAKESPEARE nr.20A", "data": "09.10.2002", "descriere": "Locuinta - Construire locuinta de serviciu in regim Sp+P+M.Imprejmuire.", "lng": 21.223255}, {"beneficiar": "BUNDA DIANA ANTONELLA", "lat": 45.777299, "adresa": " FRANTZ SCHIMITS nr.10 bl.- sc.- et.- ap.-", "data": "09.10.2002", "descriere": "Construire casa P+M si imprejmuire.", "lng": 21.21582}, {"beneficiar": "REITER IUSTINA ,STURZA ILIE MIHAI DORU, STURZA DOINA", "lat": 45.7782641, "adresa": " AUGUSTIN COMAN nr.1", "data": "09.10.2002", "descriere": "Locuinta - construire casa Sp+P+M, garaj la subsol si imprejmuire.", "lng": 21.2158526}, {"beneficiar": "TATARLIA ECATERINA ELISABETA", "lat": 45.738929, "adresa": " C.PORUMBESCU nr.56", "data": "09.10.2002", "descriere": "Continuare lucrari la A.C. 399/03.05.1999.Mansardare constructie existenta si extindere executata cu A.C. 399/1999", "lng": 21.2173523}, {"beneficiar": "PAPAY CRISTIAN GABRIEL si sotia PAPAY MIHAELA ALINA", "lat": 45.7469352, "adresa": " ION DRAGALINA nr.40 bl.- sc.- et.- ap.20", "data": "14.12.2002", "descriere": "Modificari interioare la ap.nr. 20 pentru imbunatatirea confortului.", "lng": 21.210182}, {"beneficiar": "BALAS IOAN si BALAS IULIANA", "lat": 45.7269899, "adresa": " PANSELELOR nr.65 bl.- sc.- et.- ap.-", "data": "14.12.2002", "descriere": "Garaj - Construire in regim P.", "lng": 21.2198397}, {"beneficiar": "CONSILIUL LOCAL AL MUNICIPIULUI TIMISOARA", "lat": 45.7430566, "adresa": " ROMULUS nr.36 bl.- sc.- et.- ap.-", "data": "14.12.2002", "descriere": "Amenajare parcare la Hotel D+P+4E pt. S.C. CEREALCOM S.A. conf. HCL 250/17.09.2002.", "lng": 21.2197382}, {"beneficiar": "UJJ ETELCA", "lat": 45.7297889, "adresa": " CALEA BUZIASULUI nr.46 bl.- sc.- et.- ap.-", "data": "10.12.2002", "descriere": "Bransament gaze naturale prin pozare subterana", "lng": 21.266777}, {"beneficiar": "SUCIU  AVRAM", "lat": 45.7575305, "adresa": " NEGULICI nr.24 bl.- sc.- et.- ap.-", "data": "10.12.2002", "descriere": "Bransament gaze naturale prin pozare subterana", "lng": 21.2013443}, {"beneficiar": "KRAFCSIK  ANTON  SI KRAFCSIC  SANDA  DACIA", "lat": 45.762466, "adresa": " CIOCARLIEI nr.88 bl.- sc.- et.- ap.-", "data": "10.12.2002", "descriere": "Extindere retea; bransament gaze naturale prin pozare subterana", "lng": 21.187096}, {"beneficiar": "PETRESCU STELA  ELENA  SI  PETRESCU VASILE", "lat": 45.7510128, "adresa": " NEPOS nr.4 bl.- sc.- et.- ap.-", "data": "10.12.2002", "descriere": "Bransament gaze naturale prin pozare subterana", "lng": 21.1870775}, {"beneficiar": "GHEORGHE LUMINITA  ANGELA", "lat": 45.767802, "adresa": " GLINKA nr.9 bl.- sc.- et.- ap.-", "data": "10.12.2002", "descriere": "Racord canal", "lng": 21.265961}, {"beneficiar": "R.A. CALOR", "lat": 45.772137, "adresa": " ORSOVA nr.4", "data": "02.12.2002", "descriere": "Amenajare caserie pt.R.A.\" Aquatim\" in spatiul din PT 33.", "lng": 21.218687}, {"beneficiar": "DANCIU VICTORIA, DANCIU VICTORIA, GROSS IOAN OVIDIU, GROSS ADRIAN", "lat": 45.770728, "adresa": " FRIGULUI nr.8 bl.- sc.- et.- ap.-", "data": "02.12.2002", "descriere": "Locuinta - realizare acces din exterior fara schimbarea destinatiei spatiului.", "lng": 21.248636}, {"beneficiar": "BIRO ECATERINA ERICA", "lat": 45.721289, "adresa": " CHISODEI nr.49", "data": "02.12.2002", "descriere": "Locuinta parter - Extindere in acelasi regim de inaltime ", "lng": 21.211363}, {"beneficiar": "STURZ LUCRETIA", "lat": 45.7306665, "adresa": " AGRONOMIEI nr.3 bl.- sc.- et.- ap.-", "data": "12.11.2002", "descriere": "Bransament apa si racord canal", "lng": 21.1868331}, {"beneficiar": "IACOB  VENDELIN,  IACOB  RUJA,  IACOB AUREL", "lat": 45.769317, "adresa": " ION ROATA nr.18 bl.- sc.- et.- ap.-", "data": "12.11.2002", "descriere": "Bransament apa si racord canal", "lng": 21.238556}, {"beneficiar": "CHIMIUC  GHEORGHE  SI  CHIMIUC DORINA", "lat": 45.7544379, "adresa": " BANUL SEVERINULUI nr.22 bl.- sc.- et.- ap.-", "data": "12.11.2002", "descriere": "Bransament apa si racord canal", "lng": 21.1830871}, {"beneficiar": "BUNOIU MARIUS", "lat": 45.7337001, "adresa": " SALCAMILOR nr.34", "data": "15.11.2002", "descriere": "Anexa - construire in regim parter cu terasa circulabila.", "lng": 21.2309076}, {"beneficiar": "OBREJAN  DANIELA  , OBREJAN OVIDIU", "lat": 45.753133, "adresa": " BELGRAD nr.3/A bl.- sc.- et.- ap.-", "data": "12.11.2002", "descriere": "Bransament gaze naturale prin pozare subterana", "lng": 21.189736}, {"beneficiar": "MARET LIVIUS SI MARET OFELIA CORNELIA", "lat": 45.7330437, "adresa": " L.REBREANU nr.19 bl.- sc.- et.- ap.-", "data": "25.11.2002", "descriere": "Locuinta - Construire in regim P+1E+M.", "lng": 21.2190179}, {"beneficiar": "GEORGESCU  ANTON  si sotia MARIA", "lat": 45.7374982, "adresa": " AXENTE SEVER nr.20", "data": "22.11.2002", "descriere": "Extindere retea si bransament gaze naturale prin pozare subterana.", "lng": 21.2301886}, {"beneficiar": "FETCU ELENA", "lat": 45.765013, "adresa": " Renasterii nr.16 bl.- sc.- et.- ap.2", "data": "22.11.2002", "descriere": "Locuinta - extindere (prin concesionare teren) si mansardare ap. nr. 2 existent rezultand casa in regim P+M.", "lng": 21.255221}, {"beneficiar": "BERKI CARMEN si sotul BERKI FRANCISC", "lat": 45.751403, "adresa": " Tiblesului nr.30", "data": "29.10.2002", "descriere": "Unitati comerciale cu amanuntul - amenajare magazin si birou prin realizarea unui acces direct din exterior, amenajare atelier pt. reparatii TV in garajul existent si amplasare firma pe fatada.", "lng": 21.257473}, {"beneficiar": "CHIRILA DUMITRU cu sotia CHIRILA GEORGETA si DUDUI IOAN cu sotia DUDUI STEFANIA", "lat": 45.7410802, "adresa": " CRIZANTEMELOR nr.42-44 bl.- sc.- et.- ap.-", "data": "29.10.2002", "descriere": "Locuinta - construire anexe gospodaresti in regim parter.", "lng": 21.2019774}, {"beneficiar": "REGIA AUTONOMA DE TRANSPORT TIMISOARA", "lat": 45.761944, "adresa": " TAKE IONESCU nr.56", "data": "29.10.2002", "descriere": "Sediu societate comerciala - modificari interioare la cabinetul stomatologic existent.", "lng": 21.245498}, {"beneficiar": "PASCOTA FLOARE MARIA si sotul IOSIF IOAN", "lat": 45.724054, "adresa": " STEAUA - BUJORILOR bl.50 sc.F ap.3", "data": "29.10.2002", "descriere": "Bloc de locuinte: - Amplasare firma luminoasa pe fatada.", "lng": 21.206185}, {"beneficiar": "IONASCU REMUS MARIAN si IONASCU MIHAELA", "lat": 45.7524447, "adresa": " GLORIEI nr.7", "data": "29.10.2002", "descriere": "Locuinta - Extindere, mansardare si modificari interioare la ap. 10, rezultand un regim de inaltime P+M.", "lng": 21.25038}, {"beneficiar": "HANGHICEL  MARIAN  SI  SOTIA HANGHICEL FIRUCA", "lat": 45.74801, "adresa": " VIRGILIU nr.24 bl.- sc.- et.- ap.-", "data": "23.10.2002", "descriere": "Bransament gaze naturale prin pozare subterana", "lng": 21.262246}, {"beneficiar": "APOSTU PAVEL", "lat": 45.73050500000001, "adresa": " J. WEISSMULLER nr.17 bl.- sc.- et.- ap.-", "data": "23.10.2002", "descriere": "Bransament gaze naturale prin pozare subterana", "lng": 21.196113}, {"beneficiar": "BLIDARIU ILIE SI SOTIA BLIDARIU AGLAIA", "lat": 45.727383, "adresa": " LEGUMICULTURII nr.8 bl.- sc.- et.- ap.-", "data": "23.10.2002", "descriere": "Bransament gaze naturale prin pozare subterana", "lng": 21.258323}, {"beneficiar": "STEFAN COSTICA SI SOTIA STEFAN EMILIA", "lat": 45.727683, "adresa": " EMIL RACOVITA nr.1 bl.- sc.- et.- ap.-", "data": "23.10.2002", "descriere": "Racord canal", "lng": 21.258555}, {"beneficiar": "BERGER  MARIA", "lat": 45.722143, "adresa": " SHAKESPEARE nr.51", "data": "16.10.2002", "descriere": "Bransament apa, racord canal.", "lng": 21.22267}, {"beneficiar": "DRAPOS LADISLAU si DRAPOS PARASCHIVA", "lat": 45.72551, "adresa": " SHAKESPEARE nr.3 bl.- sc.- et.- ap.-", "data": "16.10.2002", "descriere": "Bransament apa si racord canal", "lng": 21.223581}, {"beneficiar": "TIMOTEI MIRCEA", "lat": 45.775721, "adresa": " LOTUSULUI nr.12A", "data": "16.10.2002", "descriere": "Locuinta - Construire in regim D+P+1E (cu legalizarea constructiei parter conform L.453/2001).", "lng": 21.240709}, {"beneficiar": "TOCUT MARIANA SI SOTUL SZILAGYI PETRU", "lat": 45.770331, "adresa": " CAL. TORONTALULUI nr.32 bl.- sc.- et.- ap.-", "data": "16.10.2002", "descriere": "Bransament apa si racord canal", "lng": 21.218833}, {"beneficiar": "SUCIU MATEI  si sotia MIRELA NICOLETA", "lat": 45.770744, "adresa": " TORONTALULUI nr.36 bl.- sc.- et.- ap.-", "data": "09.10.2002", "descriere": "Extindere retea si bransament gaze naturale prin pozare subterana", "lng": 21.218422}, {"beneficiar": "BUGARIU PETRU si BUGARIU VICTORIA", "lat": 45.7344908, "adresa": " RANETTI nr.14A bl.- sc.- et.-", "data": "09.10.2002", "descriere": "Garaj - construire in regim P.", "lng": 21.2134612}, {"beneficiar": "IANCU  CONSTANTIN", "lat": 45.720688, "adresa": " MARGARITARILOR nr.3 bl.- sc.- et.- ap.-", "data": "26.09.2002", "descriere": "Bransament apa", "lng": 21.214208}, {"beneficiar": "BIRNBAUM DORINA SI BIRNBAUM ALEXE", "lat": 45.72034, "adresa": " HERCULANE nr.125 bl.- sc.- et.- ap.-", "data": "26.09.2002", "descriere": "Bransament apa si racord canal", "lng": 21.218176}, {"beneficiar": "TACSI  TOMA", "lat": 45.727621, "adresa": " Cal.Buziasului nr.98", "data": "26.09.2002", "descriere": "Bransament gaze naturale prin pozare subterana.", "lng": 21.273908}, {"beneficiar": "BALU   CALIN  DORU  SI   SOTIA BALU CALIN FANICA", "lat": 45.755899, "adresa": " FLACARA nr.5 bl.- sc.- et.- ap.-", "data": "10.12.2002", "descriere": "Bransament apa", "lng": 21.277092}, {"beneficiar": "VLADUTOIU  MARIUS  DORIN", "lat": 45.751349, "adresa": " PARANG nr.3 bl.- sc.- et.- ap.-", "data": "10.12.2002", "descriere": "Bransament gaze naturale prin pozare subterana", "lng": 21.276077}, {"beneficiar": "PERINAT  STEVA  SI  SOTIA PERINAT IAGODITA", "lat": 45.7413586, "adresa": " I. VACARESCU nr.29 bl.- sc.- et.1 ap.3B", "data": "10.12.2002", "descriere": "Bransament gaze naturale prin pozare subterana", "lng": 21.2110053}, {"beneficiar": "SLAVIK  DIETER", "lat": 45.766535, "adresa": " CLOSCA nr.84 bl.- sc.- et.- ap.-", "data": "10.12.2002", "descriere": "Bransament gaze naturale prin pozare subterana", "lng": 21.196857}, {"beneficiar": "S.C.  EUROTIM  PROD SERVICE  S.R.L.", "lat": 45.7545754, "adresa": " STEFAN CEL MARE nr.25", "data": "10.12.2002", "descriere": "Extindere si bransament gaze naturale prin pozare subterana.", "lng": 21.2496272}, {"beneficiar": "IENOVAN  ILIE  SI  IENOVAN SILVIA", "lat": 45.726676, "adresa": " IZLAZ nr.1/A bl.- sc.- et.- ap.-", "data": "10.12.2002", "descriere": "Bransament gaze naturale prin pozare subterana", "lng": 21.214445}, {"beneficiar": "STOIAN  FELITIA", "lat": 45.7794178, "adresa": " ION IONESCU DE LA BRAD nr.3 bl.- sc.- et.- ap.-", "data": "29.11.2002", "descriere": "Racord canal", "lng": 21.2379467}, {"beneficiar": "S.C. ARISTO  COM  S.R.L.", "lat": 45.7356112, "adresa": " C.BRANCOVEANU nr.62 bl.- sc.- et.- ap.-", "data": "12.11.2002", "descriere": "Racord canal", "lng": 21.2178678}, {"beneficiar": "ACASANDREI   IOAN SI  ACASANDREI MARIA", "lat": 45.750981, "adresa": " NEKRASOV nr.7 bl.- sc.- et.- ap.-", "data": "12.11.2002", "descriere": "Bransament gaze naturale prin pozare subterana", "lng": 21.186169}, {"beneficiar": "MUNTEANU  GHIZELA", "lat": 45.763973, "adresa": " TULCEA nr.30 bl.- sc.- et.- ap.-", "data": "12.11.2002", "descriere": "Bransament gaze naturale prin pozare subterana", "lng": 21.195877}, {"beneficiar": "ASOCIATIA  DE LOCATARI", "lat": 45.75136, "adresa": " MEHADIA nr.12 bl.- sc.- et.- ap.-", "data": "12.11.2002", "descriere": "Separare consum apa", "lng": 21.243295}, {"beneficiar": "PANTE  SAVETA", "lat": 45.76400599999999, "adresa": " TULCEA nr.28 bl.- sc.- et.- ap.-", "data": "12.11.2002", "descriere": "Bransament gaze naturale prin pozare subterana", "lng": 21.196191}, {"beneficiar": "JIANU  GHEORGHE    SI  SOTIA MARIA", "lat": 45.7693749, "adresa": " PLUGARILOR nr.61 bl.- sc.- et.- ap.-", "data": "12.11.2002", "descriere": "Bransament gaze naturale prin pozare subterana", "lng": 21.1983469}, {"beneficiar": "VASILESCU NICOLETA ADRIANA", "lat": 45.754732, "adresa": " L.BLAGA nr.1 et.P ap.6", "data": "22.11.2002", "descriere": "Spatiu comercial - modificari exterioare prin creare acces direct din str. Bolyai Ianos si crearea a 2 vitrine.", "lng": 21.227735}, {"beneficiar": "ION  MARCEL   SI  SOTIA ION CARMEN", "lat": 45.76638699999999, "adresa": " STRANDULUI nr.6/A bl.- sc.- et.- ap.-", "data": "22.11.2002", "descriere": "Bransament apa, racord canal", "lng": 21.268617}, {"beneficiar": "CIORMAN  GEORGINA  MARIA", "lat": 45.7373894, "adresa": " SALCAMILOR nr.1", "data": "22.11.2002", "descriere": "Bransament gaze naturale prin pozare subterana.", "lng": 21.2302328}, {"beneficiar": "MITRU  ION", "lat": 45.758683, "adresa": " AGRICULTORILOR nr.19 bl.- sc.- et.- ap.-", "data": "22.11.2002", "descriere": "Bransament gaze naturale prin pozare subterana", "lng": 21.194393}, {"beneficiar": "ORDEAN  BOC COSMIN  PETRU SI SOTIA DIANA  CORINA", "lat": 45.767432, "adresa": " S. SAGOVICI nr.74 bl.- sc.- et.- ap.-", "data": "22.11.2002", "descriere": "Bransament gaze naturale prin pozare subterana", "lng": 21.2020829}, {"beneficiar": "S.C.  BEGA TRANS   AUTO  S.R.L.", "lat": 45.783721, "adresa": " ARMONIEI nr.25 bl.- sc.- et.- ap.-", "data": "22.11.2002", "descriere": "Bransament gaze naturale prin pozare subterana", "lng": 21.223793}, {"beneficiar": "CLETIU RADU CALIN  SI CLETIU VIOLETA TATIANA", "lat": 45.723717, "adresa": " ALUNIS nr.13", "data": "29.10.2002", "descriere": "Locuinta - Extindere imobil in regim parter.", "lng": 21.222775}, {"beneficiar": "SC GARANTA PRIN TALOS VASILE", "lat": 45.743951, "adresa": " M.VITEAZUL nr.9 bl.- sc.- et.- ap.-", "data": "29.10.2002", "descriere": "Firma - amplasare firma pe fatada imobilului.", "lng": 21.22589}, {"beneficiar": "MARK RADU VIRGIL, MARK ANISOARA", "lat": 45.75119249999999, "adresa": " BANUL UDREA nr.4", "data": "29.10.2002", "descriere": "Construire locuinta in regim parter.", "lng": 21.179541}, {"beneficiar": "JIVCOV ALEXANDRU SI SOTIA JIVCOV ERICA SILVIA", "lat": 45.7317039, "adresa": " G. VERDI nr.15 bl.- sc.- et.- ap.-", "data": "23.10.2002", "descriere": "Bransament gaze naturale prin pozare subterana", "lng": 21.2056915}, {"beneficiar": "ARTENE NECULAI SI SOTIA ARTENE IONICA", "lat": 45.724902, "adresa": " CALEA URSENI nr.21/A bl.- sc.- et.- ap.-", "data": "23.10.2002", "descriere": "Bransament apa", "lng": 21.257054}, {"beneficiar": "CUZMAN IOAN SI SOTIA CUZMAN MAGDALENA", "lat": 45.72939, "adresa": " CALEA URSENI nr.14A bl.- sc.- et.- ap.-", "data": "23.10.2002", "descriere": "Bransament gaze naturale prin pozare subterana", "lng": 21.2539349}, {"beneficiar": "STAN  IONEL  SI  SOTIA GABRIELA", "lat": 45.777207, "adresa": " FELIX nr.4/G bl.- sc.- et.- ap.-", "data": "23.10.2002", "descriere": "Bransament apa si racord canal", "lng": 21.219373}, {"beneficiar": "BISERICA ORTODOXA  ROMANA", "lat": 45.725329, "adresa": " CHISODEI nr.1 bl.- sc.- et.- ap.-", "data": "16.10.2002", "descriere": "Bransament gaze naturale prin pozare subterana", "lng": 21.209097}, {"beneficiar": "PANEA FLOAREA, PANEA TRAIAN FLORINEL si sotia PANEA FLORINA ANGELICA,", "lat": 45.73095970000001, "adresa": " AGRONOMIEI nr.8", "data": "16.10.2002", "descriere": "Racord canal.", "lng": 21.186633}, {"beneficiar": "SC GATTI FORNITURE SRL", "lat": 45.770902, "adresa": " CALAN nr.2 bl.- sc.- et.- ap.-", "data": "16.10.2002", "descriere": "Bransament electric cu cablu de joasa tensiune prin pozare subterana", "lng": 21.220793}, {"beneficiar": "PREDA VIOARA", "lat": 45.76750699999999, "adresa": " RENASTERII nr.35C bl.- sc.- et.- ap.-", "data": "16.10.2002", "descriere": "Bransament gaze naturale prin pozare subterana", "lng": 21.254335}, {"beneficiar": "POPOVICI VICTOR", "lat": 45.75706, "adresa": " MERCY nr.7", "data": "25.09.2002", "descriere": "Amenajare cafe bar in spatiu comercial existent - acces din exterior prin gol vitrina existent, inchidere gol parter existent.", "lng": 21.228761}, {"beneficiar": "NEGRU  MARIA  SI SOTUL NEGRU IOAN", "lat": 45.728034, "adresa": " Cal.Buziasului nr.31/A", "data": "24.09.2002", "descriere": "Bransament gaze naturale prin pozare subterana.", "lng": 21.2728879}, {"beneficiar": "LUDWIG  MIHAI  SI   LUDWIG GABRIELA -CORA", "lat": 45.75712739999999, "adresa": " BANUL MARACINE nr.21 bl.- sc.- et.- ap.-", "data": "29.11.2002", "descriere": "Bransament apa si racord canal", "lng": 21.2069183}, {"beneficiar": "SC ANALOG SA TIMIS prin Director FARCAS DORU", "lat": 45.7296539, "adresa": " I.MONORAN nr.12/13", "data": "29.11.2002", "descriere": "Locuinta - amenajare corp A - cladire existenta in regim D+P+M si extindere cu un nou corp B in regim D+P+E+M.", "lng": 21.238091}, {"beneficiar": "GRAMA  OCTAVIAN  PETRICA  SI  GRAMA CORINA  LUCIA", "lat": 45.7330573, "adresa": " ULPIA TRAIANA nr.42-44 bl.- sc.- et.- ap.-", "data": "29.11.2002", "descriere": "Racord canal", "lng": 21.2259984}, {"beneficiar": "BOARIU ZOITA CRISTINA SI BOARIU GHEORGHE", "lat": 45.72345, "adresa": " ALUNIS nr.34B bl.- sc.- et.- ap.-", "data": "12.11.2002", "descriere": "Bransament apa si racord canal", "lng": 21.225606}, {"beneficiar": "DIU ALEXANDRU", "lat": 45.7666298, "adresa": " STELELOR nr.3 sc.C ap.1", "data": "12.11.2002", "descriere": "Spatiu comercial - Amenajare ap. nr. 1 cu acecs direct pt. S.C. DROBSAN S.R.L.", "lng": 21.2180328}, {"beneficiar": "RADEF   ROMANIA FILM", "lat": 45.7511579, "adresa": " PIATA VICTORIEI nr.7 bl.- sc.- et.- ap.-", "data": "22.11.2002", "descriere": "Extindere retea; bransament gaze naturale prin pozare subterana", "lng": 21.22557}, {"beneficiar": "AMARIUCAI TOADER, AMARIUCAI ELENA", "lat": 45.768392, "adresa": " BASARABIA nr.35A bl.- sc.- et.-", "data": "29.10.2002", "descriere": "Locuinta - Construire casa familiala parter.", "lng": 21.202417}, {"beneficiar": "SOLSCHI AGLAIA si RUNG ELENA ADELAIDA", "lat": 45.720448, "adresa": " SECERII nr.6 bl.- sc.- et.- ap.-", "data": "23.10.2002", "descriere": "Bransament apa si racord canal", "lng": 21.205102}, {"beneficiar": "BAGYINKA  IRINA", "lat": 45.75717299999999, "adresa": " FLACARA nr.23 bl.- sc.- et.- ap.-", "data": "23.10.2002", "descriere": "Bransament apa", "lng": 21.277455}, {"beneficiar": "HOSU  VIRGIL  SI  SOTIA HOSU VIORICA", "lat": 45.7303489, "adresa": " OLARILOR nr.12B bl.- sc.- et.- ap.-", "data": "23.10.2002", "descriere": "Bransament gaze naturale prin pozare subterana", "lng": 21.271997}, {"beneficiar": "SC TITUS SRL", "lat": 45.778056, "adresa": " ION IONESCU DE LA BRAD nr.15 bl.- sc.- et.- ap.-", "data": "22.10.2002", "descriere": "Bransament apa", "lng": 21.242186}, {"beneficiar": "FUNDATIA  \"PROGRESS\" CLUJ  NAPOCA", "lat": 45.7446399, "adresa": " PUTNA nr.7 bl.- sc.- et.- ap.-", "data": "22.10.2002", "descriere": "Reamplasare apometru din subsolul cladirii in exteriorul cladirii", "lng": 21.233459}, {"beneficiar": "POTRA IONELTRAIAN , POTRA FLORICA, IGNATOAIE ADRIAN, IGNATOAIE ALINA , BALANEAN NELU DANIEL SI BALAN", "lat": 45.771341, "adresa": " VERDE nr.4/B bl.- sc.- et.- ap.-", "data": "16.10.2002", "descriere": "Bransament apa si racord canal", "lng": 21.242061}, {"beneficiar": "GHIPU MIRCEA si GHIMPU MARIANA", "lat": 45.756255, "adresa": " BOBALNA nr.25 bl.- sc.- et.- ap.1", "data": "08.10.2002", "descriere": "Locuinta - Amenajare mansarda in pod existent - legalizare conform art. 25 din L.50/91 - rep. 97 compl. cu L.453/2001 - rezultand P+M.", "lng": 21.274636}, {"beneficiar": "HANCU VASILE VIOREL SI HANCU MARIANA", "lat": 45.73743289999999, "adresa": " VULTURILOR nr.79 bl.- sc.- et.- ap.-", "data": "08.10.2002", "descriere": "Bransament gaze naturale prin pozare subterana", "lng": 21.1998196}, {"beneficiar": "MUTIU  VIOREL", "lat": 45.736472, "adresa": " L. REBREANU nr.92 bl.- sc.- et.- ap.-", "data": "08.10.2002", "descriere": "Extindere retea si bransament gaze naturale prin pozare subterana", "lng": 21.231606}, {"beneficiar": "SUCIU ALIDEIA CATINCA SI DOROS DAIANA", "lat": 45.738013, "adresa": " AXENTE SEVER nr.14A bl.- sc.- et.- ap.-", "data": "08.10.2002", "descriere": "Bransament gaze naturale prin pozare subterana", "lng": 21.231628}, {"beneficiar": "NADIS MIRCIA", "lat": 45.750107, "adresa": " HERODOT nr.11 bl.- sc.- et.- ap.-", "data": "24.09.2002", "descriere": "Bransament gaze naturale prin pozare subterana", "lng": 21.262027}, {"beneficiar": "RAUT PETRU SI SOTIA CRISTINA", "lat": 45.75255900000001, "adresa": " ZANOAGA nr.23", "data": "23.09.2002", "descriere": "Mansardare locuinta P rezultand o casa P+M.", "lng": 21.188858}, {"beneficiar": "ASOCIATIA  DE  LOCATARI prin ORBULESCU SABIN", "lat": 45.77226599999999, "adresa": " CAL. LIPOVEI nr.45 bl.36 sc.A et.- ap.-", "data": "10.12.2002", "descriere": "Bransament apa", "lng": 21.231499}, {"beneficiar": "CIONCHI  DUMITRU  SI  CIONCHI VELICA", "lat": 45.760423, "adresa": " LAPUSNEANU nr.16 bl.- sc.- et.- ap.-", "data": "27.11.2002", "descriere": "Bransament apa", "lng": 21.198418}, {"beneficiar": "NISTOR   SERBAN  SI  NISTOR VOICHITA", "lat": 45.76048, "adresa": " BUSUIOC nr.2 bl.- sc.- et.- ap.-", "data": "27.11.2002", "descriere": "Bransament apa si racord canal", "lng": 21.198193}, {"beneficiar": "SIROCMAN  SOFIA  SI GAVRILA", "lat": 45.7704814, "adresa": " COSARILOR nr.10 bl.- sc.- et.- ap.-", "data": "27.11.2002", "descriere": "Bransament gaze naturale prin pozare subterana", "lng": 21.1978458}, {"beneficiar": "SPOIAN  DORINA  SILVIA", "lat": 45.73665159999999, "adresa": " L. REBREANU nr.103 bl.- sc.- et.- ap.-", "data": "27.11.2002", "descriere": "Extindere retea si bransament gaze naturale prin pozare subterana", "lng": 21.2314498}, {"beneficiar": "MATEI FLOAREA", "lat": 45.746283, "adresa": " Bv.EROILOR nr.20", "data": "12.11.2002", "descriere": "Spatii comerciale - Modificare fatada casa parter si panouri firma (constructii provizorii) - Legalizare conf. art. 25 L.50/91 - rep. 97 compl. cu L.453/2001.", "lng": 21.2390076}, {"beneficiar": "CSUKA PAVEL - fiu -", "lat": 45.756073, "adresa": " MANOLE nr.7", "data": "12.11.2002", "descriere": "Locuinta - casa familiala P+M.", "lng": 21.1901054}, {"beneficiar": "S.C. VACANTA  S.R.L.", "lat": 45.750442, "adresa": " EMIL GARLEANU nr.19", "data": "11.11.2002", "descriere": "Bransament gaze naturale prin pozare subterana.", "lng": 21.286112}, {"beneficiar": "SOFRAN ANA ELENA", "lat": 45.727554, "adresa": " CAL.SAGULUI nr.63 ap.2", "data": "08.11.2002", "descriere": "Bransament apa si racord canal.", "lng": 21.204763}, {"beneficiar": "CLETIU  CONSTANTIN  EUGEN  SI SOTIA   DANIELA", "lat": 45.722607, "adresa": " G. GALILEI nr.18 bl.- sc.- et.- ap.-", "data": "22.11.2002", "descriere": "Bransament gaze naturale prin pozare subterana", "lng": 21.218155}, {"beneficiar": "CONSILIUL LOCAL AL MUNICIPIULUI TIMISOARA", "lat": 45.7296412, "adresa": " BRANCOVEANU nr.125A", "data": "21.11.2002", "descriere": "Extindere retea, bransament gaze naturale prin pozare subterana pt. S.C. VETERINARIA S.R.L.", "lng": 21.2187934}, {"beneficiar": "FASUI  ILIE  SI FASUI AURORA", "lat": 45.7689583, "adresa": " CAROL DAVILA nr.15 bl.- sc.- et.- ap.-", "data": "21.11.2002", "descriere": "Bransament gaze naturale prin pozare subterana", "lng": 21.239878}, {"beneficiar": "GIURGIU IOAN SI SOTIA GIURGIU VERONICA", "lat": 45.772766, "adresa": " ION ROATA nr.49", "data": "20.11.2002", "descriere": "Extindere garaj parter.", "lng": 21.240317}, {"beneficiar": "MARGAUAN   DOREL  SI SOTIA MARGAUAN  DANIELA", "lat": 45.762376, "adresa": " MATRAGUNEI nr.45", "data": "20.11.2002", "descriere": "Bransament gaze naturale prin pozare subterana.", "lng": 21.283297}, {"beneficiar": "LOCOVEI ADRIANA ,   VASILESCU  DUMITRU-FLORIAN SI SOTIA VASILESCU EUGENIA", "lat": 45.747598, "adresa": " BATANIA nr.6 bl.- sc.- et.- ap.-", "data": "20.11.2002", "descriere": "Bransament gaze naturale prin pozare subterana", "lng": 21.259427}, {"beneficiar": "DUTU  IOAN", "lat": 45.725507, "adresa": " MUZICESCU nr.90 bl.- sc.- et.- ap.-", "data": "29.10.2002", "descriere": "Bransament gaze naturale prin pozare subterana", "lng": 21.2251939}, {"beneficiar": "BOBIC  DAN  SI  BOBIC  RODICA", "lat": 45.7724369, "adresa": " CAL. LIPOVEI nr.40A bl.- sc.- et.- ap.-", "data": "29.10.2002", "descriere": "Bransament gaze naturale prin pozare subterana", "lng": 21.231568}, {"beneficiar": "SIMION DORU SI SIMION MARIA", "lat": 45.768572, "adresa": " BV.CETATII nr.89", "data": "29.10.2002", "descriere": "Montare firma luminoasa pe fatada casei in suprafata de 2 x 0,6 mp.", "lng": 21.218661}, {"beneficiar": "CRAC VIOREL", "lat": 45.76167299999999, "adresa": " Tibrului nr.53 bl.- sc.- et.- ap.-", "data": "22.10.2002", "descriere": "Racord canal", "lng": 21.191102}, {"beneficiar": "VINTER AVRAM", "lat": 45.728233, "adresa": " CONSTANTIN DANIEL nr.9 bl.- sc.- et.- ap.-", "data": "22.10.2002", "descriere": "Bransament apa si racord canal", "lng": 21.188524}, {"beneficiar": "DOBOSAN  SORIN MIRCEA si sotia CAMELIA LILIANA", "lat": 45.7710918, "adresa": " ALEEA VIILOR nr.12B bl.- sc.- et.- ap.-", "data": "22.10.2002", "descriere": "Extindere retea si bransament gaze naturale prin pozare subterana", "lng": 21.2088089}, {"beneficiar": "SIMON MARCEL", "lat": 45.762633, "adresa": " TIBRULUI nr.50 bl.- sc.- et.- ap.-", "data": "22.10.2002", "descriere": "Bransament apa si racord canal", "lng": 21.191112}, {"beneficiar": "DALCA IOAN SI SOTIA DALCA GABRIELA", "lat": 45.7628219, "adresa": " VIORELELOR bl.D13 sc.A ap.7", "data": "15.10.2002", "descriere": "Locuinta - modificari interioare si inlocuire tamplarie la balcoane.", "lng": 21.2571659}, {"beneficiar": "PONICI ILIE SI SOTIA PONICI MARTA", "lat": 45.734195, "adresa": " VULTURILOR nr.23/A", "data": "15.10.2002", "descriere": "Anexe - Reamenajare anexe gospod. degradate in regim parter, fara depasirea coamei existente, garaj si imprejmuire teren.", "lng": 21.205691}, {"beneficiar": "SC GRAFOPRINT S.R.L.", "lat": 45.745036, "adresa": " T.VLADIMIRESCU nr.33 bl.- sc.- et.- ap.-", "data": "15.10.2002", "descriere": "Imobil - Desfiintare apartamentele 6 si 7 parter degradate.", "lng": 21.20384}, {"beneficiar": "DIRECTIA REGIONALA DE  POSTA", "lat": 45.755458, "adresa": " Bv.Revolutiei nr.2 bl.- sc.- et.- ap.-", "data": "15.10.2002", "descriere": "Posta Romana - lucrari de repararea si zugravirea fatadelor.", "lng": 21.234685}, {"beneficiar": "TOMAN STEFAN IOAN SI TOMAN ROZALIA", "lat": 45.7626009, "adresa": " Mircea cel Batran nr.105b bl.- sc.- et.- ap.-", "data": "08.10.2002", "descriere": "Racord canal", "lng": 21.195867}, {"beneficiar": "ANGHELINA SORIN DAN SI ANGHELINA ZLATA", "lat": 45.7607069, "adresa": " TIBRULUI nr.45/A bl.- sc.- et.- ap.-", "data": "08.10.2002", "descriere": "Racord canal", "lng": 21.191245}, {"beneficiar": "ANGHELINA IOAN SI ANGHELINA ALINA ELENA", "lat": 45.7607069, "adresa": " TIBRULUI nr.45 bl.- sc.- et.- ap.-", "data": "08.10.2002", "descriere": "Racord canal", "lng": 21.191245}, {"beneficiar": "ETEM ELEONORA ELISABETA MARIA CORNELIA", "lat": 45.74407009999999, "adresa": " odobescu nr.12", "data": "08.10.2002", "descriere": "Bransament gaze naturale prin pozare subterana.", "lng": 21.2162026}, {"beneficiar": "SALA EUGEN SI SOTIA SALA MARIA", "lat": 45.763678, "adresa": " DRAGOS VODA nr.32", "data": "23.09.2002", "descriere": "Anexa gospodareasca - modificare prin transformare sopron in magazie parter S = 39,5 mp.", "lng": 21.196539}, {"beneficiar": "IANASI VIRGIL, IANASI ECATERINA", "lat": 45.7587789, "adresa": " DONICI nr.20 bl.- sc.- et.- ap.-", "data": "23.09.2002", "descriere": "Locxuinta - extindere cladire in regim P  si construire anexa.", "lng": 21.182175}, {"beneficiar": "LAVRIC  VASILE", "lat": 45.761428, "adresa": " TIBRULUI nr.51 bl.- sc.- et.- ap.-", "data": "23.09.2002", "descriere": "Racord canal.", "lng": 21.191135},