{"points": [{"beneficiar": "Po?=TRU OVIDIU- MARCEL si Po?=TRU CARMEN-GABRIELA", "lat": 45.767774, "adresa": " BASARABIA nr.15", "data": "29.12.2006", "descriere": "Lucrari de tip c) - Retele edilitare - canal - Racord canal - Zona D", "lng": 21.204754}, {"beneficiar": "TAPALAGA IOAN SI SOTIA TAPALAGA VIRGINIA", "lat": 45.7433596, "adresa": " ARIESUL nr.3", "data": "28.12.2006", "descriere": "Lucrari de tip a) - Locuinta. Extindere imobil cu corp de cladire D+P+1E - legalizare conf. art. 28 din L. 50/91 rep. si actualizata in 2006. Zona B. St = 352 mp, Sc = 215 mp, Sd = 725 mp.", "lng": 21.2372514}, {"beneficiar": "GOMAN DOREL SI GOMAN MONICA AIDA", "lat": 45.758986, "adresa": " GAROFITEI nr.1", "data": "28.12.2006", "descriere": "Lucrari de tip a) - C-tii pt. locuinte. Demolare partiala casa. Zona D. St = 416 mp", "lng": 21.264188}, {"beneficiar": "VASILE LILI - necasat.", "lat": 45.765331, "adresa": " ALPINISTILOR nr.2/a", "data": "28.12.2006", "descriere": "Lucrari de tip c) Retele edilitare - apa, canal. Bransament apa si racord canal. Zona C.", "lng": 21.265471}, {"beneficiar": "PANAIT LUCIAN NICOLAE si PANAIT MARILENA", "lat": 45.724671, "adresa": " MUZICESCU nr.140", "data": "28.12.2006", "descriere": "Lucrari de tip c) - Retele edilitare - canal - Racord canal - Zona C", "lng": 21.233941}, {"beneficiar": "ASOCIATIA DE PROPRIETARI", "lat": 45.7341639, "adresa": " AZURULUI nr.11 bl.B20", "data": "28.12.2006", "descriere": "Lucrari de tip a) - Amenajari exterioare - Construire acoperis tip sarpanta cu invelitoare din tigla la blocul de locuinte S+P+4E existent. Zona D.", "lng": 21.2515705}, {"beneficiar": "COSTEA MIHAELA ROXANA", "lat": 45.748812, "adresa": " VIRGILIU nr.36", "data": "28.12.2006", "descriere": "Lucrari de tip c) - Retele edilitare - apa, canal - Bransament apa si racord canal - Zona D", "lng": 21.262323}, {"beneficiar": "GAo?=PAR o?=TEFAN si GAo?=PAR ISTVAN", "lat": 45.7677059, "adresa": " BASARABIA nr.13", "data": "28.12.2006", "descriere": "Lucrari de tip c) - Retele edilitare - canal - Racord canal - Zona D", "lng": 21.205004}, {"beneficiar": "STOIA MARIANA STELA si sotul STOIA TRAIAN CONSTANTIN", "lat": 45.781625, "adresa": " HORIA CREANGA nr.26", "data": "28.12.2006", "descriere": "Lucrari de tip c) - Retele edilitare  - apa, canal - Bransament apa si racord canal - Zona C", "lng": 21.2360669}, {"beneficiar": "GOLEANU LISANDRU SI SOTIA FLORICA", "lat": 45.764268, "adresa": " TULCEA nr.5", "data": "28.12.2006", "descriere": "Lucrari de tip c) - Retele edilitare-  canal. Racord canal. Zona B.", "lng": 21.199429}, {"beneficiar": "COZAC IOAN", "lat": 45.7347395, "adresa": " GLAD nr.54", "data": "28.12.2006", "descriere": "Lucrari de tip c) - Retele edilitare - apa, canal. Bransament apa. Racord canal. Zona C.", "lng": 21.2186416}, {"beneficiar": "CHIS MARIA si CHIS GHEORGHE", "lat": 45.724428, "adresa": " ROMANITEI nr.34", "data": "28.12.2006", "descriere": "Lucrari de tip c) - Retele edilitare - apa - Bransament apa - Zona C", "lng": 21.17195}, {"beneficiar": "CIUNGU  CIPRIAN  casat. cu CIUNGU   MONICA ALINA", "lat": 45.760354, "adresa": " MOISE DOBOSAN nr.121", "data": "28.12.2006", "descriere": "Lucrari de tip c) - Retele edilitare  - gaze. Bransament gaze naturale prin pozare subterana. Zona C.", "lng": 21.187475}, {"beneficiar": "CIUCUR ALEXANDRU-NICOLAE", "lat": 45.75388909999999, "adresa": " GHIOCEILOR nr.1", "data": "28.12.2006", "descriere": "Lucrari de tip c) - Retele edilitare - apa, canal - Bransament apa si racord canal - Zona C", "lng": 21.2064853}, {"beneficiar": "DRAGAN CORNEL", "lat": 45.764199, "adresa": " TULCEA nr.16", "data": "28.12.2006", "descriere": "Lucrari de tip c) - Retele edilitare- canal. Racord canal. Zona B.", "lng": 21.198092}, {"beneficiar": "LOLEA  VASILE si LOLEA MARIA", "lat": 45.7293949, "adresa": " AIDA nr.17", "data": "28.12.2006", "descriere": "Lucrari de tip c) - Retele edilitare - gaz - Extindere retea si bransament gaze naturale prin pozare subterana - Zona C", "lng": 21.242774}, {"beneficiar": "BERLOVAN ACHIM si  BERLOVAN Mo?=RIOARA", "lat": 45.767933, "adresa": " BASARABIA nr.20", "data": "28.12.2006", "descriere": "Lucrari de tip c) - Retele edilitare - canal - Racord canal - Zona D", "lng": 21.204525}, {"beneficiar": "IVo?=NESCU EUGEN", "lat": 45.767693, "adresa": " BASARABIA nr.12", "data": "28.12.2006", "descriere": "Lucrari de tip c) - Retele edilitare - canal - Racord canal - Zona D", "lng": 21.205429}, {"beneficiar": "ARDELEAN FLORIN si  ERIKA-ILDIKO", "lat": 45.7677509, "adresa": " BASARABIA nr.14", "data": "28.12.2006", "descriere": "Lucrari de tip c) - Retele edilitare - canal - Racord canal - Zona D", "lng": 21.205201}, {"beneficiar": "MACIU CRISTIAN si MACIU ADRIANA - LAVINIA", "lat": 45.76746, "adresa": " BASARABIA nr.4", "data": "28.12.2006", "descriere": "Lucrari de tip c) - Retele edilitare - canal - Racord canal - Zona D", "lng": 21.206342}, {"beneficiar": "SUBICI DIMITRIE", "lat": 45.76763400000001, "adresa": " BASARABIA nr.10", "data": "28.12.2006", "descriere": "Lucrari de tip c) - Retele edilitare - canal - Racord canal - Zona D", "lng": 21.205657}, {"beneficiar": "SC ART FIR SRL DUMBRAVITA", "lat": 45.768124, "adresa": " ZURICH nr.49", "data": "28.12.2006", "descriere": "Lucrari de tip c) - Retele edilitare - apa - Redimensionare bransament apa - Zona C", "lng": 21.2502511}, {"beneficiar": "VINESAR ANA", "lat": 45.76784199999999, "adresa": " BASARABIA nr.17/A", "data": "28.12.2006", "descriere": "Lucrari de tip c) - Retele edilitare - canal - Racord canal", "lng": 21.204504}, {"beneficiar": "LAZARESCU MARIOARA NICOLITA", "lat": 45.76392569999999, "adresa": " CAL. GHIRODEI STR. II nr.12", "data": "28.12.2006", "descriere": "Lucrari de tip c) - Retele edilitare - gaz - Bransament gaze naturale prin pozare subterana - Zona D", "lng": 21.2627919}, {"beneficiar": "STROE GHEORGHE si STROE MARIANA ANTONIA", "lat": 45.72872900000001, "adresa": " BOEMA nr.10", "data": "28.12.2006", "descriere": "Lucrari de tip c) - Retele edilitare - apa, canal - Bransament apa si racord canal - Zona C", "lng": 21.248746}, {"beneficiar": "SZABONYIRI o?=TEFAN si SZABONYIRI ANETA", "lat": 45.767316, "adresa": " BASARABIA nr.1", "data": "28.12.2006", "descriere": "Lucrari de tip c) - Retele edilitare - canal - Racord canal - Zona D", "lng": 21.206519}, {"beneficiar": "DULGHERU CORNEL SI SOTIA DULGHERU MARIA", "lat": 45.7557359, "adresa": " TEBEA nr.20", "data": "28.12.2006", "descriere": "Lucrari de tip a) - C-tii locuinte. Etajare casa parter rezultand casa P+1E.Zona C.St = 300 mp, Sc = 90 mp, Sd = 197,5 mp.", "lng": 21.2056545}, {"beneficiar": "PLAVOSIN CALIN ION casat. cu PLAVOSIN MONICA", "lat": 45.7555614, "adresa": " B.P. HASDEU nr.10", "data": "28.12.2006", "descriere": "Lucrari de tip a) - Demolare casa parter. Zona B. Sd = 221,65 mp, St = 608 mp", "lng": 21.209493}, {"beneficiar": "o?=ERBAN AURICo?=, o?=ERBAN ANA", "lat": 45.723458, "adresa": " IZLAZ nr.45", "data": "28.12.2006", "descriere": "Lucrari de tip a) - Locuinta - Extindere locuinta in regim P. Sd = Sc = 57 mp, St = 647 mp. Zona C. ", "lng": 21.212235}, {"beneficiar": "ASOCIATIA DE PROPRIETARI", "lat": 45.7657789, "adresa": " LORENA nr.12", "data": "28.12.2006", "descriere": "Construire statie fixa telefonie mobila tip GSM Ti 290 To LORENA si alimentare cu energie electrica pt. SC ORANGE ROMANIA S.A. Zona B.", "lng": 21.2495869}, {"beneficiar": "CENTRUL MEDICAL ATHENA S.R.L.", "lat": 45.7745496, "adresa": " CALEA ARADULUI nr.F.N.", "data": "22.12.2006", "descriere": "Lucrari de tip a,d - Constructii pt. sanatate - Construire clinica in regim S+P+2Epartial; Realizare acces auto; Imprejmuire teren; amenajare parcare. Zona B.", "lng": 21.2305257}, {"beneficiar": "STRAUT HORIA CODRICA SI STRAUT MARIANA LUCIA", "lat": 45.7457338, "adresa": " I. GHICA nr.4", "data": "22.12.2006", "descriere": "Lucrari de tip a) - Constr. pt. servicii. Schimbare de destinatie din boxa in sediu firma si amplasare firma pe fatada cladirii. Zona B.", "lng": 21.2136769}, {"beneficiar": "S.C. BUILD CORP S.R.L.", "lat": 45.7667292, "adresa": " DEMETRIADE nr.1", "data": "21.12.2006", "descriere": "Lucrari de tip h) - Constructii cu caracter provizoriu - legalizare conf. L. 50/91 rep., art. 28, a lucrarilor de amplasare patinoar si 2 casute lemn in incinta parcarii Iulius Mall, pe durata contractului de inchiriere 324/2006 (din 15.12.2006 - 15.04.2007). Zona A.", "lng": 21.2285552}, {"beneficiar": "SPITALUL CLINIC JUDEo?=EAN DE URGENo?=o?= NR. 1", "lat": 45.7369521, "adresa": " BV. Dr. Iosif Bulbuca nr.10-14", "data": "21.12.2006", "descriere": "Lucrari de tip a si tip c - sistematizare incinta Spitalul Clinic Judetean nr. 1: canalizare platforma incinta, retea de apa incendiu exterioara si constructie statie de pompe si rezervor incendiu in regim S+P .Zona B. Sd = 350 mp, Steren = 11693 mp", "lng": 21.2407879}, {"beneficiar": "GHERA ROTARIU EUGEN si sotia GHERA - ROTARIU LILIANA TATIANA MINERVA", "lat": 45.749229, "adresa": " VIRGILIU nr.42", "data": "21.12.2006", "descriere": "Lucrari de tip a) - Locuinta - Mansardare partiala casa parter rezultand casa in regim P+Mp. Sc = 79,46 mp, Sd = 79,46 mp, St = 189 mp. Zona C.", "lng": 21.262357}, {"beneficiar": "ALEXA GRIGORE SI ALEXA DANIELA TABITA", "lat": 45.738565, "adresa": " INDEPENDENTEI nr.24", "data": "21.12.2006", "descriere": "Lucrari de tip b) - C-tii pt. servicii. Mansardare imobil existent rezultand P+M partial. Sc =Sd = 250,20 mp.St = 768 mp. Zona B.", "lng": 21.225082}, {"beneficiar": "GOLBAN ANCA -IULIANA , GOLBAN SORINEL GHEORGHE", "lat": 45.7208199, "adresa": " IZLAZ bl.52 sc.E et.P ap.20", "data": "21.12.2006", "descriere": "Lucrari de tip a) - Locuinta. Modificari interioare si construire balcon conf. HCL 132/2004. Zona C.", "lng": 21.2026771}, {"beneficiar": "MARTINESCU GAVRILUo?=o?= TUo?=o?=,  MARTINESCU ADRIANA", "lat": 45.722727, "adresa": " ALUNIS nr.62", "data": "21.12.2006", "descriere": "Lucrari de tip a) - Constr. pt. locuinte - Construire locuinta familiala in regim P+E, garaj si imprejmuire. Zona C. St = 540 mp, Sc = 167,69 mp, Sd = 316,47 mp.", "lng": 21.2310899}, {"beneficiar": "PAROHIA ORTODOXA ROMANA TIMISOARA FABRIC EST", "lat": 45.766622, "adresa": " ALPINISTILOR nr.10", "data": "21.12.2006", "descriere": "Lucrari de tip a) - Constr. pt. culte.Extindere si reconstruire biserica , construire anexa parter.Zona D. St = 902 mp, Sc =Sd =  126 mp,", "lng": 21.2654784}, {"beneficiar": "MEGLEI MIRCEA", "lat": 45.748885, "adresa": " M. COSTIN nr.4", "data": "21.12.2006", "descriere": "Lucrari de tip a) - C-tii pt. servicii. Modificari exterioare - creare acces direct din exterior .Schimbare destinatie din boxa in spatiu pt. servicii - birouri. Zona B.", "lng": 21.217711}, {"beneficiar": "REGIA AUTONOMo?= DE TRANSPORT TIMIo?=OARA", "lat": 45.7609629, "adresa": " INTRAREA DOINEI nr.2", "data": "21.12.2006", "descriere": "Lucrari de tip a) - Constructii pt. servicii - Amenajare sediu administrativ si centru vanzare bilete si abonamente. Zona A. St = 2800 mp", "lng": 21.228107}, {"beneficiar": "STANCU ELENA o?=I SOo?=UL IONEL", "lat": 45.757739, "adresa": " DR. IOAN BONTILA nr.24", "data": "21.12.2006", "descriere": "Lucrari de tip c) - Retele edilitare - gaz - Bransament gaze naturale prin pozare subterana - Zona C", "lng": 21.260015}, {"beneficiar": "MANEA RADU LIVIUS SI MANEA DORINA", "lat": 45.755852, "adresa": " CAMPULUI nr.60", "data": "21.12.2006", "descriere": "Lucrari de tip c) - Retele edilitare - gaz. Bransament gaze naturale prin pozare subterana. Zona C.", "lng": 21.263659}, {"beneficiar": "NEDICI VLADIMIR", "lat": 45.768451, "adresa": " PLUGARILOR nr.37", "data": "21.12.2006", "descriere": "Lucrari de tip c) - Retele edilitare - apa, canal. Bransament apa, racord canal. Zona B.", "lng": 21.202179}, {"beneficiar": "MARIN IADRANCA, MARIN MILORAD si MARIN  DRAGHITA", "lat": 45.7720247, "adresa": " VIILOR nr.17/C", "data": "21.12.2006", "descriere": "Lucrari de tip c) - Retele edilitare - apa - Bransament apa  - Zona C", "lng": 21.202238}, {"beneficiar": "MIHALCEA SURU ADRIANA MARIA", "lat": 45.7452023, "adresa": " VICTOR BABES nr.31", "data": "21.12.2006", "descriere": "Lucrari de tip c) - Retele edilitare - gaz. Bransament gaze naturale prin pozare subterana Zona B.", "lng": 21.2350027}, {"beneficiar": "ILIE LAURENTIU SORIN si ILIE ANGELICA", "lat": 45.76799399999999, "adresa": " BASARABIA nr.22", "data": "21.12.2006", "descriere": "Lucrari de tip c) - Retele edilitare - canal - Racord canal - Zona D", "lng": 21.204301}, {"beneficiar": "IOZSA ANA si IOSZA LUDOVIC, DOVAL PETRU, AMISICS GHEORGHE si AMISICS IULIANA", "lat": 45.734745, "adresa": " CORNELIU BABA nr.39", "data": "21.12.2006", "descriere": "Lucrari de tip c) - Retele edilitare - canal - Racord canal - Zona C", "lng": 21.1863891}, {"beneficiar": "MINEATA SANDU SI MINEATA LILIANA", "lat": 45.78194, "adresa": " ARMONIEI nr.1", "data": "21.12.2006", "descriere": "Lucrari de tip c) - Retele edilitare - gaz. Bransament gaze naturale prin pozare subterana.Zona D.", "lng": 21.229605}, {"beneficiar": "VIo?=AN PATRICK RAUL", "lat": 45.758864, "adresa": " BORSEC nr.6 ap.2", "data": "21.12.2006", "descriere": "Lucrari de tip c) - Retele edilitare - gaz. Bransament gaze naturale prin pozare subterana. Zona C.", "lng": 21.223385}, {"beneficiar": "S.C. BEGA MINERALE INDUSTRIALE S.A.", "lat": 45.72445099999999, "adresa": " CAL. SAGULUI nr.104-110", "data": "21.12.2006", "descriere": "Lucrari de tip a) - Desfiintare.Desfiintare constructii industriale: rampa spalare, casa pompe, hala productie, laborator P+1E, vestiar arhiva (P+1E), statie compresor, magazie, hala productie, flux ceramic, bazin apa, birouri; sopron beton; sopron metalic, magazie metalica, atelier creatie cuptoare, sopron, sopron, magazie produse finite, pubela deseuri, garaj, casa.Zona C.", "lng": 21.20165}, {"beneficiar": "S.C. BEGA TURISM S.A.", "lat": 45.7237404, "adresa": " SULINA nr.6", "data": "21.12.2006", "descriere": "Lucrari de tip c) - Retele edilitare - canal - Racord canal - Zona D", "lng": 21.1939788}, {"beneficiar": "BALOGH ELENA ZENAIDA SI POPESCU JULIAN", "lat": 45.7386492, "adresa": " VULTURILOR nr.40", "data": "21.12.2006", "descriere": "Lucrari de tip a) - Desfiintare. Desfiintare bucatarie si camara alimente. Zona D.", "lng": 21.1990555}, {"beneficiar": "SC IPROTIM SA", "lat": 45.7541607, "adresa": " PARIS nr.2A", "data": "21.12.2006", "descriere": "Lucrari de tip b)  - Constructii pentru servicii - Amenajare sucursala banca BANK LEUMI ROMANIA SA. - Modificari interioare si exterioare si lucrari de tip h) - Constructii cu caracter provizoriu - Amplasare firma luminoasa pe durata contractului de inchiriere - Zona A", "lng": 21.2236325}, {"beneficiar": "PRIMARIA MUNICIPIULUI TIMISOARA", "lat": 45.764787, "adresa": " CRISAN nr.21", "data": "21.12.2006", "descriere": "Lucrari de tip c) - Retele edilitare - gaz - Extindere retea si bransament gaze naturale prin pozare subterana - Zona C", "lng": 21.207711}, {"beneficiar": "GURGU ELISAVETA", "lat": 45.767576, "adresa": " BASARABIA nr.9", "data": "21.12.2006", "descriere": "Lucrari de tip c) - Retele edilitare- canal. Racord canal. Zona D. ", "lng": 21.205512}, {"beneficiar": "BUDA IOAN, BUDA AUREL  BUDA VASILE si PAL ANA", "lat": 45.7332668, "adresa": " CORNELIU BABA nr.17", "data": "21.12.2006", "descriere": "Lucrari de tip c) - retele edilitare - canal - Racord canal - Zona C", "lng": 21.1882375}, {"beneficiar": "ASOCIATIA  LOCATARILOR", "lat": 45.775672, "adresa": " ORSOVA nr.30 bl.74", "data": "21.12.2006", "descriere": "Lucrari de tip a) - Constructii pt. locuinte - Construire acoperis tip sarpanta cu invelitoare din tigla la bloc S+P+4E existent. Zona D.", "lng": 21.215228}, {"beneficiar": "MARTIN  RUDOLF MARIUS SI SOTIA MARTIN DORINA", "lat": 45.754879, "adresa": " CALEA BOGDANESTILOR nr.147", "data": "21.12.2006", "descriere": "Lucrari de tip a) - C-tii pt. locuinte - Extindere in regim P+M la casa existenta. Zona D. Sc = 99,02 mp, Sd = 175,92 mp, St = 641 mp.", "lng": 21.1916319}, {"beneficiar": "MIU VIRGIL MIREL", "lat": 45.729718, "adresa": " CAL. SAGULUI nr.56 et.3", "data": "21.12.2006", "descriere": "Lucrari de tip a) - Constructii pentru locuinte - Modificari interioare in vederea imbunatatirii confortului si modificare exterioara - inchidere balcon - Zona D", "lng": 21.206065}, {"beneficiar": "S.C. MOL RO COMERT  S.R.L.", "lat": 45.715812, "adresa": " CAL. SAGULUI nr.138-140", "data": "21.12.2006", "descriere": "Lucrari de tip a) - Amenajari exterioare. Schimbarea elementelor de identificare a statiei de comercializare carburanti din MOL in PETROM . Zona D.", "lng": 21.194205}, {"beneficiar": "S.C. BEGA TURISM S.A.", "lat": 45.754796, "adresa": " MARASESTI nr.1-3", "data": "21.12.2006", "descriere": "Lucrari de tip b) -  Constructii pt. servicii - Modificari exterioare - schimbare tamplarie fatade cladire in regim S+P+5E+M - aripa veche. Placare P+Mezanin cladire in regim S+P+M+7E - 9E - aripa noua. Zona M.I.", "lng": 21.225549}, {"beneficiar": "MARTINESCU FLORIDA", "lat": 45.74046, "adresa": " PLATANILOR nr.11 sc.C ap.2", "data": "21.12.2006", "descriere": "Lucrari de tip a) -C-tii pt. locuinte.Modificari interioare in apartament nr. 11 pentru imbunatatirea confortului - desfiintare debara. Zona D.", "lng": 21.207041}, {"beneficiar": "BUZARNESCU MARIN SI BUZARNESCU MARIA - ELISABETA", "lat": 45.74327, "adresa": " AL. VLAHUTA nr.4 ap.1", "data": "21.12.2006", "descriere": "Lucrari de tip a) - Desfiintari.Demolare magazie nr. 1.", "lng": 21.202978}, {"beneficiar": "ASOCIATIA DE PROPRIETARI", "lat": 45.73253099999999, "adresa": " BV.DAMBOVITA nr.7", "data": "21.12.2006", "descriere": "Lucrari de tip a) - Constructii locuinte. Construire acoperis tip sarpanta cu invelitoare din tigla la bloc existent P+4E. Zona D.", "lng": 21.207148}, {"beneficiar": "POPESCU CRISTIAN LIVIU SI POPESCU  MIRELA CONSTANTA", "lat": 45.7397504, "adresa": " RACHITEI nr.22", "data": "21.12.2006", "descriere": "Lucrari de tip a) - Locuinte . Modificari interioare,exterioare si mansardare imobil P rezultand P+M. Refacere imprejmuire. Zona C. St = 550 mp, Sc = 6 mp, Sd = 91 mp", "lng": 21.1898159}, {"beneficiar": "BORBEL MIRCEA si BORBEL AURICA", "lat": 45.7322689, "adresa": " ULPIA TRAIANA nr.53", "data": "21.12.2006", "descriere": "Lucrari de tip a)  Locuinte - Extindere si supraetajare atelier reparatii auto in regim P, rezultand regim P+1E+M. Zona B. St = 761 mp, Sc = 75 mp, Sd = 369 mp.", "lng": 21.226479}, {"beneficiar": "MIHNEA MARCEL CONSTANTIN si sotia  MIHNEA ADRIANA", "lat": 45.769006, "adresa": " CETATEA ALBA nr.1", "data": "21.12.2006", "descriere": "Lucrari de tip a) - Constructii pt. locuinte - Construire locuinte colective cu regim de inaltime P+2E.  Zona B. Steren = 1245 mp, Sc = 491 mp, Sd = 1069,8 mp.", "lng": 21.2003933}, {"beneficiar": "o?=Uo?=MA ALICE -ADELA", "lat": 45.730734, "adresa": " C. SAGULUI nr.40", "data": "21.12.2006", "descriere": "Lucrari de tip a) - Constructii pt. servicii. Modificari interioare si exterioare - creare acces direct din exterior. Schimbare  destinatie din locuinta in cabinet medical. Zona D.", "lng": 21.206806}, {"beneficiar": "S.C. HUA LONG INTERNATIONAL IMPEX S.R.L.; ZHANG ZOULONG SI SOTIA WANG JIANPING", "lat": 45.7663902, "adresa": " SAMUIL MICU nr.21", "data": "21.12.2006", "descriere": "Lucrari de tip a) - Locuinta - Extindere si mansardare casa P existent , rezultand regim P+M. Zona B. St = 447 mp, Sc = 163,34 mp, Sd = 327 mp", "lng": 21.2503097}, {"beneficiar": "JURCULEo?= FLORIN SI SOTIA JURCULEo?= DORINA-GABRIELA", "lat": 45.7620705, "adresa": " DROPIEI nr.3 bl.E1-2 sc.A ap.5", "data": "21.12.2006", "descriere": "Lucrari de tip a) - Constructii pt. locuinte - Modificari interioare si exterioare la ap. nr. 5 in vederea imbunatatirii confortului. Zona B.", "lng": 21.2159031}, {"beneficiar": "IANCOVICI MIRIANA", "lat": 45.7568089, "adresa": " BOGDANESTILOR nr.15", "data": "21.12.2006", "descriere": "Lucrari de tip a) - Constructii pt. locuinte. Modificari interioare si exterioare, construire terasa la mansarda la casa existenta. Zona B. St = 646 mp.", "lng": 21.2138284}, {"beneficiar": "DRESSLER OCTAVIA IRINA,", "lat": 45.762089, "adresa": " BV.CETATII nr.19/A", "data": "21.12.2006", "descriere": "Lucrari de tip a) - Constructii pentru comert. Amenajare spatiu comercial la parter. Zona D.", "lng": 21.210019}, {"beneficiar": "VACARIU  VASILE, VACARIU  ELENA", "lat": 45.715123, "adresa": " CHISODEI nr.152A", "data": "21.12.2006", "descriere": "Lucrari de tip c) - Retele edilitare - gaz - Bransament gaze naturale prin pozare subterana - Zona C", "lng": 21.214927}, {"beneficiar": "BUZATU OLGA SI BUZATU ION", "lat": 45.767382, "adresa": " BASARABIA nr.3", "data": "21.12.2006", "descriere": "Lucrari de tip c) - Retele edilitare - canal. Racord canal. Zona D.", "lng": 21.2062719}, {"beneficiar": "S.C. MIXT SANITIM S.R.L.", "lat": 45.7565277, "adresa": " EUGENIU DE SAVOYA nr.7", "data": "21.12.2006", "descriere": "Lucrari de tip b) - Constr. pt. comert si alimentatie publica - Reamenajare interioara spatiu comercial cu schimbare destinatie spatiu, din spatiu comercial in cafe - bar. Zona M.I.", "lng": 21.229103}, {"beneficiar": "S.C. IMMOBILIARE SDB ROMANIA S.R.L.", "lat": 45.758648, "adresa": " FRANTZ LISZT nr.4", "data": "21.12.2006", "descriere": "Lucrari de tip c) - Retele edilitare - gaz. Bransament gaze naturale prin pozare subterana. Zona A.", "lng": 21.223932}, {"beneficiar": "GAVRILo?= To?=NASE SI  GAVRILo?= CRISTINA, RADU COSTEA SI RADU ELENA", "lat": 45.768217, "adresa": " PLUGARILOR nr.29", "data": "21.12.2006", "descriere": "Lucrari de tip c) - Retele edilitare- apa, canal. Bransament apa, racord canal. Zona B.", "lng": 21.20313}, {"beneficiar": "AGAPIE DORIN-NICOLAE SI  AGAPIE IULIA-CORINA", "lat": 45.767576, "adresa": " BASARABIA nr.8", "data": "21.12.2006", "descriere": "Lucrari de tip c) - Retele edilitare-  canal. Racord canal. Zona D.", "lng": 21.205885}, {"beneficiar": "BIBLIOTECA CENTRALA UNIVERSITARA", "lat": 45.747774, "adresa": " VASILE PARVAN nr.4", "data": "19.12.2006", "descriere": "Lucrari de tip c) - Retele edilitare - apa. Extindere retea apa si bransament apa. Zona B.", "lng": 21.230122}, {"beneficiar": "SIMCELESCU REMUS FLORENTIN SI SOTIA VOICHITA", "lat": 45.759167, "adresa": " PIATA MARASTI nr.1-2", "data": "19.12.2006", "descriere": "Lucrari de tip a) - Constructii pt. servicii - Amenajare agentie bancara Banc Post. Zona M.I.", "lng": 21.228774}, {"beneficiar": "KELE BIANCA SUSANA", "lat": 45.72487599999999, "adresa": " MATEI MILLO nr.42", "data": "18.12.2006", "descriere": "Lucrari de tip a) - Locuinta - Desfiintare casa existenta in regim P. Zona C.", "lng": 21.262071}, {"beneficiar": "ASOCIAo?=IA DE PROPRIETARI", "lat": 45.733613, "adresa": " IOAN MURESAN nr.52 bl.D6/2", "data": "18.12.2006", "descriere": "Lucrari de tip a) - Constructii pt. locuinte - Construire acoperis tip sarpanta cu invelitoare din tigla. Zona D.", "lng": 21.2274369}, {"beneficiar": "ASOCIAo?=IA DE PROPRIETARI \" ELECTRONICII 14\" prin RUSU MARIA", "lat": 45.7313649, "adresa": " ELECTRONICII nr.14 bl.C8", "data": "18.12.2006", "descriere": "Lucrari de tip a) - Locuinta - Constructie acoperis tip sarpanta cu invelitoare din tigla la bloc existent in regim P+4E. Zona C. Sc = 281 mp, Steren = 357 mp.", "lng": 21.258132}, {"beneficiar": " MARINESCU ADRIAN-GEORGE SI SOTIA MULLER MARINESCU CLAUDIA", "lat": 45.772653, "adresa": " CALEA ARADULUI nr.83", "data": "18.12.2006", "descriere": "Lucrari de tip a) - Constructii pt. locuinte - Reamenajare si mansardare casa P+1E,rezultand P+1E+M.Zona D. St = 435 mp, Sc = 108 mp, Sd = 328 mp", "lng": 21.222175}, {"beneficiar": "S.C. CRESTA PRINT S.R.L.", "lat": 45.755954, "adresa": " 1 MAI", "data": "18.12.2006", "descriere": "Lucrari de tip h) - Constructii cu caracter provizoriu - Amplasare panou indicator pe stalp RATT nr. 10, pe durata contractului de inchiriere nr. 237/2005 si act aditional 1,2,3,4/2006 la contractul 237/2005 (din 20.12.2006 pana in 31.12.2011). Zona A.", "lng": 21.227932}, {"beneficiar": "HRUo?=Co?= GABRIELA", "lat": 45.726662, "adresa": " MUZICESCU nr.28/A", "data": "18.12.2006", "descriere": "Lucrari de tip c) - retele edilitare - apa, canal - Extindere  retea canal , racord canal , bransament apa - Zona C", "lng": 21.214943}, {"beneficiar": "DUMA  IOAN,  NITA  ILEANA si sotul NITA MARIN", "lat": 45.715123, "adresa": " CHISODEI nr.152 B", "data": "18.12.2006", "descriere": "Lucrari de tip c) - Retele edilitare - gaz - Bransament gaze naturale prin pozare subterana - Zona C", "lng": 21.214927}, {"beneficiar": "So?=RBU VIOREL si  So?=RBU ROXANA", "lat": 45.78219, "adresa": " ARMONIEI nr.16B", "data": "18.12.2006", "descriere": "Lucrari de tip c) - Retele edilitare - gaz - Bransament gaze naturale prin pozare subterana - Zona D", "lng": 21.229117}, {"beneficiar": "S.C. AGATEX S.A.", "lat": 45.741436, "adresa": " CALEA STAN VIDRIGHIN nr.18", "data": "18.12.2006", "descriere": "Lucrari de tip h) - Constructie cu caracter provizoriu - Amplasare firma pe fatada pt. S.C. ICME ECAB S.A. pe durata contractului de inchiriere nr. 8/2006 din   01.07.2006-01.07.2011. Zona C.", "lng": 21.255878}, {"beneficiar": "LITEANU ELENA", "lat": 45.752322, "adresa": " BATANIA nr.67/A", "data": "18.12.2006", "descriere": "Lucrari de tip a) - Locuinta - Extindere casa in regim de inaltime parter. Zona C. Sc = 124,08 mp, Sd = 124,08 mp, St = 243 mp", "lng": 21.261734}, {"beneficiar": "NEGRU OLIMPIU SI SOTIA NEGRU GABRIELA", "lat": 45.77403899999999, "adresa": " LINISTEI nr.22", "data": "18.12.2006", "descriere": "Lucrari de tip a) - Constructii pt. locuinte - Lucrari de modificari si etajare casa existenta P+M, rezultand casa P+1E+M. Zona B. Steren = 314 mp, Sc = 1 mp, Sd = 182 mp", "lng": 21.22774}, {"beneficiar": "GRIGORESCU DAN VIOREL - GEORGE casat. cu  GRIGORESCU GEORGETA - ILEANA", "lat": 45.7574131, "adresa": " MASLINULUI nr.24", "data": "18.12.2006", "descriere": "Lucrari de tip a) - Constructii de locuinte. Construire casa unifamiliala in regim P+1E, imprejmuire si acces auto pe parcela. Zona B. Sc = 199,10 mp, Sd = 292,72 mp, St = 603,00 mp", "lng": 21.2010125}, {"beneficiar": "HRISCA DUMITRU si sotia HRISCA ANDREA", "lat": 45.75125800000001, "adresa": " N. TINCU VELEA nr.9", "data": "15.12.2006", "descriere": "Lucrari de tip c) - Retele edilitare - apa - Bransament apa - Zona D", "lng": 21.283024}, {"beneficiar": "KASAI PAVEL si sotia KASAI  ADELA VIOLETA", "lat": 45.763665, "adresa": " DRAGOS - VODA nr.26", "data": "15.12.2006", "descriere": "Lucrari de tip c) - Retele edilitare - canal - Racord canal - Zona B", "lng": 21.197547}, {"beneficiar": "KASAI PAVEL si sotia KASAI ADELA -VIOLETA", "lat": 45.76364900000001, "adresa": " DRAGOS VODA nr.24", "data": "15.12.2006", "descriere": "Lucrari de tip c) - Retele edilitare - canal - Racord canal - Zona B", "lng": 21.1978769}, {"beneficiar": "BLAGA CLEMENT  SI  BLAGA ANA", "lat": 45.751014, "adresa": " CALISTRAT HOGAS nr.16", "data": "15.12.2006", "descriere": "Lucrari de tip c) - Retele edilitare - apa. Bransament apa. Zona D.", "lng": 21.285481}, {"beneficiar": "MATEI  TEODOR, MATEI MARIA, MANOLACHE MARIA, MANOLACHE VALERIU, DUMITRICA DANIELA ILISCA, DUMITRICA", "lat": 45.715123, "adresa": " CHISODEI nr.152 G", "data": "15.12.2006", "descriere": "Lucrari de tip c) - Retele edilitare - gaz- Extindere retea si bransament gaze naturale prin pozare subterana - Zona C", "lng": 21.214927}, {"beneficiar": "SCOICARU  DANIELA, SCOICARU CRISTIAN, GINDAC GAVRIL, MARDARE CONSTANTIN si MARDARE  VICTORIA", "lat": 45.715123, "adresa": " CHISODEI nr.152 C", "data": "15.12.2006", "descriere": "Lucrari de tip c) - Retele edilitare - gaz - Bransament gaze naturale prin pozare subterana - Zona C", "lng": 21.214927}, {"beneficiar": "ROHNEAN  LUCICA  SI  ROHNEAN VASILE,  JUJEA  DUMITRU  SI JUJEA ELENA  SIMINICA", "lat": 45.715123, "adresa": " CHISODEI nr.152 F", "data": "15.12.2006", "descriere": "Lucrari de tip c) - Retele edilitare - gaz - Bransament gaze naturale prin pozare subterana - Zona C", "lng": 21.214927}, {"beneficiar": "DAIANU ION, DAIANU MIRELA,  MARICA MARIA", "lat": 45.715123, "adresa": " CHISODEI nr.152 A", "data": "15.12.2006", "descriere": "Lucrari de tip c) - Retele edilitare - gaz - Bransament gaze naturale prin pozare subterana - Zona C", "lng": 21.214927}, {"beneficiar": "LUGOJAN TOMA SILVIA", "lat": 45.752622, "adresa": " TIGRULUI nr.44", "data": "15.12.2006", "descriere": "Lucrari de tip c) - Retele edilitare - gaz - Bransament gaze naturale prin pozare subterana - Zona C", "lng": 21.259491}, {"beneficiar": "TEROVAN NICOLAE CRISTIAN SI TEROVAN DIANA", "lat": 45.728955, "adresa": " LACULUI nr.1", "data": "15.12.2006", "descriere": "Lucrari de tip a) - Locuinta. Modificare A.C. 1720/14.07.2006 - regim de inaltime de la P+2E la P+2E+M. Zona C. St = 571 mp, Sd = Sc = 235 mp", "lng": 21.201175}, {"beneficiar": "CHIOIBAS NICOLAE si CHIOIBAS LETITIA", "lat": 45.759167, "adresa": " POPA SAPCA nr.12", "data": "15.12.2006", "descriere": "Lucrari de tip a) si c)  - Instalatii interioare - Instalatii interioare de gaz. Retele edilitare - gaz - Extindere  retea gaza naturale si bransament gaze naturale prin pozare subterana - Zona A", "lng": 21.232574}, {"beneficiar": "S.C. A.G.N. GROUP S.R.L.", "lat": 45.7667292, "adresa": " DEMETRIADE nr.1", "data": "14.12.2006", "descriere": "Lucrari de tip a) - Desfiintari - Demolare constructie parter. Zona A. St = 830 mp", "lng": 21.2285552}, {"beneficiar": "S.C. TOMIS S.A.", "lat": 45.7623423, "adresa": " CALEA ARADULUI nr.1", "data": "14.12.2006", "descriere": "Lucrari de tip a) - Desfiintare constructii existente - etapa I. Zona A.", "lng": 21.2259031}, {"beneficiar": "S.C. AUTOGLOBUS 2000 S.R.L.", "lat": 45.740625, "adresa": " C.PORUMBESCU nr.12", "data": "13.12.2006", "descriere": "Lucrari de tip a) - Demolare casa parter. Zona C. Sd = 125,10 mp", "lng": 21.222926}, {"beneficiar": "URSACHI IOAN SI URSACHI CORNELIA", "lat": 45.7270902, "adresa": " LETEA nr.80", "data": "13.12.2006", "descriere": "Lucrari de tip a) - Constr.de locuinte - Construire casa in regim P+M si garaj inclus. Zona C. Sc = 114 mp, Sd = 228 mp, Steren = 348 mp", "lng": 21.2160005}, {"beneficiar": "COZAC IOAN", "lat": 45.7347395, "adresa": " GLAD nr.54", "data": "13.12.2006", "descriere": "Lucrari de tip a) - Constructii de locuinte - Construire locuinta in regim D+P+1E+M cu garaj dublu, piscina, chiosc si imprejmuire. Zona B. Sc = 250 mp, Sd = 640 mp, Steren = 878 mp.", "lng": 21.2186416}, {"beneficiar": "ASOCIAo?=IA DE PROPRIETARI \"RECOLTEI 16\" prin RADA TEODOR", "lat": 45.729806, "adresa": " RECOLTEI nr.16", "data": "13.12.2006", "descriere": "Lucrari de tip a) - Locuinta - Constructie acoperis tip sarpanta cu invelitoare din tigla la bloc existent in regim S+P+4E.Zona C. Sc = 240 mp, Steren = 301 mp.", "lng": 21.260315}, {"beneficiar": "TOTAL  PETROLEUM   DISTRIBUTIE S.R.L.", "lat": 45.769186, "adresa": " MIRESEI nr.1", "data": "13.12.2006", "descriere": "Lucrari de tip h) - Constructii cu caracter provizoriu - Schimbarea elementelor de identificare a statiei de comercializare carburanti din MOL  in PETROM. Zona A.", "lng": 21.2201999}, {"beneficiar": "S.C. EUROTRAVEL S.R.L.", "lat": 45.769075, "adresa": " CAL. DOROBANTILOR nr.90", "data": "13.12.2006", "descriere": "Lucrari de tip a) - Constructii pt. comert si servicii. Construire cladire in regim P+1E cu aplicarea art. 28 din L. 50/1991 mod. si actualizata in 2006. Zona C. St = 832 mp, Sc = 253 mp, Sd = 506 mp", "lng": 21.266536}, {"beneficiar": "LUCUTA PETRU", "lat": 45.724106, "adresa": " VASILE MIOC nr.5", "data": "12.12.2006", "descriere": "Lucrari de tip c) - Retele edilitare - gaz - Bransament gaze naturale prin pozare subterana - Zona B", "lng": 21.25107}, {"beneficiar": "SIRBU IOAN NICOLAE si SIRBU MARIA", "lat": 45.71952, "adresa": " Z. STEAUA nr.54", "data": "12.12.2006", "descriere": "Lucrari de tip a) - Locuinta. Construire casa in regim P+2E.Zona C. St = 519 mp, Sc = 259,4 mp, Sd = 778,2 mp", "lng": 21.20499}, {"beneficiar": "TOMESCU ION TEODOR casat. cu TOMESCU GEORGETA", "lat": 45.755598, "adresa": " SEMICERC nr.24", "data": "12.12.2006", "descriere": "Lucrari de tip c) - Retele edilitare - apa, canal - Bransament apa si racord canal - Zona B", "lng": 21.195297}, {"beneficiar": "DAN VIOREL SI SOTIA DAN EUGENIA", "lat": 45.769037, "adresa": " POPOVICI BANATEANU nr.4/A", "data": "13.12.2006", "descriere": "Lucrari de tip a) - Constructii pt. locuinte - etajare casa parter, rezultand P+1E.Zona D. St = 1706 mp, Sc = 160 mp, Sd = 308 mp", "lng": 21.201935}, {"beneficiar": "S.C. EUROMEDIA GROUP S.A.", "lat": 45.740977, "adresa": " CIPRIAN PORUMBESCU nr.6", "data": "13.12.2006", "descriere": "Lucrari de tip h) - C-tii cu caracter provizoriu - Amplasare panou directional pe stalp RATT pe durata contractului de inchiriere nr. 18/03.02.2006 si conf. act aditional nr. 1 din 17.10.2006 (23.12.2006 - 22.12.2007). Zona C.", "lng": 21.223947}, {"beneficiar": "S.C. EUROMEDIA GROUP S.A.", "lat": 45.743039, "adresa": " BV.MIHAI VITEAZUL nr.42", "data": "13.12.2006", "descriere": "Lucrari de tip h) - C-tii cu caracter provizoriu - Amplasare panou directional pe stalp RATT pe durata contractului de inchiriere nr. 18/03.02.2006 si conf. act aditional nr. 1 din 17.10.2006 (23.12.2006 - 22.12.2007). Zona C.", "lng": 21.225772}, {"beneficiar": "S.C. EUROMEDIA GROUP S.A.", "lat": 45.7388109, "adresa": " CIPRIAN PORUMBESCU nr.60", "data": "13.12.2006", "descriere": "Lucrari de tip h) - C-tii cu caracter provizoriu - Amplasare panou directional pe stalp RATT pe durata contractului de inchiriere nr. 18/03.02.2006 si conf. act aditional nr. 1 din 17.10.2006 (23.12.2006 - 22.12.2007). Zona C.", "lng": 21.216846}, {"beneficiar": "S.C. EUROMEDIA GROUP S.A.", "lat": 45.738147, "adresa": " DR. PAVEL VASICI UNGUREANU nr.15-17", "data": "13.12.2006", "descriere": "Lucrari de tip h) - C-tii cu caracter provizoriu - Amplasare panou directional pe stalp RATT pe durata contractului de inchiriere nr. 18/03.02.2006 si conf. act aditional nr. 1 din 17.10.2006 (23.12.2006 - 22.12.2007). Zona C.", "lng": 21.211716}, {"beneficiar": "DEMJEN DEZIDERIU si sotia TUNDE IBOLYA", "lat": 45.729386, "adresa": " BUZIASULUI nr.60", "data": "12.12.2006", "descriere": "Lucrari de tip c) - Retele edilitare - gaz - Bransament gaze naturale prin pozare subterana - Zona C", "lng": 21.26817}, {"beneficiar": "S.C. GRUP EDELWEISS S.R.L.", "lat": 45.7327602, "adresa": " LIVIU REBREANU nr.14", "data": "12.12.2006", "descriere": "Lucrari de tip c) - Retele edilitare - gaz - Bransament gaze naturale prin pozare subterana  Zona B", "lng": 21.2184007}, {"beneficiar": "OCHIANU  EMMANUEL,  STEEFAN  GAL IOAN IONEL si sotia STEFAN GAL LILIANA FLORICA", "lat": 45.777207, "adresa": " FELIX nr.4/4", "data": "12.12.2006", "descriere": "Lucrari de tip c) - Retele edilitare - apa - Redimensionare conducta apa existenta; bransament apa si racord canal - Zona C", "lng": 21.219373}, {"beneficiar": "ARGHIR NICOLAE", "lat": 45.752328, "adresa": " TIGRULUI nr.48", "data": "12.12.2006", "descriere": "Lucrari de tip c) - Retele edilitare - apa - Bransament apa - Zona C", "lng": 21.259774}, {"beneficiar": "PIRJOL CARMEN ADINA si sotul MIRCEA SORIN", "lat": 45.752302, "adresa": " DELINESTI nr.8", "data": "12.12.2006", "descriere": "Lucrari de tip c) - Retele edilitare - gaz - Bransament gaze naturale prin pozare subterana - Zona D", "lng": 21.276763}, {"beneficiar": "GHERGHINA CONSTANTIN si GHERGHINA VICTORIA", "lat": 45.759391, "adresa": " CIOCARLIEI nr.54", "data": "13.12.2006", "descriere": "Lucrari de tip c) - Retele edilitare - energie electrica - Bransament energie electrica prin pozare subterana - Zona C", "lng": 21.187621}, {"beneficiar": "S.C. EUROMEDIA GROUP S.A.", "lat": 45.7492743, "adresa": " BV. 16 DECEMBRIE 1989 nr.2", "data": "08.12.2006", "descriere": "Lucrari de tip h) - C-tii cu caracter provizoriu.Amplasare panou directional pe stalp RATT existent conf. contract inchiriere nr. 18/03.02.2006 si act aditional nr. 1/17.10.2006 (8.12.2006 - 7.12.2007). Zona C.", "lng": 21.2198803}, {"beneficiar": "ASOCIAo?=IA DE PROPRIETARI", "lat": 45.774807, "adresa": " RASARITULUI nr.36 bl.78", "data": "08.12.2006", "descriere": "Lucrari de tip a) - Constructii pt. locuinte - Construire acoperis tip sarpanta cu invelitoare din tigla rosie la bloc S+P+4E existent. Zona D.", "lng": 21.223124}, {"beneficiar": "RADU MIHAI ALIN nec., BEREZOSCHI MIHAIELA -MARIA vad.", "lat": 45.775804, "adresa": " ION IONESCU DE LA BRAD nr.52", "data": "05.12.2006", "descriere": "Lucrari de tip c) - Retele edilitare - gaze. Extindere retea gaze naturale prin pozare subterana si bransament gaze naturale prin pozare subterana. Zona D.", "lng": 21.2497079}, {"beneficiar": "RADU GRIGORE", "lat": 45.7239099, "adresa": " A. BACALBASA nr.44F", "data": "05.12.2006", "descriere": "Lucrari de tip c) - retele edilitare - gaz - Bransament gaze naturale prin pozare subterana - Zona C", "lng": 21.184186}, {"beneficiar": "MATEI  VOICHITA", "lat": 45.724637, "adresa": " EURIPIDE nr.19", "data": "05.12.2006", "descriere": "Lucrari de tip c) - Retele edilitare - apa - Bransament apa  - Zona C", "lng": 21.263396}, {"beneficiar": "SC BERGAMINI IMPEX S.R.L.", "lat": 45.714704, "adresa": " CAL. SAGULUI nr.165", "data": "13.12.2006", "descriere": "Lucrari de tip c) - Retele edilitare - gaz - Bransament gaze naturale prin pozare subterana - Zona D", "lng": 21.194037}, {"beneficiar": "IORGOVAN BOZSAK ELENA,CZARI FRANCISC LADISLAU, CZARI EMILIA CECILIA", "lat": 45.756987, "adresa": " MOCIONI nr.1", "data": "12.12.2006", "descriere": "Lucrari de tip c) - Retele edilitare - gaz - Extindere retea gaze naturale si bransament gaze naturale prin pozare subterana - Zona B", "lng": 21.240095}, {"beneficiar": "MAN IOAN si sotia MAN STELUTA", "lat": 45.763814, "adresa": " CAL. GHIRODEI - STR. I nr.21", "data": "12.12.2006", "descriere": "Lucrari de tip c) - Retele edilitare - gaz -Bransament gaze naturale prin pozare subterana- Zona B", "lng": 21.277651}, {"beneficiar": "COVACIU ALEXANDRU SI COVACIU ALINA", "lat": 45.724872, "adresa": " MARTIRILOR nr.124 sc.B ap.4", "data": "12.12.2006", "descriere": "Lucrari de tip c) - Retele edilitare - gaz. Bransament gaze naturale prin pozare subterana. Zona C.", "lng": 21.236665}, {"beneficiar": "S.C. EUROMEDIA GROUP S.A.", "lat": 45.74015439999999, "adresa": " CIPRIAN PORUMBESCU nr.22", "data": "08.12.2006", "descriere": "Lucrari de tip h) - C-tii cu caracter provizoriu - Amplasare panou directional pe stalp RATT pe durata contractului de inchiriere nr. 18/03.02.2006 si conf. act aditional nr. 1 din 17.10.2006 (23.12.2006 - 22.12.2007). Zona C.", "lng": 21.2217238}, {"beneficiar": "S.C. EUROMEDIA GROUP S.A.", "lat": 45.7330437, "adresa": " LIVIU REBREANU nr.19", "data": "08.12.2006", "descriere": "Lucrari de tip h) - C-tii cu caracter provizoriu - Amplasare panou directional pe stalp RATT pe durata contractului de inchiriere nr. 18/03.02.2006 si conf. act aditional nr. 1 din 17.10.2006 (23.12.2006 - 22.12.2007). Zona C.", "lng": 21.2190179}, {"beneficiar": "S.C. EUROMEDIA GROUP S.A.", "lat": 45.7378135, "adresa": " CIPRIAN PORUMBESCU nr.96", "data": "08.12.2006", "descriere": "Lucrari de tip h) - C-tii cu caracter provizoriu - Amplasare panou directional pe stalp RATT pe durata contractului de inchiriere nr. 18/03.02.2006 si conf. act aditional nr. 1 din 17.10.2006 (23.12.2006 - 22.12.2007). Zona C.", "lng": 21.2126829}, {"beneficiar": "S.C.  EUROMEDIA GROUP S.A.", "lat": 45.7383451, "adresa": " CIPRIAN PORUMBESCU nr.76", "data": "08.12.2006", "descriere": "Lucrari de tip h) - C-tii cu caracter provizoriu - Amplasare panou directional pe stalp RATT pe durata contractului de inchiriere nr. 18/03.02.2006 si conf. act aditional nr. 1 din 17.10.2006 (23.12.2006 - 22.12.2007). Zona C.", "lng": 21.2149004}, {"beneficiar": "LUPESCU    MARIA  EDITH", "lat": 45.757545, "adresa": " DR.  IOAN  BONTILA nr.29", "data": "05.12.2006", "descriere": "Lucrari de tip c) - Retele edilitare - gaz - Bransament gaze naturale prin pozare subterana - Zona C", "lng": 21.259579}, {"beneficiar": "GHERMAN  PAVEL  SI  SOTIA GHERMAN STANA", "lat": 45.7550079, "adresa": " VERONICA MICLE nr.11", "data": "05.12.2006", "descriere": "Lucrari de tip c) - Retele edilitare - gaze .Bransament gaze naturale prin pozare subterana. Zona C.", "lng": 21.198586}, {"beneficiar": "HERMECZ  BARBARA SI SZABO  ROZALIA", "lat": 45.724799, "adresa": " EURIPIDE nr.17", "data": "05.12.2006", "descriere": "Lucrari de tip c) - Retele edilitare - apa - Bransament apa - Zona C", "lng": 21.263482}, {"beneficiar": "COJOCARU IONEL SI COJOCARU ANA", "lat": 45.750713, "adresa": " CALISTRAT HOGAS nr.5 ap.1", "data": "12.12.2006", "descriere": "Lucrari de tip c) - Retele edilitare - apa. Bransament apa. Zona D.", "lng": 21.284014}, {"beneficiar": "SABOU AURICA", "lat": 45.750713, "adresa": " CALISTRAT HOGAS nr.5 ap.2", "data": "12.12.2006", "descriere": "Lucrari de tip c) - Retele edilitare apa. Bransament apa. Zona D.", "lng": 21.284014}, {"beneficiar": "S.C. EUROMEDIA GROUP S.A.", "lat": 45.744193, "adresa": " BV. MIHAI VITEAZUL nr.34", "data": "08.12.2006", "descriere": "Lucrari de tip h) - C-tii cu caracter provizoriu - Amplasare panou directional pe stalp RATT pe durata contractului de inchiriere nr. 18/03.02.2006 si conf. act aditional nr. 1 din 17.10.2006 (23.12.2006 - 22.12.2007). Zona C.", "lng": 21.225589}, {"beneficiar": "S.C. EUROMEDIA GROUP S.A.", "lat": 45.7394627, "adresa": " CIPRIAN PORUMBESCU nr.36-38", "data": "08.12.2006", "descriere": "Lucrari de tip h) - C-tii cu caracter provizoriu - Amplasare panou directional pe stalp RATT pe durata contractului de inchiriere nr. 18/03.02.2006 si conf. act aditional nr. 1 din 17.10.2006 (23.12.2006 - 22.12.2007). Zona C.", "lng": 21.2196324}, {"beneficiar": "COVALENCO MARIA cu sotul COVALENCO CONSTANTIN VIANU", "lat": 45.756742, "adresa": " BARZAVA nr.7/A", "data": "08.12.2006", "descriere": "Lucrari de tip c) - Retele edilitare - canal - Racord canal - Zona D", "lng": 21.1980457}, {"beneficiar": "ASOCIATIA DE PROPRIETARI", "lat": 45.7767389, "adresa": " CUGIR nr.2 bl.3 sc.A+B", "data": "05.12.2006", "descriere": "Lucrari de tip a) - Constructii pt. locuinte - Construire acoperis tip sarpanta cu invelitoare din tigla rosie la bloc S+P+4E existent. Zona D.", "lng": 21.2192693}, {"beneficiar": "ASOCIAo?=IA DE PROPRIETAR", "lat": 45.7488996, "adresa": " DALIEI nr.21B", "data": "05.12.2006", "descriere": "Lucrari de tip h) - C-tii cu caracter provizoriu - Amplasare mash pe calcanul cladirii pe durata contractului de inchiriere 111/04.04.2005 (din 04.04.2005- 03.04.2008). Zona D.", "lng": 21.24375}, {"beneficiar": "HODI IOAN SI SPTOA HODI MARIA", "lat": 45.7614639, "adresa": " MACILOR nr.57 ap.1", "data": "05.12.2006", "descriere": "Lucrari de tip a) - Locuinta. Construire balcon la ap. nr. 1 conf. HCL 132/2004 pt. imbunatatirea confortului pe fatada posterioara. Zona D.", "lng": 21.204198}, {"beneficiar": "PUIU MARIUS si sotia PUIU NICOLETA ELENA", "lat": 45.762125, "adresa": " HORIA nr.88/1", "data": "08.12.2006", "descriere": "Lucrari de tip c) - Retele edilitare - canal - Racord canal - Zona B", "lng": 21.209993}, {"beneficiar": "NEMEo?= IOAN si sotia NEMEo?= TEREZIA (nasc. VLADUT)", "lat": 45.760734, "adresa": " AGRICULTORILOR nr.43", "data": "08.12.2006", "descriere": "Lucrari de tip c) - Retele edilitare - canal - Racord canal (din str. Calimanesti) - Zona C", "lng": 21.193966}, {"beneficiar": "HARENCIAC ANDREI si HARENCIAC CARMEN DELIA", "lat": 45.7678719, "adresa": " BASARABIA nr.18", "data": "05.12.2006", "descriere": "Lucrari de tip c) - Retele edilitare - canal - Racord canal - Zona D", "lng": 21.204751}, {"beneficiar": "S.C .DIVA  S.R.L .", "lat": 45.726387, "adresa": " CALEA BUZIASULUI nr.122", "data": "04.12.2006", "descriere": "Lucrari de tip c) - Retele edilitare - gaz - Bransament gaze naturale prin pozare subterana - Zona C", "lng": 21.279451}, {"beneficiar": "RAD SIMONA - FLORENTINA", "lat": 45.730066, "adresa": " MAGURA nr.8 bl.45 sc.B ap.1", "data": "04.12.2006", "descriere": "Lucrari de tip a) - Constructii pt. servicii - Modificari interioare si exterioare (creare acces direct din exterior), amplasare firma pe fatada. Schimbare destinatie din locuinta in spatiu pt. servicii (coafura). Zona D.", "lng": 21.232861}, {"beneficiar": "S.C. ASIROM S.A. TIMIo?=OARA", "lat": 45.7651271, "adresa": " PIATA CONSILIUL EUROPEI nr.1", "data": "30.11.2006", "descriere": "Lucrari de tip h) - Constructii cu caracter provizoriu - Amplasare 2 mesh-uri pe fatada, pe durata contractelor de inchiriere nr. 92/2005 (din 22.02.2005 pana in 21.02.2007) si nr. 126/2006 (din 16/06.2006 pana in 15.06.2007). Zona A.", "lng": 21.2247141}, {"beneficiar": "RADICI VASILE SI RADICI VALERIA", "lat": 45.757349, "adresa": " CAL.BOGDANESTILOR nr.135 a", "data": "08.12.2006", "descriere": "Lucrari de tip a) - Constr. locuinte. Construire casa P+E cu garaj si imprejmuire. Zona C. St = 450 mp, Sc = 125 mp, Sd = 240 mp.", "lng": 21.195034}, {"beneficiar": "SCHEIN ELENA SI SCHEIN DAVID", "lat": 45.75091099999999, "adresa": " MARTIR CORNEL POPESCU nr.38", "data": "08.12.2006", "descriere": "Lucrari de tip a) - Construire anexa gospodareasca si garaj auto regim parter. Zona D. Sc = 65,7 mp.St = 385 mp", "lng": 21.283254}, {"beneficiar": "MILUTINOVICI EUGEN, MILUTINOVICI VALENTINA -EMILIA", "lat": 45.7357127, "adresa": " LEV TOLSTOI nr.2/A", "data": "08.12.2006", "descriere": "Lucrari de tip c) - Retele edilitare - apa  - Bransament apa - Zona D", "lng": 21.2177661}, {"beneficiar": "DUICU RODICA", "lat": 45.736796, "adresa": " TRANSILVANIA nr.9 bl.E25 sc.A ap.4", "data": "30.11.2006", "descriere": "Lucrari de tip a si h - Constr. pt. servicii. Schimbare de destinatie din locuinta in spatiu pentru servicii (birou), realizare acces direct din exterior.Ampalsare firma luminoasa pe fatada cladirii.Zona D.", "lng": 21.203612}, {"beneficiar": "BOo?= SABIN", "lat": 45.726062, "adresa": " E. ZOLA nr.3", "data": "08.12.2006", "descriere": "Lucrari de tip c) - Retele edilitare - canal. Racord canal. Zona D.", "lng": 21.218408}, {"beneficiar": "BOTI  PETRU  SI BOTI IULIANA ; GABOR ISTVAN   SI  GABOR SUZANA", "lat": 45.7269843, "adresa": " LETEA nr.82", "data": "08.12.2006", "descriere": "Lucrari de tip a) - Instalatii interioare. Instalatii interioare de canalizare. Zona D.", "lng": 21.2159893}, {"beneficiar": "S.C. ALINE DISTRIBUTION GRUP S.R.L.", "lat": 45.726558, "adresa": " CALEA BUZIASULUI nr.116", "data": "08.12.2006", "descriere": "Lucrari de tip c) - Retele edilitare (apa) - Bransament apa. Zona C.", "lng": 21.278597}, {"beneficiar": "LUPU  GHEORGHE  DORIN  CU SOTIA LUPU DOINA", "lat": 45.729749, "adresa": " MURES nr.160/11", "data": "08.12.2006", "descriere": "Lucrari de tip c) - Retele edilitare - alimentare cu energie electrica  prin pozare subterana (organizare de santier in solutie definitiva). Zona C.", "lng": 21.2125999}, {"beneficiar": "CURTIANU MARIUS CRISTIAN si sotia CURTIANU CORINA RODICA", "lat": 45.78451099999999, "adresa": " AURORA nr.5", "data": "30.11.2006", "descriere": "Lucrari de tip a si d - Constructii pt. locuinte - Casa P+1E+M, reparatii imprejmuire. Steren = 545 mp, Sc = 129,06 mp, Sd = 237,49 mp", "lng": 21.226343}, {"beneficiar": "MATEESCU RAZVAN COSMIN", "lat": 45.7512733, "adresa": " DALIEI nr.2 bl.D4/A sc.A et.P ap.1", "data": "30.11.2006", "descriere": "Lucrari de tip a) - Constructie pt. comert - Amenajare spatiu comercial cu acces direct din exterior si amplasare firma pe fatada. Zona B.", "lng": 21.2419523}, {"beneficiar": "ULITA FLAVIUS-MIRCEA", "lat": 45.726157, "adresa": " EDGAR QUINET nr.19", "data": "08.12.2006", "descriere": "Lucrari de tip c) - Retele edilitare -  Bransament apa si racord canal. Zona C.", "lng": 21.244363}, {"beneficiar": "GIURGIU IONEL  si sotia  AURICA", "lat": 45.757729, "adresa": " CALEA BOGDANESTILOR nr.125", "data": "08.12.2006", "descriere": "Lucrari de tip c) - Retele edilitare - canal - Racord canal - Zona C", "lng": 21.1964149}, {"beneficiar": "GHINESCU ALBERT si sotia GHINESCU  IOANA", "lat": 45.756778, "adresa": " VADUL CRISULUI nr.12", "data": "08.12.2006", "descriere": "Lucrari de tip c) - Retele edilitare - apa, canal - Bransament apa si racord canal - Zona C", "lng": 21.189584}, {"beneficiar": "S.C. TEHNODENT POKA S.R.L.", "lat": 45.7464284, "adresa": " CRISUL nr.2", "data": "30.11.2006", "descriere": "Lucrari de tip b) - Constructie pentru servicii. Construire sediu firma in regim parter. Zona B. St = 503 mp, Sc = 132,8 mp, Sd = 132,84 mp", "lng": 21.2471125}, {"beneficiar": "UIVAROo?=AN GHEORGHE si sotia nascuta ALBU PERSIDA", "lat": 45.7339231, "adresa": " CORNELIU BABA nr.27", "data": "29.11.2006", "descriere": "Lucrari de tip c) - Retele edilitare - gaz- Bransament gaze naturale prin pozare subterana - Zona C", "lng": 21.1874152}, {"beneficiar": "KISS  IOAN CU SOTIA KISS ELISABETA", "lat": 45.725297, "adresa": " EURIPIDE nr.11", "data": "08.12.2006", "descriere": "Lucrari de tip c) - Retele edilitare (gaz) - Bransament gaze naturale prin pozare subterana. Zona C.", "lng": 21.2637329}, {"beneficiar": "ASOCIATIA CASA LUMINII", "lat": 45.73700400000001, "adresa": " BANATUL  nr.5", "data": "08.12.2006", "descriere": "Lucrari de tip c) - Retele edilitare - gaz- Bransament gaze naturale prin pozare subterana - Zona C", "lng": 21.197899}, {"beneficiar": "CAMPEAN  CLEMENT", "lat": 45.751638, "adresa": " TOPARCEANU nr.3", "data": "08.12.2006", "descriere": "Lucrari de tip c) - Retele edilitare - apa. Bransament apa. Zona D.", "lng": 21.284862}, {"beneficiar": "S.C. FRIEND'S ARENA S.R.L.", "lat": 45.728955, "adresa": " LACULUI nr.1", "data": "29.11.2006", "descriere": "Lucrari de tip c) - Retele edilitare - gaz - Bransament gaze naturale prin pozare subterana - Zona D", "lng": 21.201175}, {"beneficiar": "ONU GEORGETA si sotul ONU VASILICA", "lat": 45.7479258, "adresa": " T. VLADIMIRESCU nr.21 ap.11", "data": "29.11.2006", "descriere": "Lucrari de tip a) - Instalatii interioare - Separare consum apa - Zona C", "lng": 21.2122044}, {"beneficiar": "TODOROV JIVA si TODOROV  MARICA", "lat": 45.7297912, "adresa": " LAMAITEI nr.6", "data": "29.11.2006", "descriere": "Lucrari de tip c) - Retele edilitare - gaz - Bransament gaze naturale prin pozare subterana - Zona C", "lng": 21.184854}, {"beneficiar": "SIRBU IOAN NICOLAE, SIRBU MARIA", "lat": 45.71952, "adresa": " STEAUA nr.54", "data": "07.12.2006", "descriere": "Lucrari de tip a) - Locuinta . Demolare casa parter. Zona C. Sc = 36,14 mp.", "lng": 21.20499}, {"beneficiar": "o?=ELARIU MIHAI SI o?=ELARIU LEOCADIA", "lat": 45.7481651, "adresa": " ADY ENDRE nr.16", "data": "07.12.2006", "descriere": "Lucrari de tip b) - Constructii pentru prestari servicii. Amenajare croitorie, realizare acces din exterior, amplasare firma pe fatada, schimbare destinatie spatiu din locuinta in atelier croitorie. Zona B.", "lng": 21.2152855}, {"beneficiar": "S.C. TANIX IMPEX  S.R.L.", "lat": 45.763607, "adresa": " SIMION BARNUTIU nr.21", "data": "29.11.2006", "descriere": "Lucrari de tip h) - C-tii cu caracter provizoriu. Amplasare panou pe terasa imobilului pe durata contractului de inchiriere nr. 84/16.03.2006 (pina in 15.03.2007).Zona B.", "lng": 21.251664}, {"beneficiar": "ASOCIAo?=IA DE PROPRIETARI \"CALEA MARTIRILOR 60\"", "lat": 45.7347115, "adresa": " CALEA MARTIRILOR nr.60", "data": "29.11.2006", "descriere": "Lucrari de tip h) - Constructie cu caracter privizoriu - Amplasare mesh pe calcanul cladirii pe durata contractului de inchiriere nr. 129/2005 (11.11.2005 - 11.11.2007) - SC Communications Media SR.L.", "lng": 21.2374083}, {"beneficiar": "ASOCIATIA  DE PROPRIETARI", "lat": 45.732164, "adresa": " URANUS nr.27 bl.87", "data": "29.11.2006", "descriere": "Lucrari de tip a) - C-tii pt. locuinte -  Construire acoperis tip sarpanta din lemn cu invelitoare din tigla la bloc S+P+4E existent. Zona D.", "lng": 21.245466}, {"beneficiar": "S.C. EUROMEDIA GROUP S.A.", "lat": 45.737746, "adresa": " BANATUL nr.2", "data": "07.12.2006", "descriere": "Lucrari de tip h) - C-tii cu caracter provizoriu.Amplasare panou directional pe stalp RATT existent conf. contract inchiriere nr. 18/03.02.2006 si act aditional nr. 1/17.10.2006 (8.12.2006 - 7.12.2007). Zona C.", "lng": 21.201387}, {"beneficiar": "STOICA ION FLORIN SI SOTIA STOICA LOREDANA", "lat": 45.7692139, "adresa": " ALBINELOR nr.34 ap.3", "data": "29.11.2006", "descriere": "Lucrari de tip a) - Locuinta - Construire prin extindere si mansardare casa P existenta rezultand locuinta P+M, intrare in legalitate conf. aert. 25 din L. 50/91 rep.  2006. Zona B. St = 120/298 mp, Sc = 118 mp, Sd = 132 mp", "lng": 21.2445074}, {"beneficiar": "POP  DANIEL cu sotia POP IBOLYA", "lat": 45.7500519, "adresa": " MARTIR NICOLAE LACATUS nr.13", "data": "29.11.2006", "descriere": "Lucrari de tip c) - Retele edilitare - gaz - Bransament gaze naturale prin pozare subterana - Zona D", "lng": 21.2774639}, {"beneficiar": "OANCEA VASILE CU SOTIA OANCEA MARIANA", "lat": 45.727278, "adresa": " EMIL RACOVITA nr.9/A", "data": "29.11.2006", "descriere": "Lucrari de tip a) - Locuinta - Constructie casa familiala in regim P+M, constructie foisor in regim P si imprejmuire teren cu acces auto. Zona  D. Sc = 85,99 mp, Sd = 172 mp, Steren = 380 mp", "lng": 21.260198}, {"beneficiar": "S.C. EUROMEDIA GROUP S.A.", "lat": 45.7387831, "adresa": " I.B. DELEANU nr.13", "data": "07.12.2006", "descriere": "Lucrari de tip h) - C-tii cu caracter provizoriu.Amplasare panou directional pe stalp RATT existent conf. contract inchiriere nr. 18/03.02.2006 si act aditional nr. 1/17.10.2006 (8.12.2006 - 7.12.2007). Zona B.", "lng": 21.2079095}, {"beneficiar": "S.C. EUROMEDIA GROUP S.A.", "lat": 45.745406, "adresa": " BV. I. MANIU nr.53", "data": "07.12.2006", "descriere": "Lucrari de tip h) - C-tii cu caracter provizoriu.Amplasare panou directional pe stalp RATT existent conf. contract inchiriere nr. 18/03.02.2006 si act aditional nr. 1/17.10.2006 (8.12.2006 - 7.12.2007). Zona C.", "lng": 21.205725}, {"beneficiar": "FAUR AUREL", "lat": 45.7620705, "adresa": " DROPIEI (ZONA CIRCUMVALATIUNII II) nr.7 bl.A9 ap.8", "data": "07.12.2006", "descriere": "Lucrari de tip a) - Constructii pt. locuinte - Modificari interioare si exterioare in apart. 8 in vederea imbunatatirii confortului. Zona B.", "lng": 21.2159031}, {"beneficiar": "STo?=NESCU MARIUS; STo?=NESCU ELENA ; STANESCU RADU", "lat": 45.76539469999999, "adresa": " STELELOR nr.4 sc.A ap.4", "data": "29.11.2006", "descriere": "Lucrari de tip a) - Constructii pt. locuinte - Modificari interioare si construire balcon extins la parter la ap. 4 conform HCL 132/2004. Zona D.", "lng": 21.2198273}, {"beneficiar": "S.C. EUROMEDIA GROUP S.A.", "lat": 45.737652, "adresa": " PRAHOVA nr.15-16", "data": "06.12.2006", "descriere": "Lucrari de tip h) - C-tii cu caracter provizoriu.Amplasare panou directional pe stalp RATT existent conf. contract inchiriere nr. 18/03.02.2006 si act aditional nr. 1/17.10.2006 (8.12.2006 - 7.12.2007). Zona C.", "lng": 21.202112}, {"beneficiar": "ASOCIATIA DE LOCATARI", "lat": 45.7750569, "adresa": " Z.CAL. LIPOVEI bl.317", "data": "06.12.2006", "descriere": "Lucrari de tip a) - C-tii pt. locuinte. Construire acoperis tip sarpanta din lemn cu invelitoare de tigla pe terasa bloc St+P+4E.Zona D.", "lng": 21.232954}, {"beneficiar": "BOJOACA JEAN  LUCIAN", "lat": 45.751813, "adresa": " CANALUL BEGA nr.24", "data": "29.11.2006", "descriere": "Lucrari de tip c) - Retele edilitare - apa. Bransament apa. Zona D.", "lng": 21.285918}, {"beneficiar": "STANCU  VIOLETA  nec.", "lat": 45.7663616, "adresa": " ZURICH nr.17", "data": "28.11.2006", "descriere": "Lucrari de tip c) - Retele edilitare - gaz - Bransament gaze naturale prin pozare subterana - Zona D", "lng": 21.2475843}, {"beneficiar": "ASOEGWU DAMIAN-EMEKA", "lat": 45.7347115, "adresa": " CAL.MARTIRILOR nr.60 sc.A ap.17", "data": "06.12.2006", "descriere": "Lucrari de tip a) - Locuinte - Modificari interioare la ap. 17 pt. imbunatatirea confortului. Zona D.", "lng": 21.2374083}, {"beneficiar": "LAZo?=R REMUS-PAUL, LAZo?=R DAMIANA-DANIELA", "lat": 45.742847, "adresa": " C.GROFSOREANU nr.14 sc.A et.P ap.1", "data": "06.12.2006", "descriere": "Lucrari de tip a) - Locuinta - Construire balcon la ap. nr. 1 pentru imbunatatirea confortului conf. HCL 132/2004. Zona B.", "lng": 21.2167434}, {"beneficiar": "ASOCIATIA DE PROPRIETARI", "lat": 45.7612215, "adresa": " BUCURESTI nr.32 bl.A4 sc.A", "data": "28.11.2006", "descriere": "Lucrari de tip a) - Constr. pt. locuinte. Construire acoperis tip sarpanta din lemn cu invelitoare din tigla pe terasa bloc St+P+4E.Zona D. St = 341 mp", "lng": 21.2386346}, {"beneficiar": "S.C. AUTO COCO DESIGN S.R.L.", "lat": 45.723088, "adresa": " ANUL 1848 nr.27", "data": "28.11.2006", "descriere": "Lucrari de tip c) - Retele edilitare - canal - Extindere retea canal si racord canal. Zona C.", "lng": 21.229614}, {"beneficiar": "KARKUS ELENA., KARKUS ELENA JR., NADAo?=DI EVA ROZALIA", "lat": 45.722992, "adresa": " GALILEI nr.6", "data": "06.12.2006", "descriere": "Lucrari de tip a) - Locuinta - Reparatii si extindere locuinta in regim P. Zona C. Sc = 43,25 mp, Sd = 43,25 mp, Steren = 899 mp.", "lng": 21.217208}, {"beneficiar": "S.C.PHARMA BIOS  S.R.L. Alexandria", "lat": 45.7275262, "adresa": " ARIADNA nr.58", "data": "28.11.2006", "descriere": "Lucrari de tip c) - Retele edilitare - apa, canal - Bransament apa si racord canal - Zona C", "lng": 21.2172801}, {"beneficiar": "BRATU   MARIAN  VASILE LUCIAN  SI BRATU LUMINITA", "lat": 45.760801, "adresa": " BISTRITA nr.2", "data": "28.11.2006", "descriere": "Lucrari de tip c) - Retele edilitare - canal. Racord canal. Zona C.", "lng": 21.192754}, {"beneficiar": "BLAGA NICOLAE  LIVIU", "lat": 45.754214, "adresa": " A.BARGLAZAN nr.6", "data": "28.11.2006", "descriere": "Lucrari de tip c) - Retele edilitare - apa, canal. Bransament apa, racord canal. Zona D.", "lng": 21.197737}, {"beneficiar": "S.C. EUROMEDIA GROUP S.A.", "lat": 45.740888, "adresa": " BV.I.MANIU nr.15", "data": "06.12.2006", "descriere": "Lucrari de tip h) - C-tii cu caracter provizoriu.Amplasare panou directional pe stalp RATT existent conf. contract inchiriere nr. 18/03.02.2006 si act aditional nr. 1/17.10.2006 (8.12.2006 - 7.12.2007). Zona C.", "lng": 21.2084}, {"beneficiar": "KECSKES IOAN PETRE SI SOTIA  LUCRETIA", "lat": 45.745921, "adresa": " SALAJ nr.11", "data": "06.12.2006", "descriere": "Lucrari de tip a) - Locuinta - Construire casa familiala in regim de inaltime P+M. Zona D. St = 260 mp, Sc = 90 mp, Sd = 170 mp.", "lng": 21.264827}, {"beneficiar": "S.C. EUROMEDIA GROUP S.A.", "lat": 45.742266, "adresa": " I.MANIU nr.33", "data": "06.12.2006", "descriere": "Lucrari de tip h) - C-tii cu caracter provizoriu.Amplasare panou directional pe stalp RATT existent conf. contract inchiriere nr. 18/03.02.2006 si act aditional nr. 1/17.10.2006 (8.12.2006 - 7.12.2007). Zona B", "lng": 21.20739}, {"beneficiar": "S.C. EUROMEDIA GROUP S.A.", "lat": 45.742574, "adresa": " BV.I.MANIU nr.37A", "data": "06.12.2006", "descriere": "Lucrari de tip h) - C-tii cu caracter provizoriu.Amplasare panou directional pe stalp RATT existent conf. contract inchiriere nr. 18/03.02.2006 si act aditional nr. 1/17.10.2006 (8.12.2006 - 7.12.2007). Zona C", "lng": 21.207169}, {"beneficiar": "IVANCIOV CAROL-MATEI, SALMAN PETRONELA", "lat": 45.7433067, "adresa": " ODOBESCU nr.48", "data": "28.11.2006", "descriere": "Lucrari de tip c) - Retele edilitare - gaz. Bransament gaze naturale prin pozare subterana. Zona C.", "lng": 21.2201747}, {"beneficiar": "JURJ  DEIAN", "lat": 45.762263, "adresa": " MACILOR nr.13/b", "data": "27.11.2006", "descriere": "Lucrari de tip a) - Constructii locuinte. Extindere si mansardare casa parter rezultand P+M. Zona C. St = 244 mp, Sc = 153 mp. Sd = 306 mp", "lng": 21.204146}, {"beneficiar": "CABUTA FLORIN", "lat": 45.761578, "adresa": " ROMUL LADEA nr.13B", "data": "27.11.2006", "descriere": "Lucrari de tip a - Construire casa familiala in regim P+1E cu garaj inchis la parter, imprejmuire cu poarta acces auto si pietonal; racord drum acces auto. Zona C. St = 683 mp, Sc = 170,42 mp, Sd = 410,84 mp.", "lng": 21.268468}, {"beneficiar": "BORDIANU  CLEMENT  SI  SOTIA BORDIANU LUCICA", "lat": 45.764779, "adresa": " RENASTERII nr.15/A", "data": "27.11.2006", "descriere": "Lucrari de tip a) - C-tii pt. locuinte- Supraetajare cladire existenta in regim P+1E rezultand imobil regim P+2E. Zona D. St = 238,50 mp, Sc = 179,85 mp, Sd = 420,22 mp", "lng": 21.255165}, {"beneficiar": "AVRAMOVICI VIOREL-DORU SI AVRAMOVICI MARIANA", "lat": 45.7216391, "adresa": " ETERNITATII nr.12", "data": "27.11.2006", "descriere": "Lucrari de tip c) - Retele edilitare - apa. Bransament apa. Racord canal. Zona C.", "lng": 21.2018718}, {"beneficiar": "S.C. S.G.A. CONSTRUCT S.R.L. TIMISOARA", "lat": 45.758435, "adresa": " VADUL CRISULUI nr.34", "data": "06.12.2006", "descriere": "Lucrari de tip a) - Constructii locuinte. Construire casa in regim P+1E si imprejmuire. Zona C. Sc = 94,00 mp, Sd = 188 mp, St = 590,00 mp", "lng": 21.189188}, {"beneficiar": "ONEA ONORICA", "lat": 45.75106, "adresa": " TOPARCEANU nr.7", "data": "05.12.2006", "descriere": "Lucrari de tip c) - Retele edilitare - Bransament apa. Zona D.", "lng": 21.285188}, {"beneficiar": "SZARVADI IOZSEF si sotia  SZARVADI ANA", "lat": 45.726123, "adresa": " EURIPIDE nr.1", "data": "05.12.2006", "descriere": "Lucrari de tip c) - Retele edilitare - apa - Bransament apa potabila - Zona C", "lng": 21.2641509}, {"beneficiar": "BULIGA  GHEORGHE si sotia BULIGA  EVA   LENUTA", "lat": 45.72425, "adresa": " EURIPIDE nr.18", "data": "05.12.2006", "descriere": "Lucrari de tip c) - Retele edilitare - apa - Bransament apa - Zona C", "lng": 21.263057}, {"beneficiar": "EPISCOPIA ROMANO CATOLICo?=", "lat": 45.75732199999999, "adresa": " PALANCA nr.4", "data": "27.11.2006", "descriere": "Lucrari de tip b) - Modificari exterioare. Reconditionari fatade.Reparatii la acoperis. Zona M.I.", "lng": 21.230502}, {"beneficiar": "ASOCIAo?=IA DE PROPRIETARI", "lat": 45.7286077, "adresa": " CALEA SAGULUI nr.55A", "data": "27.11.2006", "descriere": "Lucrari de tip h) - Constructie cu caracter provizoriu - Amplasare mesh pe calcanul cladirii pe durata contractului de inchiriere (din 06.08.2006 - pana in 16.08.2008).Zona D.", "lng": 21.2064171}, {"beneficiar": "Ro?=DULESCU PETRU SI  STo?=NESCU Lo?=Mo?=Io?=A", "lat": 45.723851, "adresa": " MUNCITORILOR nr.13", "data": "24.11.2006", "descriere": "Lucrari de tip a) - C-tii pt. locuinte.Extindere si mansardare locuinta parter existenta rezultand locuinta in regim P+M. Zona C.Sc = 136 mp, Sd = 210 mp, St = 1079 mp", "lng": 21.231438}, {"beneficiar": "MARTIN  FLORIN", "lat": 45.724489, "adresa": " EURIPIDE nr.16/A", "data": "05.12.2006", "descriere": "Lucrari de tip c) - Retele edilitare - apa - Bransament apa - Zona C", "lng": 21.263179}, {"beneficiar": "FERNENGEL GABRIELLA ENIKO si FERNEGEL VILMOS", "lat": 45.732434, "adresa": " GEORGE GEORGESCU nr.41", "data": "05.12.2006", "descriere": "Lucrari de tip c) - Retele edilitare - gaz - Bransament gaze naturale prin pozare subterana - Zona C", "lng": 21.183322}, {"beneficiar": "S.C. DEGRAN ROM S.A.", "lat": 45.747801, "adresa": " EROILOR DE LA TISA nr.35", "data": "05.12.2006", "descriere": "Lucrari de tip c) - retele edilitare - energie electrica - Alimentare cu energie electrica prin pozare subterana - Zona C", "lng": 21.242602}, {"beneficiar": "ASOCIAo?=IA DE PROPRIETARI", "lat": 45.728919, "adresa": " CALEA SAGULUI nr.55", "data": "27.11.2006", "descriere": "Lucrari de tip h) - Constructie cu caracter provizoriu - Amplasare mesh pe calcanul cladirii pe durata contractului de inchiriere din 07.03.2005 - 07.03.2007. Zona D.", "lng": 21.206528}, {"beneficiar": "SZELLPAL IOSIF SI SOTIA SZELLPAL VIORICA nasc. TURTA", "lat": 45.765089, "adresa": " TIBISCUM nr.6 et.P ap.4", "data": "27.11.2006", "descriere": "Lucrari de tip a) - C-tii pt. locuinte - Construire balcon la ap. 4 conf. HCL 132/2004 in vederea imbunatatirii confortului locuintei. Zona D.", "lng": 21.257184}, {"beneficiar": "DOROIMAN ADRIAN NICOLAE", "lat": 45.765714, "adresa": " PALMIERILOR nr.9", "data": "27.11.2006", "descriere": "Lucrari de tip a) - Desfiintare corp cladire B. Zona C. St = 362 mp", "lng": 21.263082}, {"beneficiar": "CURUTIU  VALENTIN  SI  SOTIA CURUTIU ANCA ELENA", "lat": 45.727383, "adresa": " LEGUMICULTURII nr.8/D", "data": "24.11.2006", "descriere": "Lucrari de tip c) - Retele edilitare - (apa - canal) - Extindere retea si bransament apa; racord canal. Zona C.", "lng": 21.258323}, {"beneficiar": "S.C. ASIGURARE REASIGURARE ARDAF CLUJ NAPOCA", "lat": 45.7599321, "adresa": " BV.TAKE IONESCU nr.46C", "data": "24.11.2006", "descriere": "Lucrari de tip c) - Retele edilitare - Bransament apa si racord canal. Zona B.", "lng": 21.240886}, {"beneficiar": "S.C. TIMLEMET TIMISOARA S.A.", "lat": 45.763621, "adresa": " E.BAADER nr.11/a", "data": "05.12.2006", "descriere": "Lucrari de tip a) - Constr. pt. industrie. Demolare constructii existente. Zona B. St = 29597 mp", "lng": 21.242197}, {"beneficiar": "S.C. CENTRUMAG VICTORIA S.R.L.", "lat": 45.753087, "adresa": " P-TA VICTORIEI nr.1B", "data": "27.11.2006", "descriere": "Lucrari de tip b) - C-tii servicii - Amenajari interioare, amenajare fatada si lucrari de tip h) - C-tii cu caracter provizoriu - Amplasare firma luminoasa pe fatada cladirii pe durata contractului de inchiriere. Zona A.", "lng": 21.225987}, {"beneficiar": "CRACIUN VASILE", "lat": 45.761399, "adresa": " PELINULUI nr.15", "data": "27.11.2006", "descriere": "Lucrari de tip a) - Constructii de locuinte. Extindere P+M la casa P existenta. Zona C. SC = 65 mp, Sd = 130 mp, St = 430 mp", "lng": 21.1846325}, {"beneficiar": "ASOCIATIA DE PROPRIETARI", "lat": 45.7490669, "adresa": " DALIEI nr.8", "data": "27.11.2006", "descriere": "Lucrari de tip h) - C-tii cu caracter provizoriu.Amplasare mash pe calcanul cladirii pe durata contractului de inchiriere 108/04.05.2005  (din 04.05.2005 - 03.05.2007). Zona D.", "lng": 21.2431814}, {"beneficiar": "NODITI GHEORGHE SI NODITI MIHAELA MARIANA", "lat": 45.7613, "adresa": " ZIMNICEA nr.22", "data": "27.11.2006", "descriere": "Lucrari de tip a) - Locuinta. Extindere si mansardare cladire Dp+P rezultand regim Dp+P+M. St = 995 mp, Sc = 184,40 mp, Sd = 336 mp", "lng": 21.269153}, {"beneficiar": "OLARIU ZAHARIE - necasat.", "lat": 44.428598, "adresa": " BUCURESTI nr.18-20 et.I ap.7", "data": "27.11.2006", "descriere": "Lucrari de tip a) - C-tii pt. locuinte - Modificari interioare la ap. 7 in vederea imbunatatirii confortului. Zona B.", "lng": 26.057286}, {"beneficiar": "HICICA MARCEL  RADISLAV SI HICICA RODICA CRISTINA", "lat": 45.75098699999999, "adresa": " CALISTRAT HOGAS nr.14", "data": "24.11.2006", "descriere": "Lucrari de tip c) - Retele edilitare - apa. Bransament apa. Zona D.", "lng": 21.285381}, {"beneficiar": "CRETU  MITICA SI CRETU NUTA", "lat": 45.751045, "adresa": " CALISTRAT HOGAS nr.17", "data": "17.11.2006", "descriere": "Lucrari de tip c) - Retele edilitare - apa. Bransament apa. Zona D.", "lng": 21.285235}, {"beneficiar": "BOHONI MIRCEA SI BOHONI DANIELA MARIANA", "lat": 45.750601, "adresa": " CALISTRAT HOGAS nr.1", "data": "17.11.2006", "descriere": "Lucrari de tip c) - Retele edilitare - apa. Bransament apa. Zona D.", "lng": 21.2836}, {"beneficiar": "GERGULOV AURORA LENUTA", "lat": 45.751038, "adresa": " CALISTRAT HOGAS nr.18", "data": "17.11.2006", "descriere": "Lucrari de tip c) - Retele edilitare - apa. Bransament apa. Zona D.", "lng": 21.285578}, {"beneficiar": "OLARIU  NICOLAE SI OLARIU ELISABETA", "lat": 45.750769, "adresa": " CALISTRAT HOGAS nr.7", "data": "17.11.2006", "descriere": "Lucrari de tip c) - Retele edilitare - apa. Bransament apa. Zona D.", "lng": 21.28422}, {"beneficiar": "HARNUT  FLORIAN", "lat": 45.75051699999999, "adresa": " CALISTRAT HOGAS nr.2/b", "data": "17.11.2006", "descriere": "Lucrari de tip c) - Retele edilitare - apa. Bransament apa. Zona D.", "lng": 21.283646}, {"beneficiar": "WENDEL AMALIA", "lat": 45.7288454, "adresa": " MILOIA nr.11", "data": "27.11.2006", "descriere": "Lucrari de tip a - Locuinta - Extindere garaj in regim P. Sc = 22,69 mp. Zona C.", "lng": 21.2218381}, {"beneficiar": "S.C. OPTICA S.A.", "lat": 45.778056, "adresa": " ION IONESCU DE LA BRAD nr.15", "data": "27.11.2006", "descriere": "Lucrari de tip a) - C-tii pt. industrie. Inchidere depozit - hala structura metalica cu pod rulant. Zona D.", "lng": 21.242186}, {"beneficiar": "GRUESCU EMILIA", "lat": 45.77134, "adresa": " CAL. LIPOVEI (SEVER BOCU) nr.14 et.P ap.4", "data": "23.11.2006", "descriere": "Lucrari de tip a) - Locuinta. Modificari interioare la ap. 4 pt. imbunatatirea confortului. Zona D.", "lng": 21.231103}, {"beneficiar": "ASOCIAo?=IA DE PROPRIETARI", "lat": 45.7345031, "adresa": " ASTRILOR nr.9", "data": "23.11.2006", "descriere": "Lucrari de tip a) - Amenajari exterioare. Construire acoperis tip sarpanta cu invelitoare din tigla la bloc de locuinte S+P+4E existent. Zona D.", "lng": 21.2510453}, {"beneficiar": "ARDELEANU EMIL ADRIAN si LUMINITA DANIELA", "lat": 45.75476099999999, "adresa": " V.CARLOVA nr.23", "data": "23.11.2006", "descriere": "Desfiintare casa parter. Zona C.", "lng": 21.261482}, {"beneficiar": "S.C. BEGA TURISM S.A.", "lat": 45.759786, "adresa": " INTRAREA DOINEI nr.19", "data": "23.11.2006", "descriere": "Lucrari de tip b) - Constructii cu caracter provizoriu - Amplasare firma pe fatada pe durata contractului 857/2006 (din 02.06.2006 pna ain 01.06.2016). Zona C.", "lng": 21.228388}, {"beneficiar": "HARNUT DANIEL, HARNUT VOICHITA, STOICA VOICHITA, HARNUT GEORGETA", "lat": 45.750881, "adresa": " CALISTRAT HOGAS nr.11", "data": "17.11.2006", "descriere": "Lucrari de tip c) - Retele edilitare - apa. Bransament apa. Zona D.", "lng": 21.284633}, {"beneficiar": "ONEA COSMIN IOAN SI ONEA LUMINITA ELENA", "lat": 45.751638, "adresa": " TOPARCEANU nr.3", "data": "17.11.2006", "descriere": "Lucrari de tip c) - Retele edilitare - apa. Bransament apa. Zona D.", "lng": 21.284862}, {"beneficiar": "CAMPEAN VASILE", "lat": 45.751349, "adresa": " TOPARCEANU nr.5", "data": "17.11.2006", "descriere": "Lucrari de tip c) - Retele edilitare - apa. Bransament apa. Zona D.", "lng": 21.285025}, {"beneficiar": "S.C. CIORAPI CIFA S.A.", "lat": 45.7639799, "adresa": " KOGALNICEANU nr.11", "data": "17.11.2006", "descriere": "Lucrari de tip a) - Demolare \" Statie releu radiocomunicatii  ptr. telefonie mobila - M 057 TO Ciorapi\" ORANGE ROMANIA S.A. Zona B.", "lng": 21.2467669}, {"beneficiar": "ASOCIAo?=IA  LOCATARILOR", "lat": 45.769849, "adresa": " BUCOVINEI nr.24 bl.65", "data": "23.11.2006", "descriere": "Lucrari de tip a) - Constructii pt. locuinte - Construire acoperis tip sarpanta  cu invelitoare din tigla la bloc de locuinte S+P+4E existent. Zona D.", "lng": 21.21244}, {"beneficiar": "UNGURUSAN SILVIA", "lat": 45.748081, "adresa": " PARCULUI nr.20-22", "data": "23.11.2006", "descriere": "Lucrari de tip a) - Locuinta - Reparatii.Refacere sarpanta si fatade la casa existenta. Zona D. St = 475 mp, Sc = Sd = 147,25 mp.", "lng": 21.286952}, {"beneficiar": "ASOCIAo?=IA DE PROPRIETARI", "lat": 45.7381213, "adresa": " BV.L.REBREANU nr.134A bl.16", "data": "23.11.2006", "descriere": "Lucrari de tip a) - Constr. locuinte - Construire acoperis tip sarpanta cu invelitoare din tigla. Zona C.", "lng": 21.2370602}, {"beneficiar": "SANDRU PETRU LIVIU", "lat": 45.7379533, "adresa": " VASILE LUPU nr.27", "data": "23.11.2006", "descriere": "Lucrari de tip a) - Constructii pt. locuinte. Extindere acoperis peste o camera.Zona C. St = 664 mp.", "lng": 21.1971817}, {"beneficiar": "POP CORNEL VASILE, POP SAVETA", "lat": 45.750122, "adresa": " CASIAN MUNTEANU nr.34", "data": "17.11.2006", "descriere": "Conform sentintei civile nr. 502/CA din 29.09.2006.Intrare in legalizate in conformitate cu art. 25 din Legea 50/91 rep. pentru demolare partiala si reconstructie casa in regim P+M, mansardare corp interior rezultand P+M.", "lng": 21.1861989}, {"beneficiar": "S.C. SHOE  POINT  S.R.L", "lat": 45.751577, "adresa": " P-TA VICTORIEI nr.8", "data": "23.11.2006", "descriere": "Lucrari de tip h) - Constructii cu caracter provizoriu - Ampalsare firma pe fatada pe durata contractului de inchiriere de la 20.02.2006 pina la 28.02.2009. Zona A.", "lng": 21.224079}, {"beneficiar": "GAITA ION  SI GAITA FLORICA FLORINA", "lat": 45.728955, "adresa": " LACULUI nr.1E", "data": "16.11.2006", "descriere": "Lucrari de tip c) - Retele edilitare - gaz - Bransament gaze naturale prin pozare subterana - Zona C", "lng": 21.201175}, {"beneficiar": "BOLDEA  IOAN , BOLDEA  CARMEN  MICSUNICA", "lat": 45.720214, "adresa": " SECERII nr.9", "data": "23.11.2006", "descriere": "Lucrari de tip c) - Retele edilitare - gaz.Bransament gaze naturale prin pozare subterama. Zona C.", "lng": 21.204583}, {"beneficiar": "ILIE OVIDIU-SEBASTIAN", "lat": 45.7392854, "adresa": " C.PORUMBESCU nr.44A", "data": "23.11.2006", "descriere": "Lucrari de tip c) - Retele edilitare - apa, canal. Bransament apa si racord canal. Zona B.", "lng": 21.2188723}, {"beneficiar": "KOVACS  LUDOVIC  SI  KOVACS MARIA", "lat": 45.7268824, "adresa": " BRANCOVEANU nr.157", "data": "23.11.2006", "descriere": "Lucrari de tip c) - Retele edilitare - apa- canal. Bransament apa, racord canal. Zona C.", "lng": 21.2185791}, {"beneficiar": "TODORUT  GHEORGHE SI TODORUT MARIANA", "lat": 45.7509609, "adresa": " CALISTRAT HOGAS nr.12", "data": "23.11.2006", "descriere": "Lucrari de tip c) - Retele edilitare - apa. Bransament apa. Zona D.", "lng": 21.285281}, {"beneficiar": "S.C.  UNITA  TURISM HOLDING  S.A. TIMISOARA", "lat": 45.7518298, "adresa": " MEHADIA nr.3 bl.18", "data": "16.11.2006", "descriere": "Lucrari de tip c) - Retele edilitare - apa - Bransament apa - Zona B", "lng": 21.2436386}, {"beneficiar": "CARDOS  HORIA si sotia CARDOS DENISA", "lat": 45.77079800000001, "adresa": " ION ROATA nr.29", "data": "16.11.2006", "descriere": "Lucrari de tip c) - Retele edilitare - gaz - Bransament gaze naturale prin pozare subterana - Zona D", "lng": 21.239329}, {"beneficiar": "RADULESCU  VICTOR SI RADULESCU  EVA", "lat": 45.7332589, "adresa": " TRAIAN VUIA nr.15", "data": "23.11.2006", "descriere": "Lucrari de tip c) - Retele edilitare - gaz. Bransament gaze naturale prin pozare subterana. Zona C.", "lng": 21.224389}, {"beneficiar": "GENNARI  EROS ; CONSTANTIN MARINELA", "lat": 45.750601, "adresa": " CALISTRAT HOGAS nr.1/a", "data": "23.11.2006", "descriere": "Lucrari de tip c) - Retele edilitare - apa. Bransament apa. Zona D.", "lng": 21.2836}, {"beneficiar": "S.C. BEGA TRANS  AUTO  S.A", "lat": 45.783721, "adresa": " ARMONIEI nr.25", "data": "23.11.2006", "descriere": "Lucrari de tip c) - Retele edilitare - canal - Racord canal - Zona D", "lng": 21.223793}, {"beneficiar": "PASAT RODICA", "lat": 45.7399324, "adresa": " COZIA nr.63", "data": "16.11.2006", "descriere": "Lucrari de tip c) - Retele edilitare - gaz - Bransament gaze naturale prin pozare subterana - Zona B", "lng": 21.2346767}, {"beneficiar": "NISTORESCU ANCA", "lat": 45.754545, "adresa": " SINAIA nr.8", "data": "16.11.2006", "descriere": "Lucrari de tip a) - Constructii pt. locuinte.Extindere in regim parter si mansardare casa parter rezultand casa Sp+P+Mpartial. Zona B. Sc = 64,37 mp,Sd = 172,03 mp, St = 561 mp", "lng": 21.212934}, {"beneficiar": "MICo?=A ANTIo?=A, MICo?=A DAN IOAN. MICSA HORIA VASILE", "lat": 45.74344929999999, "adresa": " GHE. DOJA nr.40", "data": "16.11.2006", "descriere": "Lucrari de tip a) - Constr. pt. locuinte - Extindere si mansardare locuinta S+P rezultand S+P+M.Zona B. St = 887 mp, Sc = 221 mp, Sd = 577 mp", "lng": 21.2234037}, {"beneficiar": "ASOCIAo?=IA DE PROPRIETARI", "lat": 45.7337459, "adresa": " BV. DAMBOVITA nr.32A", "data": "16.11.2006", "descriere": "Lucrari de tip a) - Constructii locuinte. Construire acoperis tip sarpanta cu invelitoare tigla la bloc existent P+4E. Zona D. ", "lng": 21.203116}, {"beneficiar": "BALU  CALIN DORU si BALU CALIN FANICA", "lat": 45.755899, "adresa": " FLACARA nr.5", "data": "23.11.2006", "descriere": "Lucrari de tip c) - Retele edilitare - gaz - Bransament gaze naturale prin pozare subterana - Zona D", "lng": 21.277092}, {"beneficiar": "MILOS  MIHAI, MILOS AGNES si ZOB VASILE IONEL", "lat": 45.7342951, "adresa": " CORNELIU BABA nr.28", "data": "23.11.2006", "descriere": "Lucrari de tip c) - Retele edilitare - canal - Racord canal - Zona C", "lng": 21.1871225}, {"beneficiar": "ASOCIAo?=IA DE PROPRIETARI \"SIRIUS 35\" prin BESOIU RADU", "lat": 45.734682, "adresa": " SIRIUS nr.35 bl.8 sc.S", "data": "16.11.2006", "descriere": "Lucrari de tip a) - Locuinta - Constructie acoperis tip sarpanta cu invelitoare din tigla la bloc existent in regim P+4E.Zona C.", "lng": 21.252662}, {"beneficiar": "AUTORITATEA DE So?=No?=TATE PUBLICo?= TIMIo?=", "lat": 45.744696, "adresa": " VICTOR BABES nr.18", "data": "16.11.2006", "descriere": "Lucrari de tip c) - Retele edilitare - energie electrica - Extindere retea si bransament energie electrica prin pozare subterana (alimentare cu energie electrica) - Zona B", "lng": 21.2320629}, {"beneficiar": "BISTRICEANU MIRCEA cu sotia  BISTRICEANU SANDA", "lat": 45.7276434, "adresa": " ARISTIDE BRIAND nr.3", "data": "23.11.2006", "descriere": "Lucrari de tip c) - Retele edilitare - energie electrica - Alimentare cu energie electrica prin pozare subterana - Zona C", "lng": 21.2509108}, {"beneficiar": "DRAGUTA RODICA", "lat": 45.7614779, "adresa": " MOISE DOBOSAN nr.14", "data": "23.11.2006", "descriere": "Lucrari de tip c) - Retele edilitare - gaz - Bransament gaze naturale prin pozare subterana -Zona B", "lng": 21.20177}, {"beneficiar": "DORNER BELA ANTONIU", "lat": 45.741393, "adresa": " CRIZANTEMELOR nr.31", "data": "16.11.2006", "descriere": "Lucrari de tip a) - Instalatii interioare - apa - Separare consum apa - Zona C", "lng": 21.201594}, {"beneficiar": "SABO  LIVIA", "lat": 45.762079, "adresa": " BRATES nr.24", "data": "16.11.2006", "descriere": "Lucrari de tip a) - Instalatii interioare - apa - Separare consum apa - Zona D", "lng": 21.287184}, {"beneficiar": "S.C. VENEZIA REZIDENCE  S.R.L.", "lat": 45.7408137, "adresa": " COZIA nr.86-88", "data": "16.11.2006", "descriere": "Lucrari de tip c) - Retele edilitare - gaz - Bransament gaze naturale prin pozare subterana - Zona B", "lng": 21.2368492}, {"beneficiar": "ASOCIAo?=IA DE PROPRIETARI", "lat": 45.734589, "adresa": " INTRAREA APELOR nr.1", "data": "16.11.2006", "descriere": "Lucrari de tip a) - Locuinte - Construire acoperis tip sarpanta cu invelitoare din tigla la bloc P+4E.Zona D.", "lng": 21.232119}, {"beneficiar": "UNIVERSITATEA DE VEST DIN TIMIo?=OARA", "lat": 45.747774, "adresa": " BV. V.PARVAN nr.4", "data": "23.11.2006", "descriere": "Lucrari de tip a) - Amplasare statie fixa telefoane in sistem GSM S.C. VODAFONE ROMANIA S.A. Zona D.", "lng": 21.230122}, {"beneficiar": "ASOCIAo?=IA DE PROPRIETARI", "lat": 45.735425, "adresa": " BRAN nr.1-3", "data": "22.11.2006", "descriere": "Lucrari de tip a - C-tii pt. locuinte. Construire acoperis tip sarpanta cu invelitoare din tigla  la bloc S+P+4E existent. Zona D.", "lng": 21.204366}, {"beneficiar": "BIBLIOTECA CENTRALA UNIVERSITARA TIMISOARA", "lat": 45.747774, "adresa": " V.PARVAN nr.4", "data": "22.11.2006", "descriere": "Lucrari de tip a) - Constructii pt. servicii - Montare vitrina de termopan. Zona B.", "lng": 21.230122}, {"beneficiar": "TRUo?= MARIA", "lat": 45.74659519999999, "adresa": " I. GHICA nr.7", "data": "22.11.2006", "descriere": "Lucrari de tip a) - Locuinte - Amenajare mansarda in pod existent si realizare scara acces in pod. Zona D. St = 288 mp, Sc = 67,8 mp, Sd = 151,4 mp", "lng": 21.2129439}, {"beneficiar": "MARILA MIRCEA NICOLAE o?=I SOo?=IA MARILA DORINA", "lat": 45.7760729, "adresa": " BABADAG nr.1 et.P ap.1", "data": "14.11.2006", "descriere": "Lucrari de tip a) - C-tii pt. sanatate- Amplasare firma pe fatada.Schimbare de destinatie spatiu din locuinta ap. 1 - in cabinet medical. Zona D.", "lng": 21.262936}, {"beneficiar": "ASOCIATIA DE PROPRIETARI", "lat": 45.7329762, "adresa": " BV.DAMBOVITA nr.8A", "data": "14.11.2006", "descriere": "Lucrari de tip a) - Constructii pt. locuinte .Construire acoperis tip sarpanta din lemn cu invelitoare tigla la bloc S+P+4E existent. Zona D.", "lng": 21.2063445}, {"beneficiar": "TOLCSER DESIDERIU, TOLCSER MARIA", "lat": 45.7331692, "adresa": " HEBE nr.18 et.1 ap.7", "data": "14.11.2006", "descriere": "Lucrari de tip a) - Locuinta - Modificari interioare pentru imbunatatirea confortului la ap. 7. Zona C.", "lng": 21.2151597}, {"beneficiar": "STo?=NESCU BELLU DAN CONSTANTIN", "lat": 45.770083, "adresa": " OBOIULUI nr.2/a", "data": "14.11.2006", "descriere": "Lucrari de tip a) - Constructii pt. locuinte - Extindere balcon la ap. 3 conf. HCL. 132/2004. Zona D.", "lng": 21.213555}, {"beneficiar": "S.C. OPTICA S.A. TIMISOARA", "lat": 45.7320116, "adresa": " CALEA BUZIASULUI nr.11A", "data": "22.11.2006", "descriere": "Lucrari de tip a) - Constructii industriale - Modificari exterioare, inchideri perimetrale si inlocuire tamplarie la anexa tehnica existenta in regim P+2E.Zona C.", "lng": 21.2665654}, {"beneficiar": "PISCU ALINA TEREZIA", "lat": 45.764216, "adresa": " AMFOREI nr.9 ap.2", "data": "22.11.2006", "descriere": "Lucrari de tip a) - Constructii pt. locuinte - Construire balcon la ap. 2 conf. HCL 132/2004. Zona D.", "lng": 21.215056}, {"beneficiar": "BISERICA REFORMATA TIMISOARA", "lat": 45.7481846, "adresa": " T.CIPARIU nr.1", "data": "14.11.2006", "descriere": "Lucrari de tip b) - Constructii pt. culte - Modificari interioare (creare gol usa) in interiorul demisolului. Zona B.", "lng": 21.218382}, {"beneficiar": "RADULESCU ANGELICA VIORICA casat. cu RADULESCU DORINEL", "lat": 45.7733181, "adresa": " C.DAVILA nr.45", "data": "14.11.2006", "descriere": "Lucrari de tip a) - Constr. pt. locuinte - modificari interioare si exterioare. Consatruire garaj dublu in regim P. Extindere si etajare cladire  Dp+P+Ep+M, rezultand locuinta Dp+P+2E+M. Modificare acoperis. Zona B. St = 367 mp, Sc = 186,22 mp, Sd = 579,13 mp", "lng": 21.2418773}, {"beneficiar": "PETCU PETRU SI SOTIA PETCU MARIA", "lat": 45.754458, "adresa": " CIRESULUI nr.3", "data": "22.11.2006", "descriere": "Lucrari de tip a) - Constructii de locuinte. Construire garaj cu acces auto si imprejmuire la strada. Zona B. Sc = 28,60 mp,Sd = 28,60 mp, St = 626 mp", "lng": 21.1875779}, {"beneficiar": "DAN RADU CALIN", "lat": 45.7281248, "adresa": " MILOIA nr.21", "data": "22.11.2006", "descriere": "Lucrari de tip a si d - Constr. locuinte - Construire casa Sp+P+1E si refacere imprejmuire. Zona C. Sc = 175 mp, Sd = 380 mp, Steren = 789 mp", "lng": 21.221733}, {"beneficiar": "FISTICEANU ROMICA si FISTICEANU CRISTINEL", "lat": 45.728955, "adresa": " LACULUI nr.1C", "data": "22.11.2006", "descriere": "Lucrari de tip a) - C-tii pt. locuinte si servicii. Modificare la AC. 718/2005 - Construire casa in regim P+M , prin modificare amplasament si regim de inaltime rezultan P+2E+M si construire gard. Zona C. St = 457 mp, Sc = 203 m, Su = 600 mp.", "lng": 21.201175}, {"beneficiar": "POPESCU MARGARETA, POPESCU SORINA DOMNICA, POPESCU CONSTANTIN- JR.", "lat": 45.740578, "adresa": " I.MANIU nr.11 ap.4", "data": "22.11.2006", "descriere": "Lucrari de tip a) - Locuinte.Amenajare mansarda in pod existent la ap. 4.Zona C.", "lng": 21.208618}, {"beneficiar": "S.C. DEMETRA S.R.L.", "lat": 45.772367, "adresa": " DEMETRIADE nr.29", "data": "14.11.2006", "descriere": "Lucrari de tip a) - C-tii pt. servicii . Construire service auto, vopsitorie, spalatorie, tinichigerie in baza PUD aprobat prin HCL nr. 285/06.06.2006 cu schimbare de functiune din locuinta in servicii. Zona B. St = 613 mp, Sc = 334 mp,Sd = 369 mp", "lng": 21.255031}, {"beneficiar": "HUo?=AN GHEORGHE;  HUTAN MIHAELA", "lat": 45.7702008, "adresa": " MILOS CIRNEANSKI nr.10 ap.2", "data": "14.11.2006", "descriere": "Lucrari de tip a) - Constructii pt. locuinte - Refacere ziduri ap. 2 Zona D.", "lng": 21.1997021}, {"beneficiar": "VROBEL IOSIFcasat. cu VROBEL ILEANA", "lat": 45.759854, "adresa": " TIBRULUI nr.35", "data": "14.11.2006", "descriere": "Lucrari de tip a) - Constructii locuinte. Construire casa in regim P+M.Zona D. Sc = 86,25 mp, Sd = 170,5 mp, St = 1045 mp", "lng": 21.19145}, {"beneficiar": "S.C. EPPI S.R.L.", "lat": 45.7681227, "adresa": " M.BARASAB nr.1", "data": "22.11.2006", "descriere": "Lucrari de tip a) - Constructii pt. locuinte - Construire imobil P+4E+M. Zona D. Steren = 681 mp, Sc = 248,11 mp, Sd = 1829 mp", "lng": 21.2158173}, {"beneficiar": "BRATOSIN SORINA MIRELA  nascuta  STOICA", "lat": 45.721896, "adresa": " CEHOV nr.37", "data": "22.11.2006", "descriere": "Lucrari de tip c) - Retele edilitare - gaz - Extindere retea gaze naturale si branament gaze naturale prin pozare subterana - Zona C", "lng": 21.232379}, {"beneficiar": "BIRNBAUM ALEXE", "lat": 45.721896, "adresa": " CEHOV nr.37/A", "data": "22.11.2006", "descriere": "Lucrari de tip c) - Retele edilitare - gaz - Bransament gaze naturale prin pozare subterana - Zona C", "lng": 21.232379}, {"beneficiar": "S.C. BEGA TURISM S.A.", "lat": 45.755863, "adresa": " P-TA SF. GHEORGHE nr.1", "data": "14.11.2006", "descriere": "Lucrari de tip b) - Constructii pt. servicii - Amenajare agentie bancara OTP BANK Timisoara; lucrari de tip h) - Constructii cu caracter provizoriu - Amplasare firma luminoasa pe durata constractului de inchiriere 1697/2006 (din 25.04.2006 pana in 24.04.2016). Zona M.I.", "lng": 21.228988}, {"beneficiar": "ASOCIAo?=IA DE PROPRIETARI", "lat": 45.7760559, "adresa": " FELIX nr.21 bl.73 sc.A,B", "data": "14.11.2006", "descriere": "Lucrari de tip a) - Constructii pt. locuinte - Construire acoperis tip sarpanta din lemn cu invelitoare din tigla la bloc S+P+4E existent. Zona D.", "lng": 21.215719}, {"beneficiar": "KOMLOSI  MARIA, KOMLOSI GYORGY", "lat": 45.714926, "adresa": " CERCULUI  nr.1/3", "data": "22.11.2006", "descriere": "Lucrari de tip c) - Retele edilitare - gaz - Bransament gaze naturale prin pozare subterana - Zona C", "lng": 21.21321}, {"beneficiar": "BURUEAN AUREL cu sotia  BURUEAN  CORNELIA", "lat": 45.746961, "adresa": " ALBASTRELELOR nr.89", "data": "22.11.2006", "descriere": "Lucrari de tip c) - Retele edilitare - gaz - Bransament gaze naturale prin pozare subterana - Zona D", "lng": 21.28023}, {"beneficiar": "IANCULOVICI ILDICO MARIA  SI TAKACS ESTERA  BERTA", "lat": 45.73236900000001, "adresa": " TRAIAN VUIA nr.21", "data": "13.11.2006", "descriere": "Lucrari de tip c) - Retele edilitare- apa. Bransament apa. Zona D.", "lng": 21.224381}, {"beneficiar": "ASOCIATIA  EVANGHELISTA SI DE CARITATE \" ISUS  SPERANTA  ROMANIEI \"", "lat": 45.7299481, "adresa": " MURES nr.3", "data": "13.11.2006", "descriere": "Lucrari de tip c) - Retele edilitare - gaz. Bransament gaze naturale prin pozare subterana. Zona D.", "lng": 21.210142}, {"beneficiar": "S.C.  CORTEZ  S.R.L.", "lat": 45.717987, "adresa": " CAL. SAGULUI nr.153", "data": "13.11.2006", "descriere": "Lucrari de tip c) - Retele edilitare - apa - Bransament apa - Zona C", "lng": 21.196456}, {"beneficiar": "IVo?=NESCU EUGEN", "lat": 45.75021900000001, "adresa": " HERODOT nr.5 ap.2", "data": "22.11.2006", "descriere": "Lucrari de tip c) - Retele edilitare - gaz. Bransament gaze naturale prin pozare subterana. Zona D.", "lng": 21.261189}, {"beneficiar": "TODERESCU  CIPRIAN", "lat": 45.727961, "adresa": " MURES nr.197", "data": "22.11.2006", "descriere": "Lucrari de tip c) - Retele edilitare - apa, canal - Bransament apa si racord canal - Zona C", "lng": 21.252197}, {"beneficiar": "BALDOVIN  DOMNICA", "lat": 45.747898, "adresa": " NOUA nr.8", "data": "22.11.2006", "descriere": "Lucrari de tip c) - Retele edilitare - gaz - Bransament gaze naturale prin pozare subterana - Zona C", "lng": 21.264499}, {"beneficiar": "HAGEA  VASILE   CU SOTIA HAGEA PARASCHIVA", "lat": 45.726049, "adresa": " N.D.COCEA nr.21A", "data": "22.11.2006", "descriere": "Lucrari de tip c) - Retele edilitare (apa) - Separare consum apa. Zona C.", "lng": 21.267803}, {"beneficiar": "BODA  ELISABETA, BODA ZINA SI MIN. BOTA ELISABETA", "lat": 45.725918, "adresa": " EMIL RACOVITA nr.28/a", "data": "13.11.2006", "descriere": "Lucrari de tip c) - Retele edilitare (apa) - Bransament apa. Zona C.", "lng": 21.265114}, {"beneficiar": "MLADENOVICI  DORINA, MLADENOVICI GOLUB", "lat": 45.7206628, "adresa": " STEAUA nr.44", "data": "13.11.2006", "descriere": "Lucrari de tip c) - Retele edilitare - canal - Racord canal - Zona C", "lng": 21.2043469}, {"beneficiar": "POLGAR ADRIAN CU SOTIA POLGAR MAGDALENA", "lat": 45.724859, "adresa": " GHEORGHE STAVRESCU nr.3", "data": "22.11.2006", "descriere": "Lucrari de tip a si d - Locuinta unifamiliala - Constructie casa in regim P+M cu garaj in regim P si imprejmuire teren. Zona B. Sc = 158,1 mp, Sd = 286,6 mp, St = 501 mp", "lng": 21.23955}, {"beneficiar": "S.C. EUROTRAVEL S.R.L.", "lat": 45.769075, "adresa": " CALEA DOROBANTILOR nr.90", "data": "22.11.2006", "descriere": "Lucrari de tip a) - Desfiintare casa. Zona C. St = 832 mp", "lng": 21.266536}, {"beneficiar": "S.C. BANTEX S.A.", "lat": 45.769339, "adresa": " DIVIZIA 9 CAVALERIE nr.2A", "data": "22.11.2006", "descriere": "Lucrari de tip b si c - Construire statie fixa emisie - receptie pentru telefonie mobila in sistem GSM; alimentare cu energie electrica- TI 0298 - TO KAPPA.Zona B.", "lng": 21.230453}, {"beneficiar": "STANCA  IOAN  si STANCA COLUMBIA", "lat": 45.71929, "adresa": " E. ZOLA nr.134", "data": "13.11.2006", "descriere": "Lucrari de tip c) - Retele edilitare - Bransament apa si racord canal - Zona C", "lng": 21.20795}, {"beneficiar": "STOI  MIRCEA  GHEORGHE  si sotia STOI MAGDALENA", "lat": 45.75862, "adresa": " CIOCARLIEI nr.44", "data": "13.11.2006", "descriere": "Lucrari de tip c) - Retele edilitare - gaz - Bransament gaze naturale prin pozare subterana - Zona C", "lng": 21.1877749}, {"beneficiar": "LEPA IOAN", "lat": 45.75770199999999, "adresa": " TIBRULUI nr.12", "data": "13.11.2006", "descriere": "Lucrari de tip c) - Retele edilitare - apa, canal - Bransament apa si racord canal - Zona D", "lng": 21.192119}, {"beneficiar": "GRECU  NICOLAI  CU SOTIA GRECU TAMARA", "lat": 45.727914, "adresa": " MURES nr.201", "data": "13.11.2006", "descriere": "Lucrari de tip c) - Retele edilitare -  Bransament apa si racord canal. Zona C.", "lng": 21.252793}, {"beneficiar": "CALIN PETRU CU SOTIA CALIN ANGELA", "lat": 45.7378106, "adresa": " CALEA MARTIRILOR 1989 nr.19 sc.A et.P ap.4", "data": "13.11.2006", "descriere": "Lucrari de tip a) - Constructii pt. servicii - modificari interioare, realizare acces din exterior si schimbare destinatie spatiu din locuinta in salon cosmetica.Zona C.", "lng": 21.2384283}, {"beneficiar": "MOISE DANIELA LETITIA ; CRISTEA GABRIEL; CRISTEA ELENA FLORICA", "lat": 45.769969, "adresa": " BUCOVIVEI nr.45/B", "data": "20.11.2006", "descriere": "Lucrari de tip a) - Constructii pt. locuinte - Extindere si mansardare partiala casa parter rezultand P+Mp. Zona B. Steren = 1042 mp, Sc = 33,78 mp, Sd = 122,28 mp", "lng": 21.212098}, {"beneficiar": "S.C. CONTRANSCOM BENTA S.A.", "lat": 45.7302475, "adresa": " VENUS nr.35", "data": "20.11.2006", "descriere": "Lucrari de tip a) - Locuinta colectiva - Constructie bloc de locuinte (corp B, sc. A+B) in regim D+P+6E si amenajare incinta, conform HCL 360/2006.Zona C. Sc = 830 mp, Sd = 6502 mp, Steren = 8773 mp", "lng": 21.2550875}, {"beneficiar": "ASOCIATIA DE PROPRIETARI", "lat": 45.760839, "adresa": " CIRCUMVALATIUNII nr.25 bl.12", "data": "13.11.2006", "descriere": "Lucrari de tip a) - Construire statie fixa emisie - receptie pentru telefonie mobila in sistem G.S.M. - S.C. VODAFONE ROMANIA S.A. Zona B.", "lng": 21.2191009}, {"beneficiar": "Bo?=LU EMANUEL-FLORIN nec.", "lat": 45.76585, "adresa": " TURDA nr.7", "data": "13.11.2006", "descriere": "Lucrari de tip a) - Demolare constructie parter. Zona C. St = 850 mp, Sc = Sd = 61,35 mp", "lng": 21.267038}, {"beneficiar": "GRIGORESCU DAN-VIOREL-GEORGE CU  GRIGORESCU GEORGETA-ILEANA", "lat": 45.726799, "adresa": " CALEA BUZIASULUI nr.67", "data": "13.11.2006", "descriere": "Lucrari de tip a) - Locuinta - desfiintare casa existenta in regim P .Zona C. Sc= Sd = 73,64 mp, Steren = 1841 mp", "lng": 21.277866}, {"beneficiar": "VULPE ILEANA MIHAELA", "lat": 45.756708, "adresa": " EUGENIU DE SAVOYA nr.12", "data": "17.11.2006", "descriere": "Lucrari de tip a) - Instalatii interioare - Separare consum apa la ap. 12  Zona MI", "lng": 21.228662}, {"beneficiar": "CIURAR  NICOLAE", "lat": 45.7296988, "adresa": " MURES nr.43", "data": "17.11.2006", "descriere": "Lucrari de tip c) - Retele edilitare - apa, canal - Bransament apa si racord canal - Zona D", "lng": 21.2205237}, {"beneficiar": "CONSTANTIN DANIEL  SI  CORNELIA", "lat": 45.724616, "adresa": " A. BACALBASA nr.53", "data": "17.11.2006", "descriere": "Lucrari de tip c) - Retele edilitare - gaz - Bransament gaze naturale prin pozare subterana - Zona C", "lng": 21.1851999}, {"beneficiar": "S.C.  VALERAM  S.R.L", "lat": 45.7791663, "adresa": " ION IONESCU DE LA BRAD nr.9", "data": "13.11.2006", "descriere": "Lucrari de tip c) - Retele edilitare - gaz - Bransament gaze naturale prin pozare subterana - Zona D", "lng": 21.2387132}, {"beneficiar": "SCRIPNICIUC GHEORGHE  SI SCRIPNICIUC NICOLITA", "lat": 45.7299481, "adresa": " MURES nr.3 ap.4", "data": "13.11.2006", "descriere": "Lucrari de tip a) - Locuinta - Amenajari interioare si modificari balcon la ap. 4. Zona C.", "lng": 21.210142}, {"beneficiar": "CERNESCU IOAN - casat.", "lat": 45.7500209, "adresa": " BATANIA nr.39a", "data": "10.11.2006", "descriere": "Lucrari de tip c) - Retele edilitare - gaz - Bransament gaze naturale prin pozare subterana - Zona B", "lng": 21.261607}, {"beneficiar": "UNGUREAN SILVESTRU  casat. cu UNGUREANU IULIANA", "lat": 45.750583, "adresa": " MARTIR  CORNEL POPESCU  nr.46", "data": "10.11.2006", "descriere": "Lucrari de tip c) - Retel edilitare - apa - Bransament apa - Zona C", "lng": 21.283431}, {"beneficiar": "NEDA RODICA LUCIA SI SOTUL NEDA SORIN  VASILE", "lat": 45.74374299999999, "adresa": " PUTNA nr.12", "data": "10.11.2006", "descriere": "Lucrari de tip c) - Retele edilitare - gaz. Bransament gaze naturale prin pozare subterana.Zona B.", "lng": 21.233473}, {"beneficiar": "DUMA  MIHAELA  OTILIA - necasatorita", "lat": 45.752328, "adresa": " TIGRULUI nr.48/a", "data": "10.11.2006", "descriere": "Lucrari de tip c) - Retele edilitare - gaz - Bransament gaze naturale prin pozare subterana - Zona C", "lng": 21.259774}, {"beneficiar": "IVANOV  IOSEFINA", "lat": 45.7298857, "adresa": " MURES nr.23", "data": "10.11.2006", "descriere": "Lucrari de tip c) - Retele edilitare - apa. Bransament apa. Zona C.", "lng": 21.2164115}, {"beneficiar": "PANCZI  ZOLTAN  si sotia PANCZI  MARIA", "lat": 45.726061, "adresa": " CALEA MARTIRILOR nr.114", "data": "10.11.2006", "descriere": "Lucrari de tip c) - Retele edilitare - apa, canal - Bransament apa si racord canal - Zona C", "lng": 21.236812}, {"beneficiar": "SERENCIUC  VASILE", "lat": 45.75623, "adresa": " BREDICEANU nr.7 ap.2", "data": "10.11.2006", "descriere": "Lucrari de tip a) - Instalatii interioare - apa - Separare consum apa - Zona A", "lng": 21.223045}, {"beneficiar": "ASOCIAo?=IA DE PROPRIETARI", "lat": 45.775021, "adresa": " ORSOVA nr.25 bl.109", "data": "10.11.2006", "descriere": "Lucrari de tip a) - Constructii pt. locuinte - Construire acoperis tip sarpanta cu invelitoare din tigla la bloc S+P+4E existent. Zona B.", "lng": 21.215315}, {"beneficiar": "ASOCIATIA  \"ONCOHELP \"", "lat": 45.73884899999999, "adresa": " C. PORUMBESCU nr.59", "data": "10.11.2006", "descriere": "Lucrari de tip a) - Constr. pt. servicii si sanatate.Modificari interioare si exterioare la cladire existenta, schimbare destinatie spatiu din locuinta in cabinet medical si extindere in regim S+P+1E pt. realizare clinica oncologica. Zona B. Sc = 260 mp, Sd = 780 mp, Steren = 767 mp", "lng": 21.2174174}, {"beneficiar": "ASOCIATIA  DE PROPRIETARI", "lat": 45.773511, "adresa": " LINISTEI nr.4 bl.79", "data": "10.11.2006", "descriere": "Lucrari de tip a) - Constructii pt. locuinte.Amenajari exterioare - Construire acoperis tip sarpanta cu invelitoare din tigla rosie la blocul de locuinte S+P+4E existent. Zona D.", "lng": 21.229215}, {"beneficiar": "ASOCIATIA DE LOCATARI", "lat": 45.745464, "adresa": " CERNA nr.14 bl.3 sc.B", "data": "10.11.2006", "descriere": "Lucrari de tip c) - Retele edilitare - apa - Bransament apa - Zona C", "lng": 21.250896}, {"beneficiar": "ASOCIATIA DE PROPRIETARI", "lat": 45.760243, "adresa": " CETATII nr.3A", "data": "10.11.2006", "descriere": "Lucrari de tip c) - Retele edilitare - apa - Bransament apa - Zona B", "lng": 21.209444}, {"beneficiar": "ASOCIATIA DE PROPRIETARI", "lat": 45.754365, "adresa": " LISABONA nr.7/3 sc.C", "data": "10.11.2006", "descriere": "Lucrari de tip c) - Retele edilitare - apa - Bransament apa - Zona D", "lng": 21.200098}, {"beneficiar": "COVo?=So?=No?=AN IOANA-NICOLETA", "lat": 45.744479, "adresa": " SORIN TITEL nr.1 et.2 ap.15", "data": "10.11.2006", "descriere": "Lucrari de tip a) - Locuinta - Modificari interioare la ap. 15, pt.imbunatatirea confortului. Zona B.", "lng": 21.22702}, {"beneficiar": "ASOCIATIA DE PROPRIETARI", "lat": 45.776612, "adresa": " CUGIR nr.12 bl.63", "data": "10.11.2006", "descriere": "Lucrari de tip a) - Constructii pt. locuinte - Construire acoperis tip sarpanta cu invelitoare din tigla la bloc S+P+4E existent. Zona D.", "lng": 21.2180399}, {"beneficiar": "ASOCIATIA  DE LOCATARI", "lat": 45.776583, "adresa": " HOLDELOR nr.21 bl.A28 sc.A", "data": "10.11.2006", "descriere": "Lucrari de tip a) - Construire acoperis tip sarpanta din lemn cu invelitoare din tigla pe terasa bloc St+P+4E existent. Zona D.", "lng": 21.239911}, {"beneficiar": "S.C.  DULCINEEA  S.R.L.", "lat": 45.745617, "adresa": " REMUS nr.17", "data": "10.11.2006", "descriere": "Lucrari de tip c) -Retele edilitare - apa, canal - Bransament apa si racord canal - Zona B", "lng": 21.223795}, {"beneficiar": "MATEI CATALIN  CIPRIAN , MODIGA MARIA ANA", "lat": 45.7282963, "adresa": " LETEA nr.47", "data": "10.11.2006", "descriere": "Lucrari de tip c) - Retele edilitare - canal - Extindere retea canal  si racord canal pentru nr. 47 - Zona C", "lng": 21.2162447}, {"beneficiar": "ASOCIATIA DE PROPRIETARI", "lat": 45.73154640000001, "adresa": " LUCEAFARUL nr.8 sc.A", "data": "10.11.2006", "descriere": "Lucrari de tip a) - Constructii pt. locuinte - Construire acoperis tip sarpanta cu invelitoare din tigla la blocul P+4E.Zona D.", "lng": 21.2109055}, {"beneficiar": "PRISECIAN SAMFIRA LAPADUTA", "lat": 45.759256, "adresa": " BRUXELLES nr.28", "data": "10.11.2006", "descriere": "Lucrari de tip c) - Retele edilitare - gaz - Bransament gaze naturale prin pozare subterana - Zona B", "lng": 21.186325}, {"beneficiar": "GHERGHINA  CALIN DANIEL SI SOTIA GHERGHINA NICOLETA DIANA", "lat": 45.757482, "adresa": " IOAN NEGULICI nr.1", "data": "09.11.2006", "descriere": "Lucrari de tip c) - Retele edilitare - gaz. Bransament gaze naturale prin pozare subterana. Zona C.", "lng": 21.204402}, {"beneficiar": "BURCEA GRIGORE ADRIAN", "lat": 45.75752, "adresa": " I. NEGULICI nr.27", "data": "08.11.2006", "descriere": "Lucrari de tip a) - Constructii locuinte. Extindere casa parter in acelasi regim de inaltime.Zona C. Sc = 26,8 mp, St = 755 mp.", "lng": 21.198075}, {"beneficiar": "S.C. CONTRANSCOM BENo?=A S.A.", "lat": 45.7302475, "adresa": " VENUS nr.35", "data": "31.10.2006", "descriere": "Lucrari de tip a - desfiintare casa in regim parter, birou si magazie, depozit, hala, atelier, garaje, 2 copertine si rampa. Zona C. Sd = 3152 mp Steren = 8773 mp", "lng": 21.2550875},