{"points": [{"beneficiar": "PENTIA (PENTSA) ICONIA", "lat": 45.7461091, "adresa": " Bv.Eroilor  nr.18", "data": "29.12.2011", "descriere": "Lucrari de tip a).-Constructii pentru locuinte-Interventii de urgenta pentru punerea in siguranta a cladirii conform art.7 alin.16 din Legea 50/1991act.      Steren=577mp     Zona B.", "lng": 21.2385023}, {"beneficiar": "IUHASZ  IOAN si sotia IUHASZ SIMONA-MINA", "lat": 45.767455, "adresa": "  LORENA nr.112", "data": "29.12.2011", "descriere": "Lucrari tip a) si d)- Constructii pentru locuinte- Mansardare casa P rezultand casa in regim de inaltime P+M. Construire garaj (Sc= 37,41 mp, Sd=122 mp). Imprejmuire teren. Zona  C", "lng": 21.261325}, {"beneficiar": "BUNCILA VIOREL OCTAVIAN si  BUNCILA CRISTINA ROXANA", "lat": 45.7397185, "adresa": " VADUL CALUGARENI nr.1 ap.6/a", "data": "29.12.2011", "descriere": "lUCRARI DE TIP A) - Constructii pentru comert - Schimbare destinatie spatiu din ap. 6/a in spatiu comercial si realizare acces direct din eexterior. Zona B.", "lng": 21.221019}, {"beneficiar": "SONTROPEL DUMITRU CLAUDIU SI SONTROPEL DANIELA", "lat": 45.735235, "adresa": " DREPTATEA nr.13 bl.C12", "data": "29.12.2011", "descriere": "Lucrari de tip a)-Constructii pentru locuinte- Mansardare bloc de locuinte in regim de inaltime S+P+4E rezultand bloc de locuinte S+P+4E+M ( cu 4 apartamente la mansarda) si reabilitare termica conform HCL 141/2007.\nSc=Sd=246,65 mp", "lng": 21.199911}, {"beneficiar": "AZOITEI MICHAELA si sotul AZOITEI CONSTANTIN", "lat": 45.760503, "adresa": " MISTRAL nr.5", "data": "29.12.2011", "descriere": "Lucrari tip a)- Constructii pentru locuinte- Modificare acoperis la cladire existenta. Zona D", "lng": 21.266117}, {"beneficiar": "MURARIU  MARIOARA si sotul MURARIU MIHAI", "lat": 45.749406, "adresa": " POP DE BASESTI nr.41 ap.14", "data": "29.12.2011", "descriere": "Lucrari de tip a) Constructii pentru locuinte - Extindere apartament nr.14 conform HCL 45/2009 modificata prin HCL 340/2010 si mansardare, rezultand apartament nr.14 in regim P+M. Zona C. Sc=10 mp, Sd=70,97 mp", "lng": 21.202619}, {"beneficiar": "ASOCIATIA DE PROPRIETARI", "lat": 45.7665289, "adresa": " LABIRINT  nr.14 bl.10 sc.A+B", "data": "29.12.2011", "descriere": "Lucrari tip a) - C-tii pentru locuinte - Reabilitare termica bloc existent. Legalizare conf. art.28 din L50/91 rep si act. Zona D.", "lng": 21.216335}, {"beneficiar": "MISIUNEA CRESTINA \"CRISTOS PENTRU ROMANIA\" si BISERICA PENTICOSTALA \"POARTA CERULUI\"", "lat": 45.7577594, "adresa": " BANUL MARACINE nr.25", "data": "29.12.2011", "descriere": "Lucrari de tip a) Constructii pentru locuinte - Mansardare casa P existenta rezultand casa in regim P+M si construire anexa in regim P+M. Zona C. St=656 mp, Sc=175 mp, Sd=350 mp", "lng": 21.2072186}, {"beneficiar": "S.C. GAROFITA S.A.", "lat": 45.7546726, "adresa": " PESTALOZZI nr.20 a", "data": "29.12.2011", "descriere": "Lucrari de tip h)- Constructii cu caracter provizoriu.Amplasare caseta luminoasa si 2 firme pe fatada cladirii, pe durata contractului de inchiriere. Zona B.- SC TROST AUTO SERVICE TECHNIK SRL. ", "lng": 21.2467527}, {"beneficiar": "BOT IOAN", "lat": 45.7632807, "adresa": " INTRAREA UMBROASA nr.1 sc.A ap.4", "data": "29.12.2011", "descriere": "Lucrari de tip a - Constructii pentru sanatate - Schimbare destinatie spatiu din locuinta in cabinet medical. Zona D.", "lng": 21.2192104}, {"beneficiar": "ROCHNEAN MARIANA, ROCHNEAN RALUCA, ROCHNEAN LIANA", "lat": 45.765395, "adresa": " B-dul CETATII nr.41", "data": "29.12.2011", "descriere": "Lucrari tip h) - C-tii cu caracter provizoriu - Amplasare firma pe fatada pe perioada contractului de comodat (pana la data de 02.03.2012). Zona C.", "lng": 21.212786}, {"beneficiar": "STANCU ILIE SI STANCU REGINA MARIA", "lat": 45.739942, "adresa": " 16 DECEMBRIE 1989  nr.59", "data": "29.12.2011", "descriere": "Lucrari de tip b) - Constructii pentru locuinte - Modificare A.C. 1916/2009, constand in modificari exterioare la fatada posterioara si extindere in regim  P+1E+M la cladire autorizata.- intrare in legalitate conform art,. 18 din Legea 50/1991 rep si act. Sc=19,25 mp. Sd=45 mp. Zona C.", "lng": 21.210651}, {"beneficiar": "MUNICIPIUL TIMISOARA - DIRECo?=IA DEZVOLTARE", "lat": 45.757615, "adresa": " Gheorghe Lazo?=r nr.2", "data": "29.12.2011", "descriere": "Lucro?=ri de tip b)-Construco?=ii pentru o?=nvo?=o?=o?=mo?=nt-Reabilitare o?=i consolidare clo?=dire existento?=-  Refacere fao?=ade o?=i acoperio?= la Liceul Teoretic N.Lenau", "lng": 21.227013}, {"beneficiar": "MAZAC ROBERT , MAZAC EMA VERONICA", "lat": 45.7621001, "adresa": " BADEA CARTAN nr.7 et.PARTER ap.SAD1", "data": "29.12.2011", "descriere": "Lucrari tip h)- Constructii cu caracter provizoriu- Amplasare firma (cruce farmacie) pe fatada imobilului pe durata contractului de locatiune (pana la 31.12.2012)- S.C. FARMACIA TONICA S.R.L. Zona B", "lng": 21.2476768}, {"beneficiar": "ASOCIATIA DE PROPRIETARI", "lat": 45.775766, "adresa": " CUGIR nr.11 bl.24", "data": "29.12.2011", "descriere": "Lucrari tip a) - C-tii pentru locuinte - Reabilitare termica bloc P+4E.Zona D.", "lng": 21.217481}, {"beneficiar": "IACOBUTI CORNELIA nec.", "lat": 45.7565191, "adresa": " MOISE NICOARA nr.2 ap.14", "data": "29.12.2011", "descriere": "Lucrari tip a)- Constructii pentru locuinte- Extindere ap.14 in regim de inaltime P (Sc=Sd=7,04 mp). Zona D", "lng": 21.2559842}, {"beneficiar": "S.C. NM CONSTRUCT S.R.L.", "lat": 45.7420396, "adresa": " Severin nr.11 ap.2", "data": "29.12.2011", "descriere": "Lucrari de tip a)-locuinta-Desfiintare apartament 2", "lng": 21.2367755}, {"beneficiar": "OFICIUL PAROHIAL REFORMAT TIMISOARA", "lat": 45.760423, "adresa": " MORARILOR nr.1/b", "data": "29.12.2011", "descriere": "Lucrari tip a)- Constructii pentru cult- CENTRUL REFORMAT TIMISOARA- Construire cladire AUDITORIU (corp C) in regim de inaltime S+P (Sc=400 mp, Sd= 823,5 mp).Zona D", "lng": 21.256861}, {"beneficiar": "SC D BAI IMMOBILIARE SRL", "lat": 45.730282, "adresa": " Eduard Benes nr.13", "data": "29.12.2011", "descriere": "Lucrari de tip a)-Constructii pentru locuinte.-Extindere in regim P la casa existenta,construire garaj si anexa gospodareasca in regim P.Sc=Sd=115 mp", "lng": 21.245613}, {"beneficiar": "EVA IONEL", "lat": 45.7464439, "adresa": " GHEORGHE BARITIU nr.14", "data": "29.12.2011", "descriere": "Lucrari de tip a) constructii pentru locuinte - Extindere locuinta in regim parter, construire trei anexe gospodaresti (magazii) si platforma betonata. Legalizare conform art.28 din Legea 50/91 rep. si act. Zona C. St=1396 mp, Sc=165 mp, Sd=165 mp", "lng": 21.2014186}, {"beneficiar": "S.C. PIATA VERDE S.R.L.", "lat": 45.77473, "adresa": " LIEGE nr.2B", "data": "29.12.2011", "descriere": "Lucrari tip h) C-tii pentru comert - Amplasare chiosc pe teren proprietate privata pe durata contractului de inchiriere (pana la data de 01.12.2013", "lng": 21.221262}, {"beneficiar": "DRAGAN DAMIAN si ILIES RODICA", "lat": 45.767096, "adresa": " CALEA DOROBANTILOR nr.57/a", "data": "16.12.2011", "descriere": "Lucrari tip c)-Retele edilitare- canal- Racord canal. Zona afectata de lucrari va fi adusa obligatoriu la stadiul initial. Zona D", "lng": 21.262863}, {"beneficiar": "DASCALU CRISU si sotia DASCALU DOINA SOFIA", "lat": 45.75163999999999, "adresa": " Michelangelo nr.3", "data": "16.12.2011", "descriere": "Lucrari de tip c).-Retele edilitare-gaz.Bransament gaze naturale prin pozare subterana.    Zona B.", "lng": 21.233709}, {"beneficiar": "LUNGU MITEA VICTOR si sotia LUNGU MITEA ELENA ", "lat": 45.76503599999999, "adresa": " MESTEACANULUI nr.21", "data": "16.12.2011", "descriere": "Lucrari tip c) - Retele edilitare - canal - Racord canal. ZonaC. Zona afectata de lucrari se va aduce obligatoriu la stadiul initial.", "lng": 21.192797}, {"beneficiar": "DEIAK IOAN si DEIAK VIORICA", "lat": 45.718329, "adresa": " BARSEI nr.4", "data": "16.12.2011", "descriere": "Lucrari de tip c) - Retele edilitare - canal. Racord canal. Zona afectata de lucrari se va aduce obligatoriu la stadiul initial. Zona C.", "lng": 21.2073329}, {"beneficiar": "TOMUS ALEXANDRA", "lat": 45.7594, "adresa": "  nr.SUCEAVA bl.27 ap.1", "data": "15.12.2011", "descriere": "Lucrari de tip a) Constructii pentru locuinte - Demolare partiala, recompartimentare si inlocuire invelitoare la anexe gospodaresti. Zona B. ", "lng": 21.211182}, {"beneficiar": "ASOCIATIA DE PROPRIETARI", "lat": 45.779352, "adresa": " CALEA SEVER BOCU bl.304", "data": "29.12.2011", "descriere": "Lucrari tip a)- Constructii pentru locuinte- Realizare termosistem la bloc existent S+P+4E. Zona D", "lng": 21.2347569}, {"beneficiar": "PERTE MIRCEA", "lat": 45.7780303, "adresa": " CALEA LIPOVEI nr.84", "data": "29.12.2011", "descriere": "Lucrari tip h)- Constructii cu caracter provizoriu- Amplasare spatii comerciale parter (chioscuri) pe teren proprietate (Sd=96,27 mp)- intrare in legalitate cu aplicarea art.28 din Legea 50/91 rep. Zona D", "lng": 21.2339714}, {"beneficiar": "POPA HELMUT MIRCEA si POPA ELEONORA", "lat": 45.725116, "adresa": " FRATELIA nr.22", "data": "29.12.2011", "descriere": "Lucrari de tip a) - Constructii pentru locuinte - Construire anexa gospodareasca P. Sc=Sd=15,75 mp.Zona C.", "lng": 21.206086}, {"beneficiar": "TURLEA GHILA SI TURLEA CANDIN", "lat": 45.7608307, "adresa": " PELINULUI nr.4", "data": "15.12.2011", "descriere": "Lucrari de tip c) - Retele edilitare: gaz o?= Bransament gaze naturale prin pozare subterana. Zona afectata de lucrari se va aduce obligatoriu la stadiul initial. Zona B", "lng": 21.1848509}, {"beneficiar": "PAVLOV RADOICA si sotul PAVLOV MIODRAG ", "lat": 45.7550839, "adresa": " FAGARAS nr.16 ap.2", "data": "15.12.2011", "descriere": "Lucrari de tip c) - Retele edilitare apa, canal- Bransament apa si racord canal. Zona afectata de lucrari se va aduce obligatoriu la stadiul initial. Zona D", "lng": 21.214779}, {"beneficiar": "SBURLEA NICOLAE si sotia SBURLEA ELISABETA", "lat": 45.754798, "adresa": " FAGARAS nr.18", "data": "15.12.2011", "descriere": "Lucrari de tip c) - Retele edilitare apa - Extindere retea apa si bransament apa. Zona afectata de lucrari se va aduce obligatoriu la stadiul initial. Zona D", "lng": 21.214746}, {"beneficiar": "PADURARIU ION si sotia PADURARIU ECATERINA", "lat": 45.74874699999999, "adresa": " COCORILOR nr.16", "data": "15.12.2011", "descriere": "Lucrari tip c)- Retele edilitare- apa, canal- Bransament apa si racord canal.Zona afectata de lucrari va fi adusa obligatoriu la stadiul initial.Zona D", "lng": 21.286285}, {"beneficiar": "CORCOTOI PETRUTA si sotia CORCOTOI IULIANA", "lat": 45.76617, "adresa": " COCOSTARCULUI nr.4", "data": "29.12.2011", "descriere": "Lucrari tip c)- Retele edilitare- apa, canal- Bransament apa si racord canal.Zona afectata de lucrari va fi adusa obligatoriu la stadiul initial.Zona B", "lng": 21.2813}, {"beneficiar": "JURCA MIHAI si sotia JURCA AURICA", "lat": 45.75858100000001, "adresa": " FLACARA nr.45", "data": "29.12.2011", "descriere": "Lucrari tip c)- Retele edilitare- gaze naturale- Bransament gaze naturale prin pozare subterana. Zona afectata de lucrari va fi adusa obligatoriu la stadiul initial.Zona C", "lng": 21.277854}, {"beneficiar": "CIOSICI MARIA", "lat": 45.759163, "adresa": " GH. TITEICA nr.39", "data": "29.12.2011", "descriere": "Lucrari tip c)- Retele edilitare- gaze naturale- Bransament gaze naturale prin pozare subterana. Zona afectata de lucrari va fi adusa obligatoriu la stadiul initial.Zona C", "lng": 21.276677}, {"beneficiar": "COLTAN ECATERINA CLARA ", "lat": 45.722458, "adresa": " Pavlov nr.33", "data": "29.12.2011", "descriere": "Lucrari de tip c)-Retele edilitare-gaz.Bransament gaze naturale prin pozare subterana.Zona afectata de lucrari se va aduce obligatoriu la stadiul initial.", "lng": 21.226234}, {"beneficiar": "ISTIN MIHAI ROMULUS VOICU", "lat": 45.763506, "adresa": " DRAGOS VODA nr.21", "data": "12.12.2011", "descriere": "Lucrari de tip a) - Demolare casa. Zona D", "lng": 21.198459}, {"beneficiar": "ASOCIATIA DE PROPRIETARI", "lat": 45.77416299999999, "adresa": " VERDE nr.33 bl.A82 sc.B", "data": "12.12.2011", "descriere": "Lucrari tip a)- Constructii pentru locuinte- Construire sarpanta din lemn cu invelitoare tigla la bloc de locuinte existent in regim S+P+4E. Zona D", "lng": 21.243704}, {"beneficiar": "DOBOSAN SORIN MIRCEA si sotia DOBOSAN CAMELIA LILIANA", "lat": 45.7710918, "adresa": " ALEEA VIILOR nr.12B", "data": "28.12.2011", "descriere": "Lucrari tip a) - C-tii pentru locuinte - Modificare amplasament la casa in regim P+M si garaj autorizate cu AC nr.1157/27.11.2000, legalizare conform art.28 din Legea 50/91 rep si act. Zona D.", "lng": 21.2088089}, {"beneficiar": "LEONTE ILEANA nec.", "lat": 45.749406, "adresa": " POP DE BASESTI nr.41 ap.17", "data": "28.12.2011", "descriere": "Lucrari tip a)- Constructii pentru locuinte- Extindere in regim parter la ap.17 conform HCL 45/2009 (Sc=Sd=22,05 mp).Zona C", "lng": 21.202619}, {"beneficiar": "SC FUTURE INVEST SRL", "lat": 45.756076, "adresa": " TIGRULUI nr.6", "data": "28.12.2011", "descriere": "Lucrari tip a)- Locuinta - Desfiintare casa existenta.Zona C", "lng": 21.2562019}, {"beneficiar": "ASOCIATIA DE PROPRIETARI", "lat": 45.7613408, "adresa": " REGIMENTUL 6 ARTILERIE GREA nr.9", "data": "28.12.2011", "descriere": "Lucrari de tip a) Constructii pentru locuinte - Construire acoperis tip sarpanta la bloc existent P+4E. Zona D. Sc=234 mp", "lng": 21.2089072}, {"beneficiar": "GROSAN IOAN", "lat": 45.766093, "adresa": " MESTEACANULUI nr.31", "data": "28.12.2011", "descriere": "Lucrari de tip a) Constructii pentru locuinte - Construire anexa gospodareasca si garaj in regim P; Lucrari de tip d) Imprejmuiri - Refacere imprejmuire, Zona D, Sc=Sd=58,44 mp", "lng": 21.192999}, {"beneficiar": "WINGRON BRUTUS", "lat": 45.74922000000001, "adresa": " MIRON COSTIN nr.11", "data": "12.12.2011", "descriere": "Lucrari de tip b)Constructii pentru servicii- Schimbare destinatie din locuinta in pizzerie la subsolul imobilului.\nLucrari de tip h)-Constructii cu caracter provizoriu -Amplasare firma pe fatada cladirii pe durata contractului de inchiriere nr. 8654/29.04.2009.", "lng": 21.217037}, {"beneficiar": "SINKA EUGENIA  SI  IUHASZ  ELISABETA", "lat": 45.729977, "adresa": " LACULUI nr.6/A ap.1", "data": "12.12.2011", "descriere": "Constructii pentru locuinte- Construire balcon la ap. nr.1 pentru imbunatatirea confortului conform HCL 35/2008.", "lng": 21.20157}, {"beneficiar": "BISERICA CRESTINA PENTICOSTALA CARMEL", "lat": 45.755883, "adresa": " MADONA nr.7", "data": "12.12.2011", "descriere": "Lucrari de tip d) Imprejmuiri - Construire gard de imprejmuire parcela. Zona C. St=3980 mp", "lng": 21.191412}, {"beneficiar": "JUDETUL TIMIS", "lat": 45.755747, "adresa": " TITU MAIORESCU nr.6", "data": "12.12.2011", "descriere": "Lucrari tip a)- Constructii pentru invatamant- Reparatii capitale la cladirea nr. 3 -Centrul Scolar pentru Educatie Incluziva \"PAUL POPESCU- NEVEANU\"Zona C", "lng": 21.252252}, {"beneficiar": "S.C. LUCARDI MARAMURES S.R.L.", "lat": 45.776731, "adresa": " CALEA ARADULUI nr.101 bl.9 sc.A+B", "data": "28.12.2011", "descriere": "Lucrari tip a) - C-tii pentru locuinte - Reabilitare termica si mansardare bloc St+P+4E rezultand regim de inaltime St+P+4E+M cu 4 apartamente sc.A si 4 apartamente sc.B, conform HCL 141/2007. Zona D. Sc=491mp", "lng": 21.220469}, {"beneficiar": " MUNICIPIULUI TIMISOARA ", "lat": 45.723309, "adresa": " Alunis nr.36", "data": "28.12.2011", "descriere": "Lucrari de tip a)-Constructii pentru invatamant-Modificari interioare si exterioare la cladire existenta in regim P", "lng": 21.2265419}, {"beneficiar": "CRUTAN PETRE si sotia CRUTAN MONICA", "lat": 45.73055000000001, "adresa": " VENUS nr.27", "data": "27.12.2011", "descriere": "Lucrari tip a)- Constructii pentru locuinte- Reabilitare termica si mansardare bloc S+P+4E rezultand bloc in regim S+P+4E+M cu 4 apartamente (Sm= 282,64 mp) conform HCL 141/2007. Zona D", "lng": 21.255313}, {"beneficiar": "COCOTAN ANA", "lat": 45.757274, "adresa": " AGRICULTORILOR nr.1", "data": "08.12.2011", "descriere": "Lucrari de tip c) - Retele edilitare: gaz o?= Bransament gaze naturale prin pozare subterana. Zona afectata de lucrari se va aduce obligatoriu la stadiul initial. Zona B", "lng": 21.19489}, {"beneficiar": "SC METALTIM SA", "lat": 45.768313, "adresa": " DIVIZIA 9 CAVALERIE nr.68", "data": "27.12.2011", "descriere": "Lucrari tip h)- Constructii cu caracter provizoriu- Construire anexa (fara fundatie)si terasa cu functiunea de fast- food (Sd=187,35 mp)  pe durata contractului de inchiriere (pana la 31.12.2012)- SC BBQ RIBS GRILL SRL- intrare in legalitate cu aplicarea art.28 din Legea 50/91 rep.", "lng": 21.235357}, {"beneficiar": "BLEBAN GAVRIL si BLEBAN CAROLINA, BADEA SORIN EUGEN", "lat": 45.73531500000001, "adresa": " DUMITRU KIRIAC  nr.12 sc.A+B", "data": "27.12.2011", "descriere": "Lucrari de tip a) - Constructii pentru locuinte - Mansardare bloc S+P+4E, rezultand regim de inaltime S+P+4E+M, cu 8 apartamente la mansarda si reabilitare termica, conform H.C.L. 141/2007 - intrare in legalitate, conform art. 18 din Legea 50/1991 rep. si act. Su=509 mp. Zona D.", "lng": 21.210172}, {"beneficiar": "NICOLIN GABRIELA ILDIKO, CSURGO ALEXANDRU, FEJES MARIA", "lat": 45.763646, "adresa": " CALEA GHIRODEI nr.92", "data": "08.12.2011", "descriere": "Lucrari tip c)-Retele edilitare- apa- Bransament apa. Zona afectata de lucrari va fi adusa obligatoriu la stadiul initial.Zona C", "lng": 21.2811689}, {"beneficiar": "MOLDOVAN MIHAELA -DANIELA SI MOLDOVAN RADU -DORIN", "lat": 45.728049, "adresa": " Constantin Daniel nr.7", "data": "08.12.2011", "descriere": "Lucrari de tip c)-gaz-Bransament gaze naturale prin pozare subterana.Zona afectata de lucrari se va aduce obligatoriu la stadiul initial.", "lng": 21.188768}, {"beneficiar": "ASOCIATIA DE PROPRIETARI", "lat": 45.7581879, "adresa": " GHEORGHE LAZAR nr.9 bl.A2 sc.B", "data": "08.12.2011", "descriere": "Lucrari de tip c) - Retele edilitare: gaz o?= Bransament gaze naturale prin pozare subterana. Zona afectata de lucrari se va aduce obligatoriu la stadiul initial. Zona C", "lng": 21.223388}, {"beneficiar": "ASOCIATIA DE PROPRIETARI", "lat": 45.760839, "adresa": " CALEA CIRCUMVALATIUNII nr.12 bl.82", "data": "08.12.2011", "descriere": "Lucrari tip h) - Constructii cu caracter provizoriu - Amplasare doua panouri publicitare pe fatada cladirii, conform HCL 160/2009, pe durata contractului de inchiriere (pana la data de 27.04.2013 pentru S.C. CRESTA PRINT S.R.L.). Legalizare conf.art.28 din L50/91 act.si rep. Zona D.", "lng": 21.2191009}, {"beneficiar": "MURESAN MARIUS SORIN si sotia MURESAN ENIKO", "lat": 45.7776603, "adresa": " PERLEI nr.14 bl.B 213", "data": "22.11.2011", "descriere": "Lucrari tip a)- Consatructii pentru locuinte- Mansardare bloc in regim P+4E rezultand bloc in regim P+4E+M conform HCL 141/2007 ( 4 apartamente; Sd= 352,20 mp). Reabilitare termica. Zona D", "lng": 21.2346532}, {"beneficiar": "CHIRITA RADIN VESNA DIANA", "lat": 45.72713, "adresa": " GAVRIL MUZICESCU nr.21", "data": "22.11.2011", "descriere": "Lucrari de tip a) - Constructii pentru locuinte - Construire casa P+M - intrare in legalitate, conform Sentintei civile nr 1453/CA/2.11.2010, irevocabila (in data de 26.10.2011). Sc=58,86 mp. Sd=117,72 mp. St=346 mp.Zona C.", "lng": 21.210971}, {"beneficiar": "TOMA DAIANA IZABELA", "lat": 45.737354, "adresa": " INTRAREA SEPIA nr.13", "data": "27.12.2011", "descriere": "Lucrari de tip a) - Constructii pentru locuinte - Mansardare bloc de locuinte P+4E cu 15 apartamente, rezultand regim de inaltime P+4E+M cu 3 apartamente la mansarda si reabilitare termica, conform H.C.L. 141/2007. Su=234 mp.Zona D.", "lng": 21.235782}, {"beneficiar": "SERBAN  DORIAN -RAZVAN casatorit cu SERBAN  MARIANA", "lat": 45.758192, "adresa": " Suceava nr.15", "data": "23.12.2011", "descriere": "Lucrari de tip a).-Constructii pentru locuinte.-Locuinta colectiva in regim de inaltime P+3E cu 10 apartamente si 16 locuri de parcare PUZ aprobat prin HCL nr.280/2011,acces auto si imprejmuire teren.      Sc=400mp       Sd=1378mp         Zona C.", "lng": 21.211871}, {"beneficiar": "MERSCHAN LUDOVIC SI SOTIA MERSCHAN IULIANA ", "lat": 45.765877, "adresa": " Ovidiu Balea  nr.3/a", "data": "23.12.2011", "descriere": "Lucrari de tip a).-Desfiintare casa P+M si garaj.         Sdc=84,96mp        Sdd=159,12mp          Zona.C", "lng": 21.191913}, {"beneficiar": "PASULA DOINA si DOBRE VIORICA ELVIRA", "lat": 45.762944, "adresa": " M.KOGALNICEANU nr.3", "data": "08.12.2011", "descriere": "Lucrari tip b)- Constructii pentru comert- Schimbare destinatie casa (partial) in spatii comerciale la parterul cladirii. Zona B", "lng": 21.247245}, {"beneficiar": "S.C. CAVANARO S.R.L.", "lat": 45.7595099, "adresa": " GHEORGHE LAZAR nr.24", "data": "22.11.2011", "descriere": "Lucrari tip c) - Retele edilitare - energie electrica - Alimentare cu energie electrica prin pozare subterana. Zona B. Zona afectata de lucrari se va aduce obligatoriu la stadiul initial.", "lng": 21.2208707}, {"beneficiar": "SC IZOMETAL MAGELLAN SRL", "lat": 45.731219, "adresa": " CALEA BUZIASULUI nr.11", "data": "22.11.2011", "descriere": "Lucrari de tip c)- Retele edilitare-gaz.Bransament gaze naturale prin pozare subterana. Zona D.Zona afectata de lucrari se va aduce obligatoriu la starea initiala.", "lng": 21.2649}, {"beneficiar": "BRATU ELENA", "lat": 45.732309, "adresa": " CONSTANTIN SILVESTRI nr.7", "data": "23.12.2011", "descriere": "Lucrari de tip c)-Retele edilitare-gaz-Bransament gaze naturale prin pozare subterana.\n  Zona afectata de lucrari se va duce obligatoriu la stadiul initila.", "lng": 21.179989}, {"beneficiar": "ROTARESCU VASILE", "lat": 45.7555459, "adresa": " Banul Maracine nr.24", "data": "23.12.2011", "descriere": "Lucrari de tip a).-Demolare-Desfiintare constructii existente.    Zona C", "lng": 21.2062345}, {"beneficiar": "S.C. KASA BAT S.R.L.", "lat": 45.775633, "adresa": " CAREI nr.20", "data": "23.12.2011", "descriere": "LUCRARI TIP A) - Desfiintari - Demolare locuinta P. Zona C.", "lng": 21.218985}, {"beneficiar": "PUNGULESCU DIANA VIOLETA SI PUNGULESCU SORIN", "lat": 45.769536, "adresa": " BASARABIA  nr.64", "data": "22.12.2011", "descriere": "Lucrari tip c - Retele edilitare - gaze naturale -Bransament gaze naturale prin pozare subterana. Zona C. Zona afectata de lucrari se va aduce obligatoriu la stadiul initial.", "lng": 21.198079}, {"beneficiar": "MEREU CRISTIAN-PETRU", "lat": 45.782283, "adresa": " TUDOR ARGHEZI nr.6", "data": "08.12.2011", "descriere": "Lucrari tip a) - Locuinte - Continuare lucrari la A.C.nr.3241/08.11.2007 - Construire casa unifamiliala in regim de inaltime P+M. Zona C.", "lng": 21.231871}, {"beneficiar": "TOMUS ALEXANDRA", "lat": 45.7594, "adresa": " SUCEAVA nr.27 ap.1", "data": "08.12.2011", "descriere": "Lucrari de tip a) Demolare - Desfiintare magazie nr.1. Zona B", "lng": 21.211182}, {"beneficiar": "FUNDATIA RUDOLF STEINER TIMISOARA", "lat": 45.7340491, "adresa": " Salcamilor nr.30", "data": "08.12.2011", "descriere": "Lucrari de tip a)-Constructii pentru invatamant-Schimbare destinatie spatiu din locuinta in unitate de invatamant cu profil prescolar", "lng": 21.2309189}, {"beneficiar": "VOICA CLAUDIU-NELU si sotia  VOICA TATIANA", "lat": 45.7602005, "adresa": " GEORGE STEPHENSON nr.2", "data": "08.12.2011", "descriere": "Lucrari de tip a) Constructii pentru locuinte: Construire casa in regim Sp+P+M, Zona D, Sc=136,40 mp, Sd=300,90 mp, St=596 mp ", "lng": 21.1835289}, {"beneficiar": "SC B.A.M.T. GRUP SRL, SC OMV PETROM SA", "lat": 45.7479258, "adresa": " TUDOR VLADIMIRESCU nr.21", "data": "22.11.2011", "descriere": "Lucrari de tip c)-Retele edilitare-apa-canal-Bransament apa si Racord canal.\nZona afectata de lucrari se va aduce obligatoriu la stadiul initial.", "lng": 21.2122044}, {"beneficiar": "RUSANDA PETRU si RUSANDA ANGELICA", "lat": 45.7571532, "adresa": " 3 AUGUST 1919 nr.15 ap.1", "data": "21.11.2011", "descriere": "Lucrari de tip c)- Retele edilitare-gaz. Bransament gaze naturale prin pozare subterana. Zona B. Zona afectata de lucrari se va aduce obligatoriu la starea initiala.", "lng": 21.2459117}, {"beneficiar": "GURBAN IOAN si sotia GURBAN EUGENIA ", "lat": 45.7600115, "adresa": " MOISE DOBOSAN nr.152", "data": "22.12.2011", "descriere": "Lucrari de tip c) - Retele edilitare: gaz o?= Bransament gaze naturale prin pozare subterana. Zona afectata de lucrari se va aduce obligatoriu la stadiul initial. Zona B", "lng": 21.1807573}, {"beneficiar": "SC OMV PETROM MARKETING SRL", "lat": 45.7426801, "adresa": " Aries  nr.9", "data": "21.12.2011", "descriere": "Lucrari de tip b)-Constructii pentru servicii-Inchidere terasa partiala parter.Sc=Sd=14 mp", "lng": 21.2377284}, {"beneficiar": "KULIK GHEORGHE", "lat": 45.766687, "adresa": " CALEA DOROBANTILOR nr.53", "data": "20.12.2011", "descriere": "Lucrari tip - Retele edilitare- canal- Racord canal. Zona afectata de lucrari va fi adusa obligatoriu la stadiul initial.Zona D", "lng": 21.262325}, {"beneficiar": "ALUPEI MARIANA div.", "lat": 45.7618155, "adresa": " MATASARILOR nr.19", "data": "08.12.2011", "descriere": "Lucrari tip a)- Constructii pentru locuinte- Construire foisor din lemn (Sd=9 mp) pe teren in proprietate- intrare in legalitate cu aplicarea art.28 din Legea 50/91 rep. Zona C", "lng": 21.2612452}, {"beneficiar": "GEORGESCU CARMINA-LUCIA", "lat": 45.7719648, "adresa": " VERDI nr.6/A ap.5", "data": "18.11.2011", "descriere": "Lucrari de tip h)-Constructii cu caracter provizoriu- Amplasare firma pe fatada cladirii pe durata contractului de comodat pana in data de 10.01.2013", "lng": 21.242322}, {"beneficiar": "FAZEKAS ANDREA EVELYN", "lat": 45.743158, "adresa": " Craiova nr.7", "data": "20.12.2011", "descriere": "Lucrari de tip c)-Retele edilitare-canal.Racord canal .Zona afectata de lucrari se va aduce obligatoriu la stadiul initial.", "lng": 21.2394024}, {"beneficiar": "MEICI ANETA SI MEICI IONEL", "lat": 45.7618784, "adresa": " PELINULUI nr.8/a", "data": "20.12.2011", "descriere": "Lucrari de tip c) - Retele edilitare: gaz o?= Bransament gaze naturale prin pozare subterana. Zona afectata de lucrari se va aduce obligatoriu la stadiul initial. Zona B", "lng": 21.1846836}, {"beneficiar": "S.C. CAVANARO S.R.L.", "lat": 45.7595099, "adresa": " GHEORGHE LAZAR nr.24", "data": "08.12.2011", "descriere": "Lucrari tip c) - Retele edilitare - apa, canal - Extindere retea de apa si canal. Bransament de apa si racord canal. ZonaB.Zona afectata de lucrari se va aduce obligatoriu la stadiul initial.", "lng": 21.2208707}, {"beneficiar": "ARSENIE COSTICA si sotia ARSENIE MIHAELA MARIANA ", "lat": 45.764473, "adresa": " LEMNARI nr.1A", "data": "07.12.2011", "descriere": "Lucrari tip c)- Retele edilitare- apa, canal- Bransament apa. Racord canal. Zona afectata de lucrari va fi adusa obligatoriu la stadiul initial.Zona D", "lng": 21.282636}, {"beneficiar": "MIHAI VASILE si sotia MIHAI MARIA", "lat": 45.7617907, "adresa": " LALELELOR nr.7 ap.5", "data": "07.12.2011", "descriere": "Lucrari tip c)- Retele edilitare- apa, canal- Bransament apa. Racord canal.Zona afectata de lucrari va fi adusa obligatoriu la stadiul initial.Zona D", "lng": 21.2614128}, {"beneficiar": "E-ON GAZ  DISTRIBUTIE SA", "lat": 45.7543301, "adresa": " ION NECULCE nr.4-33", "data": "07.12.2011", "descriere": "Lucrari de tip c)-Retele edilitare-gaz. Inlocuire conducte si bransamente gaze naturale prin pozare subterana -str. Ion Neculce de la nr.4 la nr.33.  Zona D. Zona afectata de lucrari se va aduce obligatoriu la starea initiala.", "lng": 21.2553504}, {"beneficiar": "STOIANOV SAVA", "lat": 45.737196, "adresa": " CIPRIAN PORUMBESCU  nr.129", "data": "18.11.2011", "descriere": "Lucrari de tip a) - Constructii anexe - Construire anexa gospodareasca in regim P. Zona B.", "lng": 21.210487}, {"beneficiar": "S.C. TEPACOS COMPANY S.R.L.", "lat": 45.71678499999999, "adresa": " BUJORILOR  nr.157", "data": "18.11.2011", "descriere": "Lucrari de tip a) - Constructii pentru locuinte - Extindere si mansardare casa existenta P, rezultand casa in regim de inaltime P+M. Sc=122,05 mp. Sd=402,7 mp. St=723 mp.Zona C.", "lng": 21.210557}, {"beneficiar": "BORDEA IOSIF ALEXANDRU", "lat": 45.768475, "adresa": " B-DUL CETATII nr.87", "data": "19.12.2011", "descriere": "Lucrari tip c) - Retele edilitare - canal - Racord canal. Zona C.Zona afectata de lucrari se va aduce obligatoriu la stadiul initial.", "lng": 21.218183}, {"beneficiar": "MARCOVICI MARIA MARIANA", "lat": 45.765549, "adresa": " TELEGRAFULUI nr.62", "data": "07.12.2011", "descriere": "Lucrari tip c)- Retele edilitare- gaze naturale- Bransament gaze naturale prin pozare subterana. Zona afectata de lucrari va fi adusa obligatoriu la stadiul initial.Zona D", "lng": 21.255727}, {"beneficiar": "ASOCIATIA DE PROPRIETARI", "lat": 45.7507907, "adresa": " Bv.Eroilor de la Tisa nr.95", "data": "07.12.2011", "descriere": "Lucrari de tip c).-Retele edilitare-gaz.Bransament gaze naturale prin pozarte subterana.    Zona C", "lng": 21.2517592}, {"beneficiar": "VARGA CAMELIA-SNEJANA SI VARGA CLAUDIU-OVIDIU", "lat": 45.73492299999999, "adresa": " Constantin Brailoiu nr.7A", "data": "18.11.2011", "descriere": "Lucrari de tip c)-Retele edilitare-energie electrica.Extindere retea si bransament energie electrica prin pozare subterana.Zona afectata de lucrari se va aduce obligatoriu la stadiul initial.", "lng": 21.2370535}, {"beneficiar": "PINTEA ADRIAN CEZAR", "lat": 45.73794729999999, "adresa": " RUSU SIRIANU nr.2C", "data": "18.11.2011", "descriere": "Lucrari de tip c) - Retele edilitare - apa. Bransament apa. Zona afectata de lucrari se va aduce obligatoriu la stadiul initial. Zona B.", "lng": 21.2227829}, {"beneficiar": "TOLOLOI CONSTANTIN si TOLOLOI MARINELA MARIANA", "lat": 45.717576, "adresa": " BUJORILOR nr.136/A", "data": "18.11.2011", "descriere": "Lucrari de tip c) - Retele edilitare - apa, canal. Bransament apa si racord canal. Zona afectata de lucrari se va aduce obligatoriu la stadiul initial. Zona C.", "lng": 21.209944}, {"beneficiar": "NEBUNU DUMITRU, OSTAN MIHAI, CHIS GAVRIL, CATRINA VASILE, LICURICI MARIAN", "lat": 45.758321, "adresa": " ZONA  ANDREI SAGUNA  bl.A 5", "data": "19.12.2011", "descriere": "Lucrari de tip a)- Legalizare baterie 5 garaje, conf.HCL 132/2002. Zona D.", "lng": 21.256571}, {"beneficiar": "CIMPOERU ALEXANDRU", "lat": 45.7416463, "adresa": " BRANCOVEANU nr.9 ap.4", "data": "19.12.2011", "descriere": "Lucrari de tip h) - Constructii cu caraacter provizoriu - Amplasare firma pe fatada cladirii, pe durata contractului de inchiriere pana la data de 1.01.2013.- S.C. KSY-GOLD S.R.L. Zona C.", "lng": 21.2138529}, {"beneficiar": "BONATIU ELENA-MARIANA", "lat": 45.7425833, "adresa": " Anghel Saligny nr.14", "data": "19.12.2011", "descriere": "Lucrari de tip a)-Constructii pentru locuinte-Construire anexa gospodareasca in regim parter cu bucatarie de vara.Sc=Sd=43,92 mp", "lng": 21.2405108}, {"beneficiar": "PESTELEU TEODOR si PESTELEU DANIELA-DORINA", "lat": 45.7545736, "adresa": " PESTALOZZI nr.18 et.1 ap.2", "data": "16.12.2011", "descriere": "Lucrari de tip b)- Constructii pentru servicii- Schimbare destinatie spatiu din locuinta (ap.nr.2) in birouri. Zona B.", "lng": 21.2457144}, {"beneficiar": "S.C. IULIUS  REZIDENTIAL TIMISOARA S.R.L.", "lat": 45.7667292, "adresa": " DEMETRIADE nr.1", "data": "07.12.2011", "descriere": "Lucrari tip h) - Constructii cu caracter provizoriu - Amplasare patinoar si 3 casute lemn pe teren privat, pana la 15.04.2012 Zona A. Sc=1220mp", "lng": 21.2285552}, {"beneficiar": "ASOCIATIA DE PROPRIETARI VULTURILOR NR.59", "lat": 45.7358195, "adresa": " VULTURILOR nr.59 bl.C18 sc.A+B", "data": "17.11.2011", "descriere": "Lucrari de tip a)-Constructii pentru locuinte- Construire acoperis tip sarpanta cu invelitoare de tigla la bloc de locuinte in regim de inaltime P+4E conform Sentintei Civile Nr.1454/CA/02.11.2010 ramasa irevocabila in data de 03.11.2011 (referitor la nerespectare termen intrare in legalitate conform proces-verbal de constatatre a contraventie nr.161/717/12.12.2007), cerere inregistrata cu Nr. UR2010-000764 din 20.01.2010", "lng": 21.2018158}, {"beneficiar": "GAITA IOAN FABIUS,GAITA CARMEN,DINCA ION,DINCA VIORICA,MILOIA MIRCEA ZENO,MILOIA ADRIANA.", "lat": 45.7397734, "adresa": " Feldioara nr.8", "data": "17.11.2011", "descriere": "Lucrari de tip b).-Constructii pentru locuinte-Reparatii fatada (lateral stingta,lateral dreapta si posterioara)la cladirea existenta (corp C2).", "lng": 21.2278187}, {"beneficiar": "PESTELEU TEODOR si PESTELEU DANIELA DORINA", "lat": 45.7545736, "adresa": " PESTALOZZI nr.18 et.1 ap.2A1", "data": "16.12.2011", "descriere": "Lucrari de tip b)- Constructii pentru servicii- Schimbare destinatie spatiu din locuinta (ap.nr.2A1) in birouri. Zona B.", "lng": 21.2457144}, {"beneficiar": "CABINET DE AVOCAT MIREA PATRA CORINA MIRELA, POMMIER MIRUNA, POPESCU EUGEN MARIAN si POPESCU IOANA C", "lat": 45.725493, "adresa": " MUZICESCU 69", "data": "16.12.2011", "descriere": "Lucrari de tip c) - Retele edilitare - energie electrica . Bransament pentru alimentare cu energie electrica prin pozare subterana. Zona C.", "lng": 21.226362}, {"beneficiar": "S.C. ASIROM S.A.", "lat": 45.7651271, "adresa": " P-TA CONSILIUL EUROPEI nr.1", "data": "02.12.2011", "descriere": "Lucrari tip h) - C-tii cu caracter provizoriu - Amplasare doua casete luminoase pe fatada cladirii conf.HCL 160/2009 pe durata contractului de inchiriere (pana la data de 01.02.2013 - S.C UPC ROMANIA S.R.L.). Zona D.", "lng": 21.2247141}, {"beneficiar": "ASOCIATIA DE PROPRIETARI", "lat": 45.7565277, "adresa": " EUGENIU DE SAVOYA nr.7", "data": "02.12.2011", "descriere": "Lucro?=ri  tip b ) -Construco?=ii pentru locuino?=e-Interveno?=ii o?=n regim de urgeno?=o?= privind o?=nlocuirea o?=nvelitorii pe pantele dinspre curtea interioaro?= cu reparao?=ii ale o?=nvelitorii la pantele dinspre strado?=, conform art. 7 alin. 16 din Legea 50/91 rep.Zona A.", "lng": 21.229103}, {"beneficiar": "CAPETAN BACSKAI MARIUS-ROBERT", "lat": 45.756618, "adresa": " Eugeniu de Savoya nr.9", "data": "02.12.2011", "descriere": "Lucrari de tip b)- Constructii pentru locuino?=e- Reparao?=ii o?=n regim de urgeno?=o?= la o?=nvelitoarea imobilului prin o?=nlocuirea o?=iglelor  deprinse o?=i a o?=ipcilor transervale de suso?=inere, conf.art.7 alin 16 din Legea 50/1991 , Zona A", "lng": 21.2286499}, {"beneficiar": "BOTOREA NICODIM si BOTOREA LUCIA AUGUSTA ", "lat": 45.7438144, "adresa": " ODOBESCU nr.23 ap.2", "data": "02.12.2011", "descriere": "Lucrari de tip c) - Retele edilitare - gaz. Dezafectare bransament gaze naturale existent si realizare bransament gaze naturale prin pozare subterana. Zona afectata de lucrari se va aduce obligatoriu la stadiul initial. Zona B.", "lng": 21.2180147}, {"beneficiar": "STAN CONSTANTIN SI ALBU RODICA LENUTA", "lat": 45.77086, "adresa": " CALEA TORONTALULUI nr.38", "data": "17.11.2011", "descriere": "Lucrari tip d) - Imprejmuire - Imprejmuire teren pe limita de proprietate dreapta. Zona B.", "lng": 21.218301}, {"beneficiar": "ASOCIATIA DE PROPRIETARI", "lat": 45.756053, "adresa": " C. Brediceanu  nr.4", "data": "17.11.2011", "descriere": "Lucrari de tip b) - Constructii pentru locuinte si functiuni complementare -  Punerea in siguranta imobil D+P+2E ( lucrari de reparatii a unui burlan de scurgere al apelor pluviale-situat la coltul spre P-ta Libertatii si de curatire a jgheaburilor) - IN REGIM DE URGENTA  conf. L 50/91rep. art. 7, alin. 16", "lng": 21.225893}, {"beneficiar": "SC A&M AMBIENT SRL", "lat": 45.73477399999999, "adresa": " DREPTATEA  nr.18", "data": "17.11.2011", "descriere": "Lucrari de tip c)-Retele edilitare-gaz-Bransament gaze naturale prin pozare subterana.\nZona afectata de lucrari se va aduce obligatoriu la stadiul initial.", "lng": 21.199094}, {"beneficiar": "UNIVERSITATEA DE STIINTE AGRICOLE SI MEDICINA VETERINARA A BANATULUI TIMISOARA", "lat": 45.7847353, "adresa": " CALEA ARADULUI nr.119", "data": "17.11.2011", "descriere": "Lucrari tip a) - Constructii pentru culte - Continuare lucrari la A.C. 2615/18.09.2007 - Construire biserica Ortodoxa. Zona C.", "lng": 21.2172234}, {"beneficiar": "S.C. BETON HOUSE S.R.L.", "lat": 45.73648, "adresa": " RUSU SIRIANU nr.98 sc.A", "data": "16.12.2011", "descriere": "Lucrari de tip a) - Constructii pentru locuinte - Mansardare bloc de locuinte in regim de inaltime S+P+4E, rezultand S+P+4E+M( 4 apartamente la mansarda) si reabilitare termica, conform H.C.L. 141/2007. Sc=233,12 mp. Su=215 mp. Zona D.", "lng": 21.21039}, {"beneficiar": "S.C. LIDL ROMANIA SOCIETATE IN COMANDITA", "lat": 45.769186, "adresa": " MIRESEI nr.1", "data": "30.11.2011", "descriere": "Lucrari tip c) - Retele edilitare - gaz - Bransament gaze naturale prin pozare subterana. Zona B. Zona afectata de lucrari se va aduce obligatoriu la stadiul initial.", "lng": 21.2201999}, {"beneficiar": "JANAI ION-TIBERIU SI JANAI OFELIA", "lat": 45.7340166, "adresa": " Martir Gogu Opre nr.8", "data": "30.11.2011", "descriere": "Lucrari de tip c)-Retele edilitare-gaz.Bransament gaze naturale prin pozare subterana.Zona afectata de lucrari se va aduce obligatoriu la stadiul initial.", "lng": 21.1907572}, {"beneficiar": "NEGRU SERBAN MIRCEA", "lat": 45.7388055, "adresa": " Ciprian Porumbescu nr.61", "data": "30.11.2011", "descriere": "Lucrari tip h) -Constructii cu caracter provizoriu - Amplasare firma, caseta luminoasa pe fatada cladirii pe perioada contractului de inchiriere (pana la 31.12.2011).", "lng": 21.2172334}, {"beneficiar": "NASTA  NICOLAE IULIU nec. ", "lat": 45.7765397, "adresa": " CUGIR nr.5 bl.17 sc.A+B", "data": "17.11.2011", "descriere": "Lucrari tip a) - Reabilitare termica si mansardare bloc St+P+4E rezultand regim de inaltime St+P+4E+M, cu 3 apartamente la sc.A si 3 apartamente la sc.B, conform HCL141/2007. Zona D. Sc=335,5 mp", "lng": 21.2186257}, {"beneficiar": "IUHASZ IOAN si sotia IUHASZ SIMONA-MINA", "lat": 45.767455, "adresa": " LORENA nr.112", "data": "16.12.2011", "descriere": "Lucrari tip c)- Retele edilitare- gaze naturale- Bransament gaze naturale prin pozare subterana. Zona afectata de lucrari va fi adusa la stadiul initial.Zona D", "lng": 21.261325}, {"beneficiar": "BRATU PAULINA ", "lat": 45.7275266, "adresa": " Aristide Briand nr.15", "data": "16.12.2011", "descriere": "Lucrari de tip c)-Retele edilitare-apa-Bransament apa din str. Mures.Zona afectata de lucrari se va aduce obligatoriu la stadiul initial", "lng": 21.2527628}, {"beneficiar": "MAZAC ROBERT si MAZAC EMA-VERONICA", "lat": 45.7621001, "adresa": " BADEA CARTAN nr.7 et.P ap.SAD9", "data": "30.11.2011", "descriere": "Lucrari tip h)- Constructii cu caracter provizoriu- Amplasare firma luminoasa si cruce luminoasa pe fatada imobilului pe durata contractului de locatiune (pana la 13.08.2015)- SC CATENA HYGEIA SRL. Zona B", "lng": 21.2476768}, {"beneficiar": "SADOVEANU DEMETRA CORNELIA ELISABETA", "lat": 45.763769, "adresa": " CALEA GHIRODEI nr.49", "data": "29.11.2011", "descriere": "Lucrari tip c)- Retele ediliatre-apa, canal- Bransament apa si racord canal.Zona afectata de lucrari va fi adusa obligatoriu la stadiul initial.Zona C", "lng": 21.279747}, {"beneficiar": "LAPUSAN VASILE si sotia LAPUSAN IOANA", "lat": 45.7637069, "adresa": " CALEA GHIRODEI nr.65/A", "data": "29.11.2011", "descriere": "Lucrari tip c)-Retele edilitare- apa, canal- Bransament apa si racord canal.Zona afectata de lucrari va fi adusa obligatoriu la stadiul initial.Zona C", "lng": 21.2824509}, {"beneficiar": "RUDNEANU GEORGETA SI RUDNEANU DORIN", "lat": 45.7405575, "adresa": " Feldioara nr.6 ap.3", "data": "29.11.2011", "descriere": "Lucrari de tip c)-Retele edilitare-gaz.Bransament gaze naturale prin pozare subterana.Zona afectata de lucrari se va aduce obligatoriu la stadiul initial.", "lng": 21.2272597}, {"beneficiar": "DUMA GHEORGHE", "lat": 45.723456, "adresa": " VANATORILOR nr.21/B", "data": "15.11.2011", "descriere": "Lucrari de tip c) - Retele edilitare - gaz. Bransament gaze naturale prin pozare subterana. Zona afectata de lucrari se va aduce obligatoriu la stadiul initial. Zona D.", "lng": 21.224667}, {"beneficiar": "S.C. AGER MEDIA S.R.L.", "lat": 45.727508, "adresa": " INTRAREA SABINEI  nr.1", "data": "15.11.2011", "descriere": "Lucrari de tip a) - Constructii pentru locuinte - Modificare A.C. nr. 440/1.04.2010 - Mansardare bloc de locuinte in regim de inaltime S+P+4E conform H.C.L. 141/2007, rezultand S+P+4E+M (cu 4 apartamente la mansarda) si reabilitare termica - constand in modificari interioare si exterioare - intrare in legalitate conform art. 28 din Legea 50/1991 rep si act. Sd=219,82 mp. Zona D.", "lng": 21.209203}, {"beneficiar": "POPA EVA", "lat": 45.758986, "adresa": " GAROFITEI nr.1A", "data": "15.11.2011", "descriere": "Lucrari tip c)- Retele edilitare-apa- Bransament apa. Zona afectata de lucrari va fi adusa obligatoriu la stadiul initial.Zona B", "lng": 21.264188}, {"beneficiar": "TANASOGLU NICUSOR ", "lat": 45.757362, "adresa": " CEZAR BOLIAC nr.36 ap.2", "data": "15.11.2011", "descriere": "Lucrari de tip c)- Retele edilitare-gaz. Bransament gaze naturale prin pozare subterana. Zona D. Zona afectata de lucrari se va aduce obligatoriu la starea initiala.", "lng": 21.262024}, {"beneficiar": "S.C. A & V CONSTRUCT S.R.L.", "lat": 45.7729519, "adresa": " CAREI nr.8 bl.48", "data": "28.11.2011", "descriere": "Lucrari tip a) - C-tii pentru locuinte - Mansardare bloc P+4E rezultand bloc P+4E+M (4 apartamente) si reabilitare termica conf.HCL 141/2007. Zona D. Sc=266mp", "lng": 21.221155}, {"beneficiar": "GRUESCU PETRU si GRUESCU MINERVA FLORICA", "lat": 45.76978, "adresa": " MIRESEI nr.10", "data": "28.11.2011", "descriere": "Lucrari tip a) - Constructii pentru locuinte - Supraetajare cladire (corp B)existenta in regim S+P+4E rezultand cladire in regim S+P+5E. Zona C. Sc=314 mp", "lng": 21.222387}, {"beneficiar": "MURESAN MARIUS SORIN si sotia MURESAN ENIKO", "lat": 45.7773572, "adresa": " PERLEI nr.12 bl.B 214", "data": "28.11.2011", "descriere": "Lucrari tip a)- Constructii pentru locuinte- Mansardare bloc P+4E rezultand bloc in regim P+4E+M ( 4 apartamente, Sd= 352,20 mp)conform HCL 141/2007. Reabilitare termica.Zona D", "lng": 21.2344666}, {"beneficiar": "COCOTAN ANA", "lat": 45.757274, "adresa": " AGRICULTORILOR nr.1", "data": "15.11.2011", "descriere": "Lucrari de tip c) - Retele edilitare apa, canal- Bransament apa si racord canal. Zona afectata de lucrari se va aduce obligatoriu la stadiul initial. Zona D", "lng": 21.19489}, {"beneficiar": "DANILA IULIANA", "lat": 45.757274, "adresa": " AGRICULTORILOR nr.1/A", "data": "15.11.2011", "descriere": "Lucrari de tip c) - Retele edilitare apa, canal - Bransament apa si racord canal. Zona afectata de lucrari se va aduce obligatoriu la stadiul initial. Zona D", "lng": 21.19489}, {"beneficiar": "NEAGU COSMIN-NICOLAE si sotia NEAGU CARMEN", "lat": 45.7604029, "adresa": " MADRID nr.20", "data": "15.11.2011", "descriere": "Lucrari de tip c) Retele edilitare - gaz. Bransament gaze naturale prin pozare subterana.Zona afectata de lucrari se va aduce obligatoriu la stadiul initial. Zona D", "lng": 21.210787}, {"beneficiar": "MULLER ICONIE", "lat": 45.729186, "adresa": " MATEI MILLO nr.9", "data": "15.11.2011", "descriere": "Lucrari de tip c)- Retele edilitare-apa, canal. Bransament apa si racord canal. Zona D. Zona afectata de lucrari se va aduce obligatoriu la starea initiala.  ", "lng": 21.264489}, {"beneficiar": "IRIMIAS ALEXANDRU", "lat": 45.7412623, "adresa": " INDEPENDENTEI  nr.22 ap.4/2", "data": "28.11.2011", "descriere": "Lucrari de tip b) - Constructii pentru locuinte - Mansardare subapartament 4/2, rezultand P+M. Sd=40,42 mp. Zona B.", "lng": 21.2253564}, {"beneficiar": "BRADEA  PETRU  SI  FLOAREA", "lat": 45.72687699999999, "adresa": " N.COCEA nr.13", "data": "28.11.2011", "descriere": "Lucrari de tip d)-Imprejmuire parcela. Zona D.", "lng": 21.265001}, {"beneficiar": "MOTICICA MIHAI", "lat": 45.7302583, "adresa": " ARIADNA nr.26", "data": "28.11.2011", "descriere": "Lucrari de tip a) - Desfiintari - Desfiintare casa P. Sc=Sd=76,50 mp. Zona C.", "lng": 21.2174762}, {"beneficiar": "NICA REMUS si NICA ADRIANA CRISTINA", "lat": 45.7280272, "adresa": " ARIADNA  nr.52/A", "data": "28.11.2011", "descriere": "Lucrari de tip a) - Constructii pentru locuinte - Continuare lucrarri la A.C. nr. 965/27.04.2002 - Extindere imobil P existent, rezultand imobil P+1Ep.Sc=79,20 mp. Sd=158,40 mp,..Zona C.", "lng": 21.2173205}, {"beneficiar": "ASOCIATIA DE PROPRIETARI", "lat": 45.773988, "adresa": " DR.VALERIU ALACI nr.6 bl.72", "data": "25.11.2011", "descriere": "Lucrari tip a) - Locuinte - Reabilitare termica bloc existent P+4E.", "lng": 21.223958}, {"beneficiar": "S.C. AMEROM CONSTRUCT S.R.L.", "lat": 45.732945, "adresa": " BV. DAMBOVITA nr.25", "data": "14.11.2011", "descriere": "Lucrari de tip a)-Constructii pentru locuinte- Mansardare bloc de locuinte in regim de inaltime S+P+4E rezultand bloc de locuinte in regim de inaltime S+P+4E+M (cu 4 apartamente la mansarda) si reabilitare termica conform HCL 141/2007.\nSc=Sd=239,07 mp", "lng": 21.204603}, {"beneficiar": "LUPESCU DAN si sotia LUPESCU MARIA", "lat": 45.7760559, "adresa": " FELIX nr.21 bl.73 sc.B ap.1", "data": "14.11.2011", "descriere": "Lucrari tip a) - Locuinte - Construire balcon la apartamentul nr.1 conf.HCL 35/2008 pentru imbunatatirea confortului.  Zona D. Sc=4.55 mp", "lng": 21.215719}, {"beneficiar": "GHERBAN PAVEL GABRIEL,GHERBAN LOREDANA CARMEN,POPA LAURENTIU VASILE,POPA SIMONA FLORINA", "lat": 45.75723500000001, "adresa": " Vadul Crisului nr.15/A", "data": "14.11.2011", "descriere": "Obtinere A.C. - lucrari de tip a) - Constructii pentru locuinte - Construire casa bifamiliala  cu regim Sp+P+M,Intrare in legalitate conform art. 28 din L. 50/91 rep.si act.Zona D Zona D. St=444mp,Sc = 120,40 mp, Sd = 228,4 mp", "lng": 21.1893439}, {"beneficiar": "S.C.  DEVICON S.R.L.", "lat": 45.728302, "adresa": " BERZEI nr.8", "data": "14.11.2011", "descriere": "Lucrarri de tip a) - Constructii pentru locuinte - Consolidare, extindere si etajare casa existenta in regim P, rezultand casa in regim P+1E. Sc=56 mp. Sd=164 mp. Zona C.", "lng": 21.229703}, {"beneficiar": "PRODAN ILINA-DANIELA vad. ", "lat": 45.77481299999999, "adresa": " STUPARILOR nr.69", "data": "25.11.2011", "descriere": "Lucrari tip a)- Constructii pentru locuinte- Construire anexa parter ( Sc= Sd=17,85 mp). Zona D", "lng": 21.247405}, {"beneficiar": "TOPOR CRISTINA ELISABETA nec.", "lat": 45.761291, "adresa": " MOISE DOBOSAN nr.31/B ap.3", "data": "25.11.2011", "descriere": "Lucrari de tip c) - Retele edilitare apa, canal- Extindere retea apa si canal.Bransament apa si racord canal la apt.3. Zona afectata de lucrari se va aduce obligatoriu la stadiul initial. Zona D", "lng": 21.200455}, {"beneficiar": "BUDA CORNEL si sotia BUDA DANIELA SIMONA", "lat": 45.761291, "adresa": " MOISE DOBOSAN nr.31/B ap.1/B", "data": "25.11.2011", "descriere": "Lucrari de tip c) - Retele edilitare apal- Bransament apa la ap.1/B.  Zona afectata de lucrari se va aduce obligatoriu la stadiul initial. Zona D", "lng": 21.200455}, {"beneficiar": "ASOCIATIA DE PROPRIETARI", "lat": 45.728867, "adresa": " CALEA SAGULUI nr.68", "data": "25.11.2011", "descriere": "Lucrari de tip a)-Constructii pentru locuinte- Reabilitare (anvelopare) termica bloc existent.\n", "lng": 21.20517}, {"beneficiar": "ADMINISTRATIA .BAZINALA DE APE BANAT", "lat": 45.7440894, "adresa": " MIHAI VITEAZUL; nr.32", "data": "25.11.2011", "descriere": "Lucrari de tip b) - Constructii pentru servicii - Acoperire si amenajare terasa existenta. Sd=79 mp. Zona B.", "lng": 21.225309}, {"beneficiar": "SILADI DAN STEFAN si sotia SILADI CARMEN RODICA", "lat": 45.767024, "adresa": " LORENA nr.39", "data": "14.11.2011", "descriere": "Lucrari tip a) si d)- Constructii pentru locuinte- Construire garaj si imprejmuire. Zona C", "lng": 21.257594}, {"beneficiar": "PAVELOIU ION si sotia PAVELOIU ANA", "lat": 45.76354, "adresa": " CALEA GHIRODEI nr.124", "data": "14.11.2011", "descriere": "Lucrari tip a) Constructii pentru locuinte- Construire imprejmuire teren cu acces auto si pietonal. Zona D", "lng": 21.285893}, {"beneficiar": "STANGU VASILE PETRU si STANGU MARIA", "lat": 45.721918, "adresa": " BUJORILOR nr.77 ap.4", "data": "14.11.2011", "descriere": "Lucrari de tip a) - Constructii pentru locuinte - Amenajare grup sanitar la ap. 4. Su=1,67 mp. Zona C.", "lng": 21.207556}, {"beneficiar": "ASOCIATIA DE PROPRIETARI", "lat": 45.779352, "adresa": " CALEA SEVER BOCU bl.304", "data": "25.11.2011", "descriere": "Lucrari tip a)- Constructii pentru locuinte- Construire acoperis tip sarpenta din lemn cu invelitoare din tigla ceramica la bloc existent P+4E. Zona D", "lng": 21.2347569}, {"beneficiar": "CONSILIUL JUDETEAN TIMIS", "lat": 45.7560532, "adresa": " Bd. REVOLUTIEI din 1989 nr.17", "data": "25.11.2011", "descriere": "Lucrari tip b)- Constructii pentru institutii-  Interventii de urgenta privind punerea in siguranta a aticului, a corniselor si a tencuielilor exterioare, inlocuirea jgheaburilor si burlanelor degradate, conform prevederilor art.7 alin.16 din Legea 50/91 rep. Zona M.I.", "lng": 21.2375829}, {"beneficiar": "LORINCZ ARTUR si sotia LORINCZ MARIA ", "lat": 45.7612054, "adresa": " STEPHENSON nr.12", "data": "24.11.2011", "descriere": "Lucrari de tip c) - Retele edilitare canal- Racord canal. Zona afectata de lucrari se va aduce obligatoriu la stadiul initial. Zona C", "lng": 21.1834233}, {"beneficiar": "GRIGORINCU DORIN si sotia GRIGORINCU LACRIMIOARA ", "lat": 45.762324, "adresa": " MATRAGUNEI nr.42", "data": "24.11.2011", "descriere": "Lucrari tip c)- Retele edilitare- canal. Racord canal. Zona C", "lng": 21.281702}, {"beneficiar": "GAPSA ALEX SI TOTH RADU-OCTAVIAN", "lat": 45.732858, "adresa": " TEATRULUI nr.2 bl.D33/A", "data": "14.11.2011", "descriere": "Lucrari de tip a)-Constructii pentru locuinte-Mansardare bloc de locuinte in regim de inaltime S+P+4E rezultand bloc de locuinte in regim de inaltime S+P+4E+M (cu 4 apartamente la mansarda) si reabilitare termica conform HCL 141/2007.\nSc=Sd=280 mp", "lng": 21.201479}, {"beneficiar": "STANGU VASILE PETRU si STANGU MARIA", "lat": 45.721918, "adresa": " BUJORILOR nr.77 ap.4", "data": "11.11.2011", "descriere": "Lucrari de tip a) - Constructii pentru locuinte - Modificari exterioare ( realizare acces din exterior) la ap. 4.- intrare in legalitate conform art. 28 din Legea 50/1991 rep si act.  Zona C.", "lng": 21.207556}, {"beneficiar": "BURDEA CRISTIAN OVIDIU si BURDEA CRISTINA PAULA ", "lat": 45.75788600000001, "adresa": " Agricultorilor nr.10", "data": "11.11.2011", "descriere": "Lucrari de tip c) - Retele edilitare - apa,canal.Bransament apa si racord canal.Zona afectata de lucrari se va aduce obligatoriu la stadiul initial. Zona D", "lng": 21.1947009}, {"beneficiar": "POPOVICI LAZAR SI POPOVICI VIORICA", "lat": 45.7703412, "adresa": " MUNTENIEI nr.45", "data": "11.11.2011", "descriere": "Lucrari tip c) - Retele edilitare - apa, canal - Bransament apa si racord canal. Zona C.Zona afectata de lucrari se va aduce obligatoriu la stadiul initial", "lng": 21.2082075}, {"beneficiar": "S.C. KEVIN & ARMANDO CO S.R.L.", "lat": 45.7296988, "adresa": " MURES nr.43", "data": "22.11.2011", "descriere": "Lucrari de tip c) - Retele edilitare - energie electrica . Alimentare cu energie electrica prin pozare subterana. Zona afectata de lucrarr se va aduce obligatoriu la stadiul initial. Zona C.", "lng": 21.2205237}, {"beneficiar": "GONDI RODICA MARIOARA", "lat": 45.738453, "adresa": " CRIZANTEMELOR nr.4", "data": "11.11.2011", "descriere": "Lucrari de tip c)-Retele edilitare-gaz-Extindere retea gaze naturale si bransament gaze naturale prin pozare subterana.\nZona afectata de lucrari se va aduce obligatoriu la stadiul initial", "lng": 21.203826}, {"beneficiar": "UNIVERSITATEA POLITEHNICA TIMISOARA", "lat": 45.724676, "adresa": " Gavril Muzucescu nr.138", "data": "11.11.2011", "descriere": "Lucrari de tip c)-Retele edilitare-gaz.Bransament gaze naturale prin pozare subterana.Zona afectata de lucrari se ca aduce obligatoriu la stadiul initial.", "lng": 21.23369}, {"beneficiar": "ZLATARU LUBITA", "lat": 45.748179, "adresa": " EMANOIL GOJDU nr.16 ap.1 ", "data": "11.11.2011", "descriere": "Lucrari de tip c)-Retele edilitare-apa-canal-Reamplasare bransament apa si racord canal.\nZona afectata de lucrari seva aduce obligatoriu la stadiul initial.", "lng": 21.213758}, {"beneficiar": "VERESTEK CLAUDIU", "lat": 45.74668399999999, "adresa": " ALBASTRELELOR nr.93", "data": "11.11.2011", "descriere": "Lucrari de tip c) Retele edilitare-apa. Bransament apa. Zona C. Zona afectata de lucrari se va aduce obligatoriu la starea initiala.", "lng": 21.280379}, {"beneficiar": "ASOCIATIA DE PROPRIETARI ", "lat": 45.7565277, "adresa": " Eugeniu de Savoya nr.7", "data": "11.11.2011", "descriere": "Lucrari de tip c) Retele edilitare- gaz.Bransament gaze naturale prin pozare subterana. Zona afectata de lucrari se va aduce obligatoriu la stadiul initial.Zona A.", "lng": 21.229103}, {"beneficiar": "SERBAN GHEORGHE,SERBAN MARIA, SERBAN GHEORGHE ZENO ", "lat": 45.7688569, "adresa": " BASARABIA nr.47", "data": "11.11.2011", "descriere": "Lucrari tip c) - Retele edilitare - canal - Racord canal. Zona C. Zona afectata de lucrari se va aduce obligatoriu la stadiul initial ", "lng": 21.200493}, {"beneficiar": "GHIURCO IOAN SI GHIURCO- POPA CLAUDIA -GABRIELA", "lat": 45.750609, "adresa": " GRADINARILOR nr.12", "data": "11.11.2011", "descriere": "Lucrari de tip c)- Retele edilitare-apa, canal. Bransament apa si racord canal. Zona D. Zona afectata de lucrari se va aduce obligatoriu la starea initiala.", "lng": 21.287411}, {"beneficiar": "RUS VERONA ", "lat": 45.73631100000001, "adresa": " POGONICI nr.2 sc.B ap.1", "data": "11.11.2011", "descriere": "Lucrari de tip c)-Retele edilitare-gaz-Deviere traseu retea gaze naturale prin pozare supraterana pe fatada blocului.\n", "lng": 21.204592}, {"beneficiar": "GONCIULEA LEONARD-SERGIU SI GONCIULEA IONELA EUGENIA", "lat": 45.776297, "adresa": " CAREI nr.28 sc.B ap.1", "data": "11.11.2011", "descriere": "Lucrari tip c) - Retele edilitare - Deviere conducta distributie gaze naturale cu presiune redusa pe fatada cladirii. Zona D.", "lng": 21.218515}, {"beneficiar": "S.C. BETON HOUSE S.R.L.", "lat": 45.73648, "adresa": " RUSU SIRIANU nr.98 sc.B", "data": "10.11.2011", "descriere": "Lucrari de tip a) - Constructii pentru locuinte - Mansardare bloc de locuinte in regim de inaltime S+P+4E, rezultand S+P+4E+M (4 apartamente la mansarda) si reabilitare termica, conform H.C.L. 141/2007. Sc=233,12 mp. Su=214 mp. Zona D.", "lng": 21.21039}, {"beneficiar": "ALI  MONICA  DIANA si ALI  MOHAMMAD", "lat": 45.726552, "adresa": " IZLAZ nr.4", "data": "10.11.2011", "descriere": "Lucrari de tip a) - Constructii pentru locuinte - Modificare A.C. nr 1213/5.08.2010 prin modificarea regimului de inaltime din P+M in P+1E si construire anexa gospodareasca P - intrare in legalitate conform art. 28 din Legea 50/1991 rep si act. Sc=117,30 mp. Sc anexa=12,50 mp. Sd=249,40 mp.St=374 mp. Zona C.", "lng": 21.214261}, {"beneficiar": "BADESCU GHEORGHE si BADESCU MONICA", "lat": 45.725038, "adresa": " HERCULANE nr.15 ap.6", "data": "10.11.2011", "descriere": "Lucrari de tip a) - Constructii pentru locuinte - Modificari exterioare (inchidere balcon) la ap. 6, pentru imbunatatirea confortului. Zona C.", "lng": 21.210852}, {"beneficiar": "RADIN MILAN SI NOGUEIRA MARLISE", "lat": 45.752759, "adresa": " Piatra Craiului  nr.3 sc.E et.1 ap.7", "data": "10.11.2011", "descriere": "Lucrari de tip b) Constructii pentru locuinte-Modificari interioare(demolare pereti neportanti, schimbare gresie, faianta,pardoseala) si exterioare (inlocuire tamplarie) la ap.7 pentru imbunatatirea confortului. Zona A", "lng": 21.223942}, {"beneficiar": "GRADINARIU DOMNICA", "lat": 45.730227, "adresa": " ULPIA TRAIANA nr.75", "data": "10.11.2011", "descriere": "Lucrari de tip a) - Constructii pentru locuinte - Manasardare partiala casa P, rezultand casa P+Mp. Sd=70,58 mp. St=564 mp. Zona C.", "lng": 21.226329}, {"beneficiar": "SAZSAN DUSCA  si sotul SAZSAN LIUBISA", "lat": 45.774639, "adresa": " ORSOVA nr.24 sc.A", "data": "10.11.2011", "descriere": "Lucrari tip a) -locuinta - Modificari interioare si exterioare in vederea amenajerii unei garsoniere, schimbare destinatie din uscatorie si magazie in locuinta, fara desfiintarea totala a accesului secundar si construire balcon conf.HCL 35/2008 pentru imbunatatirea confortului.Zona D Sc=25.82 mp", "lng": 21.216383}, {"beneficiar": "BRELIANU CIPRIAN", "lat": 45.7497698, "adresa": " Liman nr.9", "data": "10.11.2011", "descriere": "Obtinere A.C. - lucrari de tip a) - Constructii pentru locuinte - Construire casa in regim P+1E;construire anexa gospodareasca P si garaj . Zona D. St=1150mp,Sc = 248,90 mp, Sd = 432,50 mp", "lng": 21.1814006}, {"beneficiar": "PIROSICIU DOREL SI PIROSICIU SNEJANA", "lat": 45.7298509, "adresa": " FRUCTELOR nr.6 sc.A+B+C+D", "data": "09.11.2011", "descriere": "Lucrari de tip a)-Constructii pentru locuinte- Etajare bloc de locuinte S+P+4E rezultand bloc de locuinte in regim de inaltime S+P+5E  (14 apartamente la etaj, sc.A-4 ap, sc,B-4 ap, sc.C-2 ap, sc.D-4 ap. ) si reabilitare termica.\nSc=Sd=1064,20 mp", "lng": 21.202703}, {"beneficiar": "SLAPANSKY MARIUS si SUTTYAK ANNEMARIE ALICE", "lat": 45.759372, "adresa": " Ion Ratiu nr.5", "data": "08.11.2011", "descriere": "Lucrari de tip a) - Constructii pentru locuinte - Continuare lucrari la AC nr.194 din 19.02.2010-extindere si etajare casa in regim P rezultand  .P+1E. Demolare partiala.Zona C. St = 279mp, Sc = 93,53 mp, Sd = 93,53mp.", "lng": 21.197034}, {"beneficiar": "S.C. IMOBILIARA GIANNI TONELLI S.R.L.", "lat": 45.718474, "adresa": " A.P. CEHOV nr.68", "data": "08.11.2011", "descriere": "Lucrari de tip a) - Constructii pentru locuinte colective si comert/servicii - Construire ansamblu rezidential (2 corpuri) in regim de inaltime S+P+2E+M, cu functiuni complementare la parter, 36 apartamente si 43 locuri de parcare la subsol, conform P.U.Z. aprobat prin H.C.L. 406/20.11.2009. Lucrari de tip d) - Imprejmuiri - Imprejmuire teren , realizare acces auto si pietonal. Sc=771,66 mp. Sd=3042,84 mp. St=2005 mp.Zona D.", "lng": 21.230737}, {"beneficiar": "BALAS VIRGIL SI BALAS VIRGIL JR.", "lat": 45.7422015, "adresa": " Mihai Viteazu nr.21", "data": "08.11.2011", "descriere": "Lucrari de tip b).-Constructii pentru locuinte-Extindere ap.2 in cladire existenta P+1E cu corp P+2E cu garaj dublu la parter.          Sc=58,72mp          Sd=181mp            Steren=397mp        Zona C.", "lng": 21.2261604}, {"beneficiar": "GHERGHEL OVIDIU GABRIEL si GHERGHEL TELITA", "lat": 45.7324394, "adresa": " C. BRANCOVEANU  nr.99a", "data": "07.11.2011", "descriere": "Lucrari de tip a) - Constructii pentru locuinte si comert - Modificare A.C. nr. 945/29.06.2010 - Modificari interioare si exterioare la casa P+1E, rezultand spatiu comercial la parter si locuinta la etaj. Sc=68,84 mp. Sd=205,86 mp. St=358 mp. Zona C.", "lng": 21.2190755}, {"beneficiar": "SC CONTINENTAL SRL", "lat": 45.7553011, "adresa": " B-dul Revolutiei  nr.5", "data": "07.11.2011", "descriere": "Lucrari de tip h) Constructii cu caracter provizoriu - Amplasare firma pe fatada cladirii. Zona A", "lng": 21.2324307}, {"beneficiar": "SC CENTRAL PARK SA", "lat": 45.7541607, "adresa": " Paris nr.2A", "data": "07.11.2011", "descriere": "Lucrari de tip c) Retele edilitare -energie electrica.Alimentare cu energie electrica spor de putere prin pozare subterana.Zona A .Zona afectata de lucrari se va aduce obligatoriu la starea initiala.", "lng": 21.2236325}, {"beneficiar": "CHIARANI ENRICO", "lat": 45.7511579, "adresa": " P-ta Victoriei  nr.7 et.IV ap.27", "data": "07.11.2011", "descriere": "Lucrari de tip b) Constructii pentru locuinte-Modificari interioare si exterioare prin(inlocuire tamplarie, gresie, faianta si zugravit) la ap.nr.27. Zona A", "lng": 21.22557}, {"beneficiar": "CNCF \"CFR\"SA , SUCURSALA REGIONALA CFR TIMISOARA", "lat": 45.749894, "adresa": " Garii nr.2", "data": "07.11.2011", "descriere": "Lucrari de tip a) - Constructii pentru transporturi - continuare lucrari la AC nr.1653/01.08.2005-modernizarea spatiilor cladire calatori in statia calatori Timisoara Nord, Zona C. St = 319932mp, .", "lng": 21.204694}, {"beneficiar": "CHIRITOIU LUCIAN", "lat": 45.7313649, "adresa": " ELECTRONICII nr.14/A", "data": "07.11.2011", "descriere": "Lucrari de tip a)- Constructii pentru locuinte- Construire casa familiala in regim de inaltime P+1E . Lucrari de tip d)- Imprejmuire- Imprejmuire teren. Zona D. Scd=175,96 mp; Sc=87,98 mp.", "lng": 21.258132}, {"beneficiar": "COJOCARU SORIN si COJOCARU VIOLETA-LUCIA", "lat": 45.7262686, "adresa": " PANSELELOR nr.75", "data": "07.11.2011", "descriere": "Lucrari de tip a) - Constructii pentru servicii - Construire cladire birou, in regim de inaltime P. Sc=Sd=49,35 mp.Zona C.", "lng": 21.2197811}, {"beneficiar": "NAN GABRIELA OTILIA SI NAN GHEORGHE", "lat": 45.78194, "adresa": " Armoniei nr.1", "data": "07.11.2011", "descriere": "Lucrari de tip a) si d)-C-tii pentru locuinta si imprejmuire-Construire  locuinta in regim P+1E.Imprejmuire partiala (la strada).Sc=129,70 mp;Sd=239,46 mp;St=595 mp", "lng": 21.229605}, {"beneficiar": "BOBERNAC DORU si BOBERNAC ALEXANDRU", "lat": 45.717645, "adresa": " CHISODEI nr.77", "data": "04.11.2011", "descriere": "Lucrari de tip d) - Imprejmuire - Realizare imprejmuire pe limitele laterale - intrare in legalitate conform art. 28 din Legea nr 50/1991 rep si act. Refacere imprejmuire in spatele proprietatii. Zona C.", "lng": 21.213391}, {"beneficiar": "PACURAR IOAN si PACURAR AURELIA", "lat": 45.7665549, "adresa": " ALPINISTILOR nr.13/a", "data": "04.11.2011", "descriere": "Lucrari tip a)- Constructii pentru locuinte- Modificari interioare, exterioare si mansardare casa P existenta rezultand casa in regim P+M (Sm= 89,30 mp). Zona B", "lng": 21.265187}, {"beneficiar": "CIOCLOV ALEXANDRA si CIOCLOV ROXANA", "lat": 45.72443699999999, "adresa": " VANATORILOR nr.11", "data": "04.11.2011", "descriere": "Lucrari de tip a) - Desfiintari - Desfiintare casa existenta P. Sc=Sd=73,50 mp.Zona C.", "lng": 21.224931}, {"beneficiar": "MOCAN  FLOARE ,MOCAN ION  SI DRAGULESCU  ANA", "lat": 45.768137, "adresa": " CALEA LIPOVEI nr.23", "data": "04.11.2011", "descriere": "Lucrari de tip a)-Constructii pentru locuinte- Mansardare bloc de locuinte in regim de inaltime S+P+4E rezultand bloc de locuinte in regim de inaltime S+P+4E+M (cu 4 apartamente la mansarda) si reabilitare termica conform HCL 141/2007.\nSc=Sd=235,35 mp", "lng": 21.225007}, {"beneficiar": "MARES  RAFAEL  CEZAR", "lat": 45.728942, "adresa": " FRATERNITATII nr.1/A bl.D5/a", "data": "04.11.2011", "descriere": "Lucrari de tip a)-Constructii pentru locuinte- Mansardare bloc de locuinte in regim de inaltime S+P+4E, rezultand bloc de locuinte in regim de inaltime S+P+4E+M (cu 4 apartamente la mansarda) si reabilitare termica conform HCL 141/2007.\nSc=Sd=238,0 mp", "lng": 21.202518}, {"beneficiar": "ZAHARIA MIOARA MONICA si ZAHARIA GHIORGHITA", "lat": 45.740676, "adresa": " IULIU MANIU nr.10", "data": "04.11.2011", "descriere": "Lucrari de tip h)-Constructii cu caracter provizoriu - Amplasare firma luminoasa pe fatada cladirii.", "lng": 21.208918}, {"beneficiar": "SCHIPOR DOMNICA", "lat": 45.76035, "adresa": " ION CREANGA nr.22 bl.T24 ap.3", "data": "04.11.2011", "descriere": "Lucrari de tip b)- Locuinta- Construire balcon la ap.3 pentru imbunatarirea confortului, conf.HCL35/2008. Zona D.", "lng": 21.253749}, {"beneficiar": "GALAI  CORNELIU si GALAI AURELIA", "lat": 45.7625603, "adresa": " Pelinului nr.12/b", "data": "04.11.2011", "descriere": "Lucrari de tip a) - Constructii pentru locuinte - Modificari exterioare(modificare acoperis). Zona C. St =1449 mp, Sc = 108 mp, Sd = 108 mp.", "lng": 21.1845717}, {"beneficiar": "CHIRILA GABRIELA SI CHIRILA VALENTIN DUMITRU", "lat": 45.732694, "adresa": " Nicolae Iliesu nr.14 bl.E11 sc.B et.P ap.1", "data": "04.11.2011", "descriere": "Lucrari de tip a).-Constructii pentru sanatate-Schimbare destinatie spatiu din locuinta in cabinet stomatologic.Modificari interioare. Lucrari de tip h).Constructii cu caracter proviszoriu-Amplasare firma pe fatada pe durata contractului de inchiriere.              Zona C.", "lng": 21.232625}, {"beneficiar": "CONSILIUL JUDETEAN TIMIS", "lat": 45.764137, "adresa": " AMFOREI nr.6", "data": "04.11.2011", "descriere": "Lucrari tip a) - Lucrari de reparatii pod si termoizolare tavan. Zona D.", "lng": 21.215546}, {"beneficiar": "MARINESCU VASILE SI MARIA ", "lat": 45.7274719, "adresa": " Aristide Briand nr.10", "data": "03.11.2011", "descriere": "Lucrari de tip c).-Retele edilitare-apa,canal-Extindere retea apa,bransament apa.      Zona C.", "lng": 21.2520965}, {"beneficiar": "STAMOREAN DANIEL, CIFOR CRISTIAN si sotia CIFOR CLAUDIA MONIA, , BLOJU COSMIN SANDU si BLOJU CRISTIA", "lat": 45.766609, "adresa": " LORENA nr.56", "data": "03.11.2011", "descriere": "Lucrari tip c)- Retele edilitare- energie electrica- Alimentare cu energie electrica prin pozare subterana.Zona afectata de lucrari va fi adusa obligatoriu la stadiul initial.Zona B", "lng": 21.255446}, {"beneficiar": "TUHEGYI ELISABETA", "lat": 45.748389, "adresa": " APATEU nr.26/a", "data": "03.11.2011", "descriere": "Lucrari de tip c)- Retele edilitare-apa, canal. Bransament apa si racord canal. Zona D. Zona afectata de lucrari se va aduce obligatoriu la starea initiala.", "lng": 21.260386}, {"beneficiar": "POENARU  LAURA  SI  MEICI  MARIUS", "lat": 45.77761839999999, "adresa": " Constantin cel Mare nr.101 bl.253", "data": "03.11.2011", "descriere": "Lucrari de tip a)-Constructii pentru locuinte.Mansardare bloc de locuinte in regim de inaltime S+P+4E conform H.C.L .nr.141/2007 rezultand bloc de locuinte in regim S+P+4E+M cu 4 apartamente la mansarda si reabilitare termica.Sc=Sd=273,64mp;St=358 mp", "lng": 21.2373394}, {"beneficiar": "MIHAJLOVIC VIDOSAV si MIHAJLOVIC DORINA", "lat": 45.72327300000001, "adresa": " VANATORILOR  nr.26", "data": "02.11.2011", "descriere": "Lucrari de tip c) - Retele edilitare - apa, canal. Bransament apa si racord canal. Zona afectata de lucrari se va aduce obligatoriu la stadiul initial. Zona D.", "lng": 21.224746}, {"beneficiar": "BALINTONI GIULIANO", "lat": 45.723628, "adresa": " Gospodarilor nr.7", "data": "31.10.2011", "descriere": "Lucrari de tip c).-Retele edilitare-gaz.Bransamentgaze naturale prin pozare subterana      Zona C.", "lng": 21.2392359}, {"beneficiar": "SC TIM HB SRL", "lat": 45.7785182, "adresa": " Calea Aradului nr.56/A", "data": "31.10.2011", "descriere": "Lucrari de tip c)-Retele edilitare-energie electrica.Alimentare cu energie electrica prin pozare subterana.Zona afectata de lucrari se va aduce obligatoriu la stadiul initial.", "lng": 21.2120382}, {"beneficiar": "RAIN DANUT IOAN si RAIN TATIANA", "lat": 45.7713068, "adresa": " Molidului nr.2", "data": "31.10.2011", "descriere": "Lucrari de tip c)-Retele edilitare-apa,canal.Bransament apa si racord canal.Zona afectata de lucrari se va aduce obligatoriu la stadiul initial.", "lng": 21.2417466}, {"beneficiar": "FAZEKAS ANDREA EVELYN", "lat": 45.743158, "adresa": " Craiova nr.7", "data": "31.10.2011", "descriere": "Lucrari de tip c).-Retele edilitare--gaz.Bransament gaze naturale prin pozare subterana.     Zona c.", "lng": 21.2394024}, {"beneficiar": "SC AQUATIM SA", "lat": 45.7343657, "adresa": " Aleea Azurului nr.5-7", "data": "31.10.2011", "descriere": "Lucrari de tip c).-Retele edilitare-apa.Reamplasare conducta apa si canal Bl.11,12 Aleea Azurului  Nr.5-7   Zona C.", "lng": 21.2504894}, {"beneficiar": "SIGHIARTAU ANA , PASCAR IOAN- CATALIN , BALC RAMONA LILIANA", "lat": 45.726273, "adresa": " EMIL RACOVITA nr.25", "data": "31.10.2011", "descriere": "Lucrari de tip c)- Retele edilitare-apa. Bransament apa. Zona D. Zona afectata de lucrari se va aduce obligatoriu la starea initiala.", "lng": 21.26405}, {"beneficiar": "SAS DAN MARCEL SI RODICA MARCELA", "lat": 45.750727, "adresa": " GRADINARILOR nr.8", "data": "31.10.2011", "descriere": "Lucrari de tip c)- Retele edilitare-gaz. Bransament gaze naturale prin pozare subterana. Zona D. Zona afectata de lucrari se va aduce obligatoriu la starea initiala.", "lng": 21.286934}, {"beneficiar": "BELANCO STEFAN JUNIOR", "lat": 45.76753, "adresa": " ALPINISTILOR nr.20", "data": "31.10.2011", "descriere": "Lucrari tip c)- Retele edilitare- gaz. Bransament gaze naturale prin pozare subterana. Zona D", "lng": 21.26517}, {"beneficiar": "MOLDOVAN MIHAELA DANIELA SI MOLDOVAN RADU DORIN", "lat": 45.728049, "adresa": " CONSTATNTIN DANIEL nr.7", "data": "31.10.2011", "descriere": "Lucrari de tip c)-Retele edilitare-canal-Racord canal\nZona afectata de lucrari se va aduce obligatoriu la stadiul initial", "lng": 21.188768}, {"beneficiar": "IANC MIHAI si sotia IANC DORINA", "lat": 45.76605199999999, "adresa": " CLOSCA nr.68", "data": "31.10.2011", "descriere": "Lucrari tip a)- Constructii pentru locuinte- Demolare casa in regim P. Zona B", "lng": 21.199136}, {"beneficiar": "ETEM ERROL", "lat": 45.74407009999999, "adresa": " ODOBESCU nr.12", "data": "31.10.2011", "descriere": "Lucrari de tip d) - Imprejmuiri - Imprejmuire teren si realizare 2 accese auto. Zona B.", "lng": 21.2162026}, {"beneficiar": "CONSILIUL JUDETEAN TIMIS", "lat": 45.755747, "adresa": " TITU MAIORESCU nr.6", "data": "31.10.2011", "descriere": "Lucrari de tip b)- Constructii pentru invatamant- Reabilitare termica cladire cantina.Zona C.", "lng": 21.252252}, {"beneficiar": "NOVACESCU CONSTANTIN si NOVACESCU LUCIA ALEXANDRINA VALERIA", "lat": 45.7430543, "adresa": " CORIOLAN BARAN nr.11", "data": "28.10.2011", "descriere": "Lucrari de tip d) - Imprejmuire- Realizare imprejmuire. Zona B.", "lng": 21.2225617}, {"beneficiar": "BRADU ADRIAN SI BRADU ALINA AUGUSTINA", "lat": 45.7317804, "adresa": " NICOLAE ANDREESCU nr.71", "data": "28.10.2011", "descriere": "Lucrari de tip a)-Constructii pentru locuinte- Construire casa unifamiliala in regim de inaltime P.\nLucrari de tip d)- Imprejmuiri - Imprejmuire teren.\nSc=107,47mp , Sd=107,47mp", "lng": 21.1889092}, {"beneficiar": "CHELCIOV PETRU si sotia CHELCIOV SILVANA - RAMONA", "lat": 45.757059, "adresa": " BOBALNA nr.6", "data": "27.10.2011", "descriere": "Lucrari tip a)- Constructii pentru locuinte- Mansardare casa parter existenta rezultand casa P+M (Sd= 75,62 mp). Zona C", "lng": 21.274936}, {"beneficiar": "POPOVICI CAMELIA IVONA", "lat": 45.7785182, "adresa": " TIMIS nr.22 bl.22 sc.A ap.1", "data": "27.10.2011", "descriere": "Lucrari tip a) - C-tii pentru locuinte - Construire doua balcoane la ap.1 pentru imbunatatirea confortului conf.HCL35/2008. Zona D.", "lng": 21.2120382}, {"beneficiar": "CUC MIRCEA GHEORGHE si sotia CUC MARIOARA", "lat": 45.765694, "adresa": " ALPINISTILOR nr.4/a", "data": "27.10.2011", "descriere": "Lucrari tip a)- Constructii pentru locuinte-Modificare A.C. nr. 496/ 13.04.2011- Demolare partiala, reconstruire, etajare si mansardare casa rezultand casa in regim P+1E+M- Schimbare solutie constructiva intre ax 1 si ax 4. Zona C", "lng": 21.265426}, {"beneficiar": "CIOC ALEXANDRU SORIN, CIOC DOINA", "lat": 45.7313514, "adresa": " Iris nr.13", "data": "27.10.2011", "descriere": "Lucrari de tip a).-Constructii pentru comert si servicii-schimbare destinatie(partiala) din casa in spatiu pentru birouri,spatiu comercial.         Sdest.=254mp          Zona C", "lng": 21.2107274}, {"beneficiar": "LUPSE DORU EUGEN si LUPSE VIORICA IBOLYA", "lat": 45.746955, "adresa": " GH. DOJA nr.7", "data": "27.10.2011", "descriere": "Lucrari de tip b) - Constructii pentru locuinte - Lucrari de interventii in regim de urgenta, constand in inlocuirea tiglelor desprinse si a sipcilor transversale de sustinere, la invelitoarea imobilului din str Gh. Doja nr 7, conform Legii nr 50/1991 rep si act, art. 7, alin (16). Zona B. ", "lng": 21.2203726}, {"beneficiar": "PISDIRCA LUCIAN si PISDIRCA MONICA GABRIELA", "lat": 45.755061, "adresa": " Calea Bogdanestilor. nr.96", "data": "25.10.2011", "descriere": "Lucrari de tip c) - Retele edilitare - apa,canal.Bransament apa si racord canal.Zona afectata de lucrari se va aduce obligatoriu la stadiul initial. Zona C", "lng": 21.1916559}, {"beneficiar": "PRAVAT ADRIAN si PRAVAT FELICIA", "lat": 45.754035, "adresa": " Sinaia nr.2", "data": "25.10.2011", "descriere": "Lucrari de tip c) - Retele edilitare - apa.Bransament apa .Zona afectata de lucrari se va aduce obligatoriu la stadiul initial. Zona C", "lng": 21.21314}, {"beneficiar": "UZONI ELENA SI UZONI GHEORGHE IULIAN", "lat": 45.743591, "adresa": " PREYER nr.1/A ap.6", "data": "25.10.2011", "descriere": "Lucrari de tip c)-Retele edilitare-gaz- Bransament gaze naturale prin pozare supraterana. \nZona afectata de lucrari se va aduce obligatoriu la stadiul initial.", "lng": 21.206494}, {"beneficiar": "BENYI ALINA SIMONA si BENYI GABRIEL ", "lat": 45.722096, "adresa": " PROGRESUL nr.47", "data": "25.10.2011", "descriere": "Lucrari de tip c) - Retele edilitare - gaz. Bransament gaze naturale prin pozare subterana. Zona afectata de lucrari se va aduce obligatoriu la stadiul initial. Zona C.", "lng": 21.221145}, {"beneficiar": "ARGHIUS MARIA", "lat": 45.7623279, "adresa": " Mircea cel Batran nr.75", "data": "25.10.2011", "descriere": "Lucrari de tip c). - Retele edilitare- gaz- Bransament gaze naturale prin pozare subterana.Zona afectata de lucrari se va aduce obligatoriu la stadiul initial. Zona : D", "lng": 21.200304}, {"beneficiar": "VUIA VIOREL si COLDEA VIOREL ", "lat": 45.763076, "adresa": " PRIETENIEI nr.8", "data": "25.10.2011", "descriere": "Lucrari tip c)- Retele edilitare- apa. Bransament apa. Zona D", "lng": 21.285148}, {"beneficiar": "CEPLINSCHI PETRU si CEPLINSCHI ELENA ", "lat": 45.7593737, "adresa": " Rarau nr.8", "data": "25.10.2011", "descriere": "Lucrari de tip c) - Retele edilitare - apa,canal.Bransament apa si racord canal.Zona afectata de lucrari se va aduce obligatoriu la stadiul initial. Zona D", "lng": 21.1812749}, {"beneficiar": "PASLARU DUMITRU ION si PASLARU ANCA GABRIELA", "lat": 45.7401278, "adresa": " FELDIOARA nr.1 ap.2", "data": "25.10.2011", "descriere": "Lucrari de tip a) - Retele edilitare - gaz. Bransament gaze naturale prin pozare supraterana. Zona B.", "lng": 21.2279729}, {"beneficiar": "TODEA DORINA si TODEA GHEORGHE", "lat": 45.733754, "adresa": " ENEAS nr.1", "data": "25.10.2011", "descriere": "Lucrari de tip c) Retele edilitare - gaz. Bransament gaze naturale prin pozare subterana. Zona afectata de lucrari se va aduce obligatoriu la stadiul initial. Zona B.", "lng": 21.2098869}, {"beneficiar": "COLOMPAR ROZALIA", "lat": 45.7422198, "adresa": " ODOBESCU nr.45", "data": "25.10.2011", "descriere": "Lucrari de tip c).- Retele edilitare- - gaz.Bransament gaze naturale prin pozare subterana. Zona afectata de lucrari se va aduce obligatoriu la stadiul initial.Zona C.", "lng": 21.221655}, {"beneficiar": "MATARAGIU CARMEN si MATARAGIU COSTEL", "lat": 45.74561449999999, "adresa": " VIRGIL MADGEARU  nr.20", "data": "25.10.2011", "descriere": "Lucrari de tip b) - Desfiintari - Desfiintare constructii existente, Sc=1474 mp. St=2084 mp. Zona B. ", "lng": 21.2203747}, {"beneficiar": "GODEAN CLAUDIA  SI  GODEAN FLORIN", "lat": 45.731677, "adresa": " GEORGE GEORGESCU nr.28", "data": "21.10.2011", "descriere": "Lucrari de tip a)- Desfiintari- Demolare casa existenta si a imobilelor existente.", "lng": 21.184462}, {"beneficiar": "KRAFCSIK ANTON si KRAFCSIK SANDA DACIA", "lat": 45.76283, "adresa": " Bistrita nr.21", "data": "21.10.2011", "descriere": "Lucrari de tip a) - Constructii pentru locuinte - Modificare AC nr.2575/2008(Extindere si mansardare casa P rezultand casa P+M)modificari interioare si exterioare. Zona B. St = 720 mp, Sc = 2 mp, Sd = 3 mp.", "lng": 21.192311}, {"beneficiar": "SC INTER CENTER SERVICE SA", "lat": 45.737652, "adresa": " P-TA PRAHOVA nr.16", "data": "20.10.2011", "descriere": "Lucrari de tip c)-Retele edilitare-gaz- Modificare traseu retea gaze naturale prin pozare subterana.\nZona afectata de lucrari se va aduce obligatoriu la stadiul initial.", "lng": 21.202112}, {"beneficiar": "LIMBAN GHEORGHE si sotia LIMBAN LIVIA ", "lat": 45.761542, "adresa": " BOBILNA nr.39", "data": "19.10.2011", "descriere": "Lucrari tip c)- Retele edilitare- canal. Racord canal. Zona afectata de lucrari va fi adusa obligatoriu la stadiul initial.Zona D", "lng": 21.275715}, {"beneficiar": "VALEAN ADRIAN CAIUS ", "lat": 45.750016, "adresa": " PARANG nr.8/a ", "data": "19.10.2011", "descriere": "Lucrari de tip c)- Retele edilitare-canal. Racord canal. Zona D. Zona afectata de lucrari se va aduce obligatoriu la starea initiala.", "lng": 21.276616}, {"beneficiar": "OPREA CEZAR FLORIN IOAN IOAN", "lat": 45.747526, "adresa": " P-TA PLEVNEI nr.2", "data": "19.10.2011", "descriere": "Lucrari de tip c) - Retele edilitare - gaz. Bransament gaze naturale prin pozare subterana. Zona afectata de lucrari se va aduce obligatoriu la stadiul initial.Zona B.", "lng": 21.221563}, {"beneficiar": "CRECIUN NARCIS MIRCEA SI CRACIUN MARIA ", "lat": 45.765869, "adresa": " CLOSCA nr.62", "data": "19.10.2011", "descriere": "Lucrari de tip c - Retele edilitare - canal - Racord canal. Zona C. Zona afectata de lucrari se va aduce obligatoriu la stadiul initial.", "lng": 21.199993}, {"beneficiar": "TERBANCEA MIRELA-CORNELIA", "lat": 45.768475, "adresa": " PAN HALIPA bl.A8", "data": "19.10.2011", "descriere": "Lucrari tip a) - C-tii pentru locuinte  - Mansardare bloc St+P+4E rezultand bloc in regim St+P+4E+M conf.HCL 141/2007, rezultand 3 apartamente.Reabilitare termica. Zona D.", "lng": 21.213938}, {"beneficiar": "BENYI ALINA - SIMONA si BENYI GABRIEL", "lat": 45.722096, "adresa": " PROGRESUL nr.47", "data": "18.10.2011", "descriere": "Lucrari de tip c) - Retele edilitare - apa, canal. Bransament apa si racord canal. Zona afectata de lucrari se va aduce obligatoriu la stadiul initial. Zona C.", "lng": 21.221145}, {"beneficiar": "NICOARA ALIN FLAVIUS SI NICOARA EUGENIA DIANA", "lat": 45.72538, "adresa": " Stoia Udrea nr.6", "data": "18.10.2011", "descriere": "Lucrari de tip c).-Lucrari edilitare-apa,canal-Bransament apa si racord canal.       Zona C.", "lng": 21.251128}, {"beneficiar": "AUTORITATEA NATIONALA PT.ADMINISTRARE SI REGLEMENTARE IN COMUNICATII ", "lat": 45.76308, "adresa": " Horia 24", "data": "18.10.2011", "descriere": "Lucrari de tip c) - Retele edilitare - energie electrica - Spor de putere pentru alimentare cu energie electrica prin pozare subterana. Zona afectata de lucrari se va aduce obligatoriu la stadiul initial. Zona C\n", "lng": 21.2067729}, {"beneficiar": "MORARIU VIOARA", "lat": 45.74957000000001, "adresa": " BATANIA nr.38", "data": "17.10.2011", "descriere": "Lucrari de tip a)- Constructii pentru comert- Schimbare destinatiendin etaj (situat deasupra garajului) in spatiu comercial. Zona D.", "lng": 21.261535}, {"beneficiar": "CONSILIUL JUDETEAN TIMIS", "lat": 45.7560379, "adresa": " E.Ungureanu nr.1", "data": "17.10.2011", "descriere": "Lucrari de tip b)Constructii pentru institutii-Refunctionalizare casa,modificari exterioare prin reamenajare curte(refacerea pavajului), dezafectarea scenei existente(renovare perete si refacerea scenei) la CENTRUL DE CULTURA SI ARTA .Zona A", "lng": 21.226873}, {"beneficiar": "GURBAN IOAN si GURBAN EUGENIA", "lat": 45.7600115, "adresa": " Moise Dobosan nr.152", "data": "11.10.2011", "descriere": "Lucrari de tip c) - Retele edilitare - apa,canal.Bransament apa si racord canal.Zona afectata de lucrari se va aduce obligatoriu la stadiul initial. Zona D", "lng": 21.1807573}, {"beneficiar": "MITROV PETRU si MITROV DOMNITA ", "lat": 45.758592, "adresa": " Agricultorilor nr.18 ap.2", "data": "11.10.2011", "descriere": "Lucrari de tip c). - Retele edilitare- gaz- Bransament gaze naturale prin pozare subterana.Zona afectata de lucrari se va aduce obligatoriu la stadiul initial. Zona : C", "lng": 21.1945419}, {"beneficiar": "DAN VASILE si sotia DAN ETELCA ", "lat": 45.763165, "adresa": " MATASARILOR nr.44", "data": "11.10.2011", "descriere": "Lucrari tip c)- Retele edilitare- gaze naturale- Bransament gaze naturale prin pozare subterana. Zona afectata de lucrari va fi adusa obligatoriu la stadiul initial.Zona D", "lng": 21.2622627}, {"beneficiar": "CHIRVASITU TIBERIUS si CHIRVASITU AURELIA  FLORICA", "lat": 45.7215, "adresa": " APICULTORILOR nr.17", "data": "11.10.2011", "descriere": "Lucrari de tip c) - Retele edilitare - apa, canal. Bransament apa si racord canal. Zona afectata de lucrari se va aduce obligatoriu la stadiul initial. Zona C.", "lng": 21.235602}, {"beneficiar": "SC LIDL ROMANIA SOCIETATE IN COMANDITA", "lat": 45.72730000000001, "adresa": " MARTIRILOR nr.98", "data": "11.10.2011", "descriere": "Lucrari de tip a) -m Constructii pentru comert - Construire spatiu comercial, amenajare 90 locuri de parcare in incinta, conform P.U.D. aprobat prin H.C.L. 472/20.12.2010.Organizare de santier. Lucrari de tip d) - Imprejmuiri - Imprejmuire teren proprietate. Lucrari de tip h) - Constructii cu caracter provizoriu - Amplasare panouri publicitare pe teren proprietate/pe fatada. St=6552 mp. Sc=Sd=2007,26 mp.Zona C.", "lng": 21.236958}, {"beneficiar": "UZA CONSTANTIN si UZA ELENA ", "lat": 45.762719, "adresa": " Mircea cel Batran nr.113/C", "data": "11.10.2011", "descriere": "Lucrari de tip c). - Retele edilitare- gaz- Bransament gaze naturale prin pozare subterana.Zona afectata de lucrari se va aduce obligatoriu la stadiul initial. Zona : D", "lng": 21.193597}, {"beneficiar": "S.C. FLEXTRONICS ROMANIA S.R.L.", "lat": 45.7654199, "adresa": " CALEA TORONTALULUI nr.5,7", "data": "10.10.2011", "descriere": "Lucrari tip a) - C-tii pentru industrie - Inchidere platforma existenta chillere si construire platforma pentru turnuri de racire. Zona C.", "lng": 21.223188}, {"beneficiar": "MOTOC ANDREI GHEORGHE necas., POP MIHAI DRAGAN necas., ILIE ADRIAN COSMIN casat. cu ILIE ILEANA", "lat": 45.771696, "adresa": " CONSTANTIN STERE nr.22 bl.78", "data": "07.10.2011", "descriere": "Lucrari tip a) - Constructii pentru locuinte - Mansardare bloc St+P+4E rezultand bloc in regim St+P+4E+M cu 4 apartamente conf.HCL141/2007 Reabilitare termica. Zona D.Sc=241 mp.", "lng": 21.215473}, {"beneficiar": "KARACSONYI LADISLAU ", "lat": 45.752543, "adresa": " MARTIR CORNEL POPESCU nr.6", "data": "06.10.2011", "descriere": "Lucrari de tip c)- Retele edilitare-gaz. Bransament gaze naturale prin pozare subterana. Zona C. Zona afectata de lucrari se va aduce obligatoriu la starea initiala.", "lng": 21.282359}, {"beneficiar": "BODIN RODICA ", "lat": 45.752552, "adresa": " P.M.Cristea nr.5 ap.5", "data": "06.10.2011", "descriere": "Lucrari de tip c) Retele edilitare-gaz.Bransament gaze naturale prin pozare subterana.Zona afectata de lucrari se va aduce obligatoriu la stadiul initial. Zona A", "lng": 21.228849}, {"beneficiar": "ASOCIATIA DE PROPRIETARI", "lat": 45.736951, "adresa": " Dr.Ioan Muresan nr.71 sc.B", "data": "06.10.2011", "descriere": "Lucrari de tip c).-Retele edilitare-apa.Bransament apa.     Zona C.", "lng": 21.236873}, {"beneficiar": "BISERICA ORTODOXA A STUDENTILOR ", "lat": 45.746621, "adresa": " Cluj  nr.2", "data": "06.10.2011", "descriere": "Lucrari de tip c).-Retele edilitare-energie electrica.Alimentare cu energie electrica prin pozare subterana.        Zona B", "lng": 21.235324}, {"beneficiar": "CONSILIUL JUDETEAN TIMIS", "lat": 45.7553709, "adresa": " P-ta Libertatii nr.3", "data": "06.10.2011", "descriere": "Lucrari de tip b) - Constructii pentru institutii -  Punerea in siguranta imobil S+P+2E - IN REGIM DE URGENTA  conf. L 50/91rep. art. 7, alin. 16", "lng": 21.227821}, {"beneficiar": "IATIN IOVA nec.", "lat": 45.7630708, "adresa": " SIMION BARNUTIU nr.36 ap.1,3,4", "data": "06.10.2011", "descriere": "Lucrari tip a)- Constructii pentru comert- Schimbare destinatie spatiu din locuinta in spatiu comercial. Zona C", "lng": 21.2486203}, {"beneficiar": "SC IO-LIN-DO SRL", "lat": 45.763616, "adresa": " SIMION BARNUTIU nr.36 ap.2", "data": "06.10.2011", "descriere": "Lucrari tip a)- Constructii pentru comert- Schimbare destinatie din locuinta in spatiu comercial. Zona B", "lng": 21.254015}, {"beneficiar": "SAVIN DANUT si SAVIN NICOLETA", "lat": 45.7426336, "adresa": " ODOBESCU nr.40", "data": "06.10.2011", "descriere": "Lucrari de tip b) - Constructii pentru locuinte - Lucrari de interventii in regim de urgenta - Reparatii la invelitoarea imobilului, constand in inlocuirea tiglelor desprinse si a sipcilor transversale de sustinere, reparatii la cosuri, frontoane si tinichigerii, conform Legii nr 50/1991rep. si act., art. 7, alin (16). Zona B. ", "lng": 21.2210985}, {"beneficiar": "PRICOP NICOLAE-VASILE SI PRICOP IONELA-VIORICA, UNGUR VIORICA", "lat": 45.723047, "adresa": " NICOLAE PAGANINI nr.16C", "data": "06.10.2011", "descriere": "Lucrari de tip a)-Constructii pentru locuinte-Construire locuinta in regim de inaltime P+M (casa A) conform PUD aprobat prin HCL 314/2009.\nLucrari de tip d)-Imprejmuiri-Imprejmuire teren.\nSc=98,15 mp, Sd=196,30 mp, St=582 mp", "lng": 21.177161}, {"beneficiar": "HAITLER MARIA", "lat": 45.7633769, "adresa": " Simion Barnutiu nr.24 ap.1", "data": "06.10.2011", "descriere": "Lucrari de tip a) - Constructii pentru comert - Schimbare destinatie spatiu din locuinta in spatiu comercial  . Zona B. St = 433mp.\n", "lng": 21.2514319}, {"beneficiar": "MUNTEANU IOAN  si sotia MUNTEANU GHEORGHINA CONSTANTA", "lat": 45.760471, "adresa": " Popa Sapca nr.20/b", "data": "06.10.2011", "descriere": "Lucrari de tip h) Constructii cu caracter provizoriu. Amplasare firma pe fatada si caseta luminoasa pe durata contractului de inchiriere(pana la data de 01.05.2012 -C.M.I.Dr.TUDERICIU VLAD GEORGE)", "lng": 21.232752}, {"beneficiar": "STANCU COVACI", "lat": 45.75121499999999, "adresa": " C.D.Loga nr.17 et.1 ap.3+4", "data": "05.10.2011", "descriere": "Lucrari de tip b)Constructii pentru locuinte-Modificari interioare la ap.3+4 pentru imbunatatirea confortului (fara modificarea instalatiilor interioare existente).  Zona A", "lng": 21.2310899}, {"beneficiar": "DAESCU MIRIAM ANA SARA SI DAESCU ALAIN", "lat": 45.720979, "adresa": " IZLAZ nr.51", "data": "05.10.2011", "descriere": "Lucrari tip a) - locuinte - Continuare lucrari la A.C. 2738 / 02.10.2007 - Mansardare casa existenta D+P rezultand D+P+M si extindere in regim P+1E. Realizare imprejmuire.Construire garaj si piscina. Zona C.", "lng": 21.2032486}, {"beneficiar": "CRISTEA GHEORGHE si CRISTEA ECATERINA", "lat": 45.744791, "adresa": " MIHAI VITEAZU nr.28 ap.6", "data": "04.10.2011", "descriere": "Lucrari de tip b) - Constructii pentru locuinte - Lucrari de interventii in regim de urgenta, constand in inlocuire tigla solzi existenta cu tigla solzi acelasi format, material si culoare cu cea initiala, conform Legii nr 50/1991 rep. si act., art. 7, alin (16). Zona B.", "lng": 21.225486}, {"beneficiar": "FAN IOAN si sotiaFAN ADRIANA", "lat": 45.766017, "adresa": " TELEGRAFULUI nr.91/A", "data": "03.10.2011", "descriere": "Lucrari de tip a) - Constructii pentru locuinte- Construire casa P+1E ( Sd=222 mp; Sc=115 mp). Zona C", "lng": 21.258768}, {"beneficiar": "REGIA AUTONOMA DE TRANSPORT TIMISOARA", "lat": 45.761944, "adresa": " B-dul T.Ionescu nr.56", "data": "03.10.2011", "descriere": "Lucrari de tip a) Desfintare remiza  si sopron mateiale, constructie pentru aer comprimat, cladire condensatori si ateliere electricieni, cladire pentru centrala generatori acetilena, retea termoficare, ateliere reparatii si instalatie gaz metan. Scp=720 mp, Sdp=807,70 mp. Zona B", "lng": 21.245498}, {"beneficiar": "MURESAN MARIUS SORIN SI MURESAN ENIKO", "lat": 45.767712, "adresa": " Cl. Sever Bocu (Lipovei) nr.9", "data": "03.10.2011", "descriere": "Lucrari de tip a)-Constructii pentru locuinte.Mansardare bloc S+P+4E rezultand bloc de locuinte in regim S+P+4E+M cu 4 apartamente la mansarda si reabilitare termica,intrare in legalitate conform art.28 din Legea 50/91 rep. si act.St=357 mp;Sc=280,66 mp", "lng": 21.2255049}, {"beneficiar": "S.C. DETERGENTI S.A.", "lat": 45.740417, "adresa": " CALEA STAN VIDRIGHIN nr.5", "data": "03.10.2011", "descriere": "Lucrari de tip a)- Desfiintare casa scarii exterioara aferenta halei de productie.Zona D.", "lng": 21.256611}, {"beneficiar": "CORNEAN CARMEN-ANDRADA", "lat": 45.754732, "adresa": " L.Blaga nr.1 ap.21A", "data": "30.09.2011", "descriere": "Lucrari de tip h) Constructii cu caracter provizoriu -Amplasare firma pe fatada. Zona A", "lng": 21.227735}, {"beneficiar": "RADOSLOVESCU CLAUDIA ELENA si RADOSLOVESCU GHEORGHE HARALAMBIE", "lat": 45.761592, "adresa": " Schwicker nr.9", "data": "30.09.2011", "descriere": "Lucrari de tip a) - Demolare  - Lucrari de tip a) - Demolare  - Desfiintare casa parter. Sc = 171,67 mp. Sd  = 171,67 mp,St=330 mp. Zona D.", "lng": 21.192475}, {"beneficiar": "ZARIA VALENTINA-MARIUTA", "lat": 45.73675, "adresa": " ALEEA CITADELEI nr.5 sc.B ap.2", "data": "30.09.2011", "descriere": "Lucrari de tip a)-Constructii pentru locuinte- Construire balcon la ap.nr.2 conform HCL 35/2008 pentru imbunatatirea confortului.", "lng": 21.19952}, {"beneficiar": "NITULESCU MIHAELA NICOLETA", "lat": 45.7785182, "adresa": " CIRCUMVALATIUNII nr.24 bl.78 sc.A ap.2", "data": "30.09.2011", "descriere": "Lucrari tip a) - Constructii pentru servicii - Schimbare destinatie spatiu din locuinta in birouri. Creare acces direct din exterior prin balcon existent. Zona D", "lng": 21.2120382}, {"beneficiar": "CIOCLOV CORNEL si CIOCLOV CORNELIA", "lat": 45.771833, "adresa": " CALEA TORONTALULUI nr.50", "data": "30.09.2011", "descriere": "Lucrari tip a) - C-tii pentru locuinte, comert si servicii - Construire cladire in regim P+2E+Pod, cu spatii comerciale si birouri la parter si locuinte la etajul 1 si 2 (doua apartamente). Zona B. Sc=340,80mp, Sd=1220,83 mp", "lng": 21.217308}, {"beneficiar": "ASOCIATIA DE PROPRIETARI", "lat": 45.761983, "adresa": " zona Mircea cel Batran nr.54", "data": "30.09.2011", "descriere": "Lucrari de tip a) - Constructii pentru locuinte - Reabilitare termica bloc existent", "lng": 21.204653}, {"beneficiar": "CRETAN  IOAN  si sotia CRETAN  MARIANA", "lat": 45.765299, "adresa": " PALMIERILOR nr.25/b ap.2", "data": "30.09.2011", "descriere": "Lucrari tip a)- Constructii pentru locuinte- Inchidere terasa existenta (structura usoara si geam termopan). Zona C", "lng": 21.265314}, {"beneficiar": "SC DIMAS ESTATE SRL", "lat": 45.726558, "adresa": " C. BUZIASULUI nr.116/f", "data": "29.09.2011", "descriere": "Lucrari de tip c)- Retele edilitare-canal. Racord canal. Zona C. Zona afectata de lucrari se va aduce obligatoriu la starea initiala.", "lng": 21.278597}, {"beneficiar": "S.C. CENTRUL  DE  BIOREZONANTA  DR. BACEAN S.R.L. ", "lat": 45.770758, "adresa": " POPOVICI BANATEANU nr.23", "data": "29.09.2011", "descriere": "Lucrari tip a) - Constructii pentru sanatate - Recompartimentare si schimbare de destinatie din locuinta in Centru de Biorezonanta. ZonaB.", "lng": 21.2028068}, {"beneficiar": "GHIMPU RUTICA ", "lat": 45.746483, "adresa": " REMUS nr.7", "data": "29.09.2011", "descriere": "Lucrari de tip c) - Retele edilitare - gaz. Bransament gaze naturale prin pozare subterana. Zona afectata de lucrari se va aduce obligatoriu la stadiul initial. Zona B.", "lng": 21.222501}, {"beneficiar": " PAROHIA ORTODOXA ROMANA DIN FABRIC VII", "lat": 45.776551, "adresa": " Apostoli Petru si Pavel nr.1", "data": "29.09.2011", "descriere": "Lucrari de tip a)-Constructii pentru locuinte-Extindere parter la casa parohiala,modificari interioare si exterioare fara a modifica structura de rezistenta.Sc=Sd=30 mp;St=5247 mp", "lng": 21.234577}, {"beneficiar": "SC DWT IMMO SRL", "lat": 45.778514, "adresa": " Dr. Grigore T. Popa nr.28B", "data": "28.09.2011", "descriere": "laucrari de tip a)-Constructii pentru sanatate.Schimbare de destinatie prin modificari interioare si exterioare la  A.C. nr.439/2008 din locuinte colective in spatiu pentru sanatate(spital general).", "lng": 21.2281869}, {"beneficiar": "FAGET CONSTANTIN si FAGET MARIANA", "lat": 45.7367293, "adresa": " RUSU SIRIANU nr.76", "data": "28.09.2011", "descriere": "Lucrari de tip c) - Retele edilitare - gaz. Dezafectare bransament existent si realizare bransament gaze naturale prin pozare subterana. Zona afectata de lucrari se va aduce obligatoriu la stadiul initial. Zona B.", "lng": 21.2127247}, {"beneficiar": "CIOROIANU VASILE si sotia CIOROIANU DANIELA", "lat": 45.759413, "adresa": " GH.TITEICA nr.56", "data": "28.09.2011", "descriere": "Lucrari tip c)- Retele edilitare- canal. Racord canalizare. Zona afectata de lucrari va fi adusa obligatoriu la stadiul initial.Zona D", "lng": 21.276881}, {"beneficiar": "MONEA VIOREL MARIN SI MONEA IUDITA ELENA", "lat": 45.726582, "adresa": " MATEI MILLO nr.16/A", "data": "28.09.2011", "descriere": "Lucrari de tip c)- Retele edilitare-apa,canal. Bransament apa si racord canal. Zona D. Zona afectata de lucrari se va aduce obligatoriu la starea initiala.", "lng": 21.262953}, {"beneficiar": "BAKOS ADALBERT", "lat": 45.73364890000001, "adresa": " CORNELIU BABA nr.16", "data": "28.09.2011", "descriere": "Lucrari de tip c)-Retele edilitare -apa-canal-Bransament apa si racord canal.\nZona afectata de lucrari se va aduce obligatoriu la stadiul initial.", "lng": 21.1879289}, {"beneficiar": "HORVATH ALEXANDRU IOSIF SI HORVATH MARGARETA", "lat": 45.723304, "adresa": " Alunis nr.39", "data": "16.09.2011", "descriere": "Lucrari de tip c).-Retele edilitare-gaz-Bransament gaze naturale prin pozare subterana.      Zona C.", "lng": 21.2260269}, {"beneficiar": "MATEESCU EMIL si sotia MATEESCU OTILIA", "lat": 45.7515874, "adresa": " SOARELUI nr.5", "data": "16.09.2011", "descriere": "Lucrari tip c)- Retele edilitare- apa. Bransament apa. Zona afectata de lucrari va fi adusa obligatoriu la stadiul initial. Zona D", "lng": 21.2546027}, {"beneficiar": "SURDU CRISTIAN PETRICA", "lat": 45.72745130000001, "adresa": " ANA IPATESCU  nr.38", "data": "15.09.2011", "descriere": "Lucrari de tip a) - Constructii pentru locuinte - Continuare lucrari la A.C. nr 108 / 16.01.2008 - finisare si imprejmuire parcela..Zona D.", "lng": 21.2068046}, {"beneficiar": "BUGA NISTOR SI BUGA FLORICA", "lat": 45.73263499999999, "adresa": " C.MARTIRILOR 1989  nr.66 bl.E2", "data": "15.09.2011", "descriere": "Lucrari de tip a)- Constructii pentru locuinte- Reabilitare termica si mansardare bloc P+4E rezultand regim de inaltime P+4E+M conform HCL 141/2007. Zona D. Scd=233 mp.", "lng": 21.237046}, {"beneficiar": "JANAI ION TIBERIU SI JANAI OFELIA ", "lat": 45.7340166, "adresa": " MARTIR GOGU OPRE nr.8", "data": "28.09.2011", "descriere": "Lucrari de tip c)-Retele edilitare- apa-canal-Bransament apa si Racord canal.\nZona afectata de lucrari se va aduce obligatoriu la stadiul initial.", "lng": 21.1907572}, {"beneficiar": "S.C. DETERGENTI S.A.", "lat": 45.740417, "adresa": " CALEA STAN VIDRIGHIN nr.5", "data": "27.09.2011", "descriere": "Lucrari de tip a)- Constructii industriale- Amplasare cort sortare deseuri. Zona D. Scd=Sc=150 mp.", "lng": 21.256611}, {"beneficiar": "SILADI DAN STEFAN, SILADI CARMEN RODICA", "lat": 45.767024, "adresa": " LORENA  nr.39", "data": "27.09.2011", "descriere": "Lucrari de tip a)- Constructii pentru locuinte- Demolare partiala, modificari interioare si exterioare si mansardare locuinta parter rezultand P+M. Zona C.Scd=90,20 mp", "lng": 21.257594}, {"beneficiar": "HURBEAN  ILIE, LUPUTIU MIRCEA, IANCU ION, ANDREESCU IOAN, DEAC ATILA,PETREAN COSMIN ", "lat": 45.757786, "adresa": " ABRUD nr.4/A", "data": "27.09.2011", "descriere": "Lucrari de tip b)- Constructii pentru locuinte- Lucrari de interventii de urgenta - Reparatii acoperis- conform art.7 alin.16 din Legea 50/91 rep.Zona C ", "lng": 21.245316}, {"beneficiar": "FAGET CONSTANTIN SI FAGET MARIANA", "lat": 45.7367293, "adresa": " RUSU SIRIANU nr.76", "data": "15.09.2011", "descriere": "Lucrari de tip c) - Retele edilitare - apa, canal. Redimensionare bransament apa, racord canal si amplasare camin apometru pe domeniu public. Zona afectata de lucrari se va aduce obligatoriu la stadiul initial. Zona B.", "lng": 21.2127247}, {"beneficiar": "STOICHECI LOREDANA MARIANA", "lat": 45.766044, "adresa": " TELEGRAFULUI nr.93/a", "data": "14.09.2011", "descriere": "Lucrari de tip a)-Constructii pentru locuinte-Casa In regim P+2E cu 2 apartamente cu garaj dublu inclus si anexa P.\nLucrari de tip d)-Refacere imprejmuire.\nSc=227,59 mp, Sd=475,04 mp.", "lng": 21.258985}, {"beneficiar": "LACATUSU DOREL si sotia LACATUSU NICULINA", "lat": 45.752132, "adresa": " JOKAI MOR nr.20", "data": "14.09.2011", "descriere": "Lucrari tip a) - Constructii pentru locuinte- Extindere in regim de inaltime P+1E la casa P existenta (Sc= 65,80 mp; Sd= 131,60 mp). Zona D", "lng": 21.280433}, {"beneficiar": "S.C. BIOCLINICA S.A.", "lat": 45.766305, "adresa": " B-dul CETATII nr.55", "data": "27.09.2011", "descriere": "Lucrari de tip h) - Constructii cu caracter provizoriu - Amplasare panou publicitar pe poarta de acces al imobilului, pe perioada contractului de comodat (pana la 15.09.2021)", "lng": 21.214141}, {"beneficiar": "S.C. BIOCLINICA S.A.", "lat": 45.766169, "adresa": " B-dul CETATII nr.53A\n", "data": "27.09.2011", "descriere": "Lucrari tip h) - Constructii cu caracter provizoriu - Amplasare panou publicitar pe poarta de acces a imobilului, pe perioada contractului de comodat (pana la 15.09.2021)", "lng": 21.21394}, {"beneficiar": "SC MANAGEMENT INVEST SRL", "lat": 45.73689479999999, "adresa": " RUSU SIRIANU nr.68", "data": "27.09.2011", "descriere": "Lucrari de tip a) - Desfiintari - Demolare casa P existenta.Sc=Sd=254 mp. Zona C. ", "lng": 21.2134468}, {"beneficiar": "LUPOU MARIA", "lat": 45.715123, "adresa": " CHISODEI nr.152 B ap.1", "data": "27.09.2011", "descriere": "Lucrari de tip a) - Constructii pentru locuinte - Mansardare si scara de acces la ap.nr. 1.Sd=37,94 mp. Zona C. ", "lng": 21.214927}, {"beneficiar": "BUZILA GRIGORE si sotia BUZILA VIORICA", "lat": 45.727139, "adresa": " NICOLAE COCEA nr.9", "data": "14.09.2011", "descriere": "Lucrari tip a)- Constructii pentru locuinte- Extindere la casa existenta si mansardare partiala constructii existente (camera si garaj in curte), rezultand casa familiala in regim de inaltime P+Mp (Sc= 105,38 mp; Sd= 222.9 mp). Zona D", "lng": 21.263997}, {"beneficiar": "ASOCIATIA DE PROPRIETARI", "lat": 45.77376530000001, "adresa": " CALEA LIPOVEI nr.33", "data": "14.09.2011", "descriere": "Lucrari de tip a)-Constructii pentru locuinte-Construire acoperis tip sarpanta cu invelitoare de tigla", "lng": 21.2315566}, {"beneficiar": "ASOCIATIA  DE  PROPRIETARI", "lat": 45.73140189999999, "adresa": " INTRAREA MUNTILOR  nr.6 sc.A+B", "data": "14.09.2011", "descriere": "Lucrari de tip a) - Constructii pentru locuinte - Construire acoperis tip sarpanta la bloc existent S+P+4E. Zona D.", "lng": 21.2142195}, {"beneficiar": "PAL ION- ALIN,PAL NICOLETA-MARIANA", "lat": 45.728502, "adresa": " Ludwig von Ybl nr.7", "data": "14.09.2011", "descriere": "Lucrari de tip a).-Desfiintari-Demolare casa.         Sd=102,51mp       Steren=450mp          Zona C.", "lng": 21.228741}, {"beneficiar": "VIRAG EMILIA-LUCIA,VIRAG IOAN", "lat": 45.726134, "adresa": " ANTON BACALBASA nr.70", "data": "14.09.2011", "descriere": "Lucrari de tip a)-Constructii penrtu locuinte- Etajare casa in regim P rezultand casa in regim de inaltine P+1E.\nSc=Sd=101,91 mp", "lng": 21.18777}, {"beneficiar": "COX ELVIRA SI COX PHILIP ANDREW", "lat": 45.770183, "adresa": " STUPARILOR nr.14", "data": "14.09.2011", "descriere": "Lucrari de tip a)-Constructii pentru locuinte- Extindere in regim P la casa parter existenta, construire piscina si reallizare imprejmuire.\nSc=151,7 mp, Sd=151,7 mp", "lng": 21.2447523},