{"points": [{"beneficiar": "POP GAVRIL, POP VALERIA", "lat": 45.7375814, "adresa": " COZIA nr.12", "data": "24.12.2013", "descriere": "Lucrari de tip b) - Constructii pentru locuinte - Extindere si etajare casa Dp+P, rezultand casa unifamiliala in regim Dp+P+1Ep.        Sc=81 mp     Sd=328,23 mp              Steren=1195 mp             Zona B", "lng": 21.2269681}, {"beneficiar": "PURDEA  NICULINA FLORINA ,PURDEA OVIDIU", "lat": 45.726441, "adresa": " TRAIAN VUIA nr.74", "data": "24.12.2013", "descriere": "Lucrari de tip c) - Retele edilitare - apa, canal - Bransament apa si racord canal - Bransament apa si racord canal. Zona afectata de lucrari se va aduce obligatoriu la stadiul initial.", "lng": 21.22353}, {"beneficiar": "LAUTARU  ION  si sotia LAUTARU CRISTINA AURORA", "lat": 45.729086, "adresa": " NORMA nr.6", "data": "24.12.2013", "descriere": "Lucrari de tip c) - Retele edilitare: gaz o?= Bransament gaze naturale prin pozare subterana. Zona afectata de lucrari se va aduce obligatoriu la stadiul initial. Zona C", "lng": 21.251781}, {"beneficiar": "SUBERT  IRINCA AGNES", "lat": 45.752226, "adresa": " JULES VERNE nr.28", "data": "24.12.2013", "descriere": "Lucrari de tip c) - Retele edilitare: gaz o?= Bransament gaze naturale prin pozare subterana. Zona afectata de lucrari se va aduce obligatoriu la stadiul initial. Zona B", "lng": 21.278216}, {"beneficiar": "TICULA EUGEN si TICULA VALERIA CARMEN", "lat": 45.7459446, "adresa": " ALEXANDRU MOCIONI nr.10 ap.2", "data": "24.12.2013", "descriere": "Lucrari de tip c)-Retele edilitare-gaz-Bransament gaze naturale prin pozare subterana\nZona afectata de lucrari se va duce obligatoriu la stadiul initial.", "lng": 21.2170411}, {"beneficiar": "CADERE   MIHAI", "lat": 45.7335292, "adresa": " ENEAS nr.22/B", "data": "24.12.2013", "descriere": "Lucrari de tip c) - Retele edilitare - gaz. Bransament gaze naturale prin pozare subterana. Zona afectata de lucrari se va aduce obligatoriu la stadiul initial. Zona D", "lng": 21.212319}, {"beneficiar": "ZSIROS  ATTILA ,ZSIROS LEONTINA", "lat": 45.725475, "adresa": " MUZICESCU nr.92", "data": "24.12.2013", "descriere": "Lucrari de tip c) - Retele edilitare - apa, canal - Bransament apa si racord canal.Zona afectata de lucrari se va aduce obligatoriu la stadiul initial.", "lng": 21.225772}, {"beneficiar": "HORVATH  LUDOVIC GAVRIL ,HORVATH  MARIA", "lat": 45.7198909, "adresa": " MARGARITARILOR  nr.18", "data": "24.12.2013", "descriere": "Lucrari de tip c). - Retele edilitare- gaz.  Bransament gaze naturale prin pozare subterana.Zona afectata de lucrari se va aduce obligatoriu la stadiul initial.", "lng": 21.214841}, {"beneficiar": "MUNICIPIUL TIMISOARA- DIRECTIA INSTITUTII SCOLARE, MEDICALE, SPORTIVE SI CULTURALE", "lat": 45.753153, "adresa": " PIATA REGINA MARIA nr.2", "data": "23.12.2013", "descriere": "Lucrari de tip b) - Constructii pentru sanatate -Lucrari de extindere  la Spitalul Clinic de Urgenta pentru copii ,, LOUIS TURCANU\" - Extindere cladire poarta in regim P, realizare punct farmaceutic; lucrari de tip d) - amplasare firma pe fatada . Zona A.  ( Sc=Sd=60,8mp, St=7469 )", "lng": 21.221765}, {"beneficiar": "RADOSLAV DAN", "lat": 45.76017, "adresa": " AUREL POPOVICI nr.2/A", "data": "23.12.2013", "descriere": "Lucrari tip d)- Imprejmuiri- Modificare A.C.nr. 99/13.02.2013-\" Refacere si inaltare gard\". Zona B.", "lng": 21.235609}, {"beneficiar": "POPOVICI DAN EMANUEL ,POPOVICI ADRIANA FLORICA", "lat": 45.7274172, "adresa": " HEBE nr.83", "data": "23.12.2013", "descriere": "lucrari de tip a)Demolare - Demolare casa in regim P", "lng": 21.214853}, {"beneficiar": "PETCOV GHEORGHE SI PETCOV MARIA", "lat": 45.76202199999999, "adresa": " MIRCEA CEL BATRAN nr.28", "data": "20.12.2013", "descriere": "Lucrari tip a - Constructii pentru comert si locuinte - Construire spatiu comercial si locuinta in regim P+1Ep. Zona C. Sc=292,45 mp, Sd=358,25 mp, St=727 mp", "lng": 21.206366}, {"beneficiar": "PRODAN MARIUS", "lat": 45.74868, "adresa": " ROTUNDA nr.6/B", "data": "19.12.2013", "descriere": "Lucrari de tip c) - Retele edilitare - gaz. Bransament gaze naturale prin pozare subterana. Zona afectata de lucrari se va aduce obligatoriu la stadiul initial. Zona C.", "lng": 21.288774}, {"beneficiar": "DUMITRASCU IOAN VIOREL SI FARCAS ELENA", "lat": 45.75212440000001, "adresa": " MEHADIA nr.6", "data": "18.12.2013", "descriere": "Lucrari de tip a)- Constructii pentru locuinte- Construire casa cu doua apartamente in regim de inaltime P+M. Scd=240 mp; Sc=120 mp.", "lng": 21.2434171}, {"beneficiar": "SC SIMULTAN SRL", "lat": 45.7561646, "adresa": " Martin Luther nr.2", "data": "17.12.2013", "descriere": "Construco?=ii pentru isntituo?=ii o?=i servicii - Lucro?=ri de amenajare a spao?=iilor situate la etajul 5", "lng": 21.2329644}, {"beneficiar": "URSULESCU LUCIA, NEGRU IONEL SI NEGRU EUGENIA", "lat": 45.741645, "adresa": " CRIZANTEMELOR nr.52 ap.1", "data": "17.12.2013", "descriere": "Lucrari de tip a)-Constructii pentru locuinte- Modificari exterioare la magazia P existenta, schimbare destinatie din magazie in bucatarie de vara-legalizare conform Sentintei Nr.3516/PI/CA/2012 devenita definitiva si irevocabila prin Decizia Civila Nr.5883/19.06.2013.", "lng": 21.201558}, {"beneficiar": "SC IMPRIMERIA MIRTON SRL TIMISOARA", "lat": 45.763427, "adresa": " SIMION BARNUTIU nr.26", "data": "17.12.2013", "descriere": "Lucrari tip h) - Constructii cu caracter provizoriu - Amplasare firma pe fatada cladirii. Zona B", "lng": 21.251747}, {"beneficiar": "SC AMSY 2001 SRL", "lat": 45.7539138, "adresa": " Lucian Blaga nr.12", "data": "17.12.2013", "descriere": "Lucro?=ri de tip b)- Construco?=ii pentru funco?=iuni caracteristice zonei centrale-Reparao?=ii o?=n regim de urgeno?=o?= conform Aviz DCCPCNJT nr. 2304/22.11.2013  -lucro?=ri de interveno?=ie o?=n primo?= urgeno?=o?= conform Legea 50/1991 art.7 alin (16)  , Zona A", "lng": 21.2275094}, {"beneficiar": "ASOCIATIA ONCOHELP, NEGRU SERBAN MIRCEA si NEGRU ALINA GABRIELA, SIRBU IOAN OVIDIU si SIRBU DANIELA ", "lat": 45.73884899999999, "adresa": " CIPRIAN PORUMBESCU nr.59", "data": "10.12.2013", "descriere": "Lucrari de tip a) - Constructii pentru servicii-sanatate - Extindere in regim S+P la clinica oncologica existenta. Sc=33,28 mp. Sd=431,02 mp.Zona B", "lng": 21.2174174}, {"beneficiar": "MUNICIPIUL TIMISOARA PRIN DIRECTIA INSTITUTII SCOLARE, MEDICALE, SPORTIVE SI CULTURALE ", "lat": 45.7492671, "adresa": " DALIEI nr.17", "data": "10.12.2013", "descriere": "Lucrari de tip a)- Constructii pentru sanatate- Reparatii interioare si schimbare destinatie din camin (P+4E) in spatiu pentru sanatate conform HCL 216/2013. Zona B. Scd=Sc=59,10 mp.", "lng": 21.243524}, {"beneficiar": "PETRICA PETRU DOREL si sotia PETRICA RAMONA", "lat": 45.7452111, "adresa": " VICTOR BABES nr.36 et.1 ap.2", "data": "09.12.2013", "descriere": "Lucrari de tip c) - Retele edilitare: gaz o?= Bransament gaze naturale prin pozare subterana. Zona afectata de lucrari se va aduce obligatoriu la stadiul initial. Zona B", "lng": 21.2358276}, {"beneficiar": "VELIMIROVICI MILAN DANIEL", "lat": 45.75862, "adresa": " SUCEAVA nr.19", "data": "16.12.2013", "descriere": "Lucrari de tip c) - Retele edilitare - gaz. Bransament gaze naurale prin pozare subterana. Zona afectata de lucrari se va aduce obligatoriu la stadiul initial. Zona B.", "lng": 21.211625}, {"beneficiar": "SIMON DANIEL si SIMON OANA", "lat": 45.732867, "adresa": " DREPTATEA nr.61", "data": "05.12.2013", "descriere": "Lucrari de tip c) - Retele edilitare - gaz. Bransament gaze naurale prin pozare subterana. Zona afectata de lucrari se va aduce obligatoriu la stadiul initial. Zona D", "lng": 21.196043}, {"beneficiar": "VARGA  IOSIF", "lat": 45.7359175, "adresa": " SALCAMILOR nr.11", "data": "05.12.2013", "descriere": "Lucrari de tip c) - Retele edilitare: gaz o?= Bransament gaze naturale prin pozare subterana. Zona afectata de lucrari se va aduce obligatoriu la stadiul initial. Zona C", "lng": 21.2310602}, {"beneficiar": "GIUCHICI  MARIANA", "lat": 45.773626, "adresa": " ION ROATA nr.46", "data": "05.12.2013", "descriere": "Lucrari de tip c) - Retele edilitare: gaz o?= Bransament gaze naturale prin pozare subterana. Zona afectata de lucrari se va aduce obligatoriu la stadiul initial. Zona C.", "lng": 21.24098}, {"beneficiar": "MIHET  ELENA ", "lat": 45.72516299999999, "adresa": " GRIGORE ANTIPA nr.18", "data": "13.12.2013", "descriere": "Lucrari de tip c)- Retele edilitare-apa,canal- Bransament apa. Racord canal. Zona D.", "lng": 21.273858}, {"beneficiar": "JONI NICOLAE si JONI CRISTINA BARBARA IOANA", "lat": 45.72273999999999, "adresa": " PAGANINI nr.15", "data": "13.12.2013", "descriere": "Lucrari de tip c) - Retele edilitare - apa. Bransament apa. Zona afectata de lucrari se va aduce obligatoriu la stadiul initial. Zona D", "lng": 21.177893}, {"beneficiar": "SELARIU STELA, SELARIU DAN SORIN, SELARIU MARIUS IOAN", "lat": 45.76367399999999, "adresa": " CALEA GHIRODEI nr.83", "data": "05.12.2013", "descriere": "Lucrari de tip c) - Retele edilitare - apa, canal - Bransament apa si racord canal. Zona afectata de lucrari se va aduce obligatoriu la stadiul initial. Zona D", "lng": 21.283919}, {"beneficiar": "SREDOIEV  MILCA  reprezentat prin SAMANT  LILIANA  DANA", "lat": 45.757412, "adresa": " P-o?=a Unirii nr.2", "data": "04.12.2013", "descriere": "Lucro?=ri de tip b)-Aducerea spao?=iului denumit spo?=lo?=torie la forma o?=i destinao?=ia inio?=ialo?= conform Sentino?=ei Civile nr.1133/2011 pronuno?=ato?= de Tribunalul Timio?=", "lng": 21.228782}, {"beneficiar": "FLORUNCUT ALEXANDRU si FLORUNCUT CRISTINA IOZEFINA", "lat": 45.7343878, "adresa": " GLAD nr.40", "data": "04.12.2013", "descriere": "Lucrari de tip a) - Constructii pentru locuinte - Amenajari interioare si exterioare - Etajare partiala si amenajare pod (partial), inlocuire tigla, tamplarie exterioara si termoizolare casa S+P existenta, rezultand casa S+P+PODpartial+1Epartial - intrare in legalitate conform procesului verbal de constatare si sanctionare a contraventiilor nr. 35/430 din 22.11.2013. Sd=158,10 mp.St=802 mp.Zona C", "lng": 21.2163096}, {"beneficiar": "SC IMOBPRACTIC SRL TIMISOARA", "lat": 45.7669485, "adresa": " A. DEMETRIADE nr.1/3/A", "data": "13.12.2013", "descriere": "Lucrari de tip c). - Retele edilitare - canal. Racord canal. Zona afectata de lucrari se va aduce obligatoriu la stadiul initial.", "lng": 21.2436309}, {"beneficiar": "LICULESCU VIORICA  SI  LICULESCU  MIRCEA", "lat": 45.766512, "adresa": " CRISAN nr.64", "data": "04.12.2013", "descriere": "Lucrari de tip a) - Constructii pentru locuinte -  Construire casa  in regim de inaltime Parter  si  imprejmuire . Sc=252 mp. Sd=252 mp.  , St= 777 mp . Zona B", "lng": 21.201593}, {"beneficiar": "SC INVEST  SA TIMISOARA ", "lat": 45.7742479, "adresa": " Sever Bocu nr.35", "data": "04.12.2013", "descriere": "Lucrari de tip a)-Constructii pentru locuinte.Continuare lucrari la A.C. nr. 433/2010-Etajare bloc existent in regim de inaltime P+3E rezultand bloc in regim P+4E cu 8 apartamente (structura,finisaje si instalatii).", "lng": 21.2314969}, {"beneficiar": "PASCU CALIN SI PASCU LUMINITA MARIA ", "lat": 45.7340896, "adresa": " ENEAS nr.68 A", "data": "12.12.2013", "descriere": "Lucrari tip c) - Retele edilitare - gaz - Bransament gaze naturale prin pozare subterana. Zona B. Zona afectata de lucrari se va aduce obligatoriu la stadiul initial.", "lng": 21.2206846}, {"beneficiar": "SC LORENA REZIDENCE SRL", "lat": 45.7661014, "adresa": " SAMUIL MICU nr.19", "data": "12.12.2013", "descriere": "Lucrari de tip c) - Retele edilitare - apa, canal. Bransament apa si racord canal. Zona afectata de lucrari se va aduce obligatoriu la stadiul initial. Zona B", "lng": 21.2504693}, {"beneficiar": "BURCSA  RUPI , BURCSA EVA", "lat": 45.722724, "adresa": " CHISODEI nr.31", "data": "12.12.2013", "descriere": "obtinerea AC - Lucrari de tip c) Retele edilitare - apa, canal. - Bransament apa si racord canal. Zona afectata de lucrari se va aduce obligatoriu la stadiul initial.", "lng": 21.210567}, {"beneficiar": "TUDOR  ION SI  TUDOR  ANDREEA  VIOLETA ", "lat": 45.76674999999999, "adresa": "Str. Samuil o?=agovici nr.47", "data": "03.12.2013", "descriere": "Lucrari tip a - Constructii pentru locuinte - Extindere in regim D+P+E la  casa  P+E  existenta . Zona C. Sc=18,00 mp, Sd= 54 mp", "lng": 21.204111}, {"beneficiar": "CATOIU  GHEORGHE  SI  CATOIU ELENA", "lat": 45.7612753, "adresa": " MACILOR  nr.22", "data": "03.12.2013", "descriere": "Lucrari tip a - Constructii pentru comert - Schimbare destinatie spatiu din locuinta in spatiu comercial. Amplasare firma pe fatada.", "lng": 21.2036955}, {"beneficiar": "SOCEANU NICOLAE si SOCEANU ELENA", "lat": 45.73889459999999, "adresa": " BUDAI DELEANU nr.7", "data": "03.12.2013", "descriere": "Lucrari de tip a) - Constructii pentru comert, servicii - Schimbare destinatie spatiu din locuinta in SAD. Lucrari de tip h) - Constructii cu caracter provizoriu - Amplasare firma pe fatada cladIrii, pe durata contractului de inchiriere nr. 20.28L/20.12.2012 - S.C. ARTE SPANIA S.R.L. Zona C.", "lng": 21.2086917}, {"beneficiar": "LAZA VASILE", "lat": 45.7502922, "adresa": " Eroilor nr.83", "data": "12.12.2013", "descriere": "Lucrari tip c) - Retele edilitare - gaz - Brano?=ament gaze naturale prin pozare subterano?=. Zona afectata de lucrari se va aduce obligatoriu la stadiul initial.", "lng": 21.2503288}, {"beneficiar": "CHIOIBAS DANIEL-RAUL nec., CHIOIBAS NICOLAIE si sotia CHIOIBAS LETITIA", "lat": 45.759167, "adresa": " POPA SAPCA nr.12", "data": "12.12.2013", "descriere": "Lucrari de tip h) - Constructii  cu caracter provizoriu. Amplasare firma pe fatada cladirii.", "lng": 21.232574}, {"beneficiar": "ASOCIAo?=IA   DE  PROPRIETARI ", "lat": 45.755529, "adresa": " Bulevardul  REVOLUo?=IEI 1989  nr.16-18", "data": "12.12.2013", "descriere": "Lucrari de tip h)-Construco?=ii cu caracter provizoriu - Amplasare panou publicitar (firmo?=) pe fao?=ado?= pe durata contractului de inchiriere nr. 990 din 21.05.2013 (po?=no?= la 31.12.2018) o?=ncheiat cu SC Cresta Print SRL", "lng": 21.2376359}, {"beneficiar": "DEUTSCH  MANUELA ", "lat": 45.757395, "adresa": " CALEA BOGDANESTILOR nr.22 et.P ap.2", "data": "03.12.2013", "descriere": "Constructii pentru spatii cu alta destinatie - Schimbare destinatie spatiu din locuinta in spatiu cu alta destinatie.Lucrari tip h - Constructii cu caracter provizoriu - Amplasare firma pe fatada pe perioada contractului de inchiriere cu firma S.C. PREMIUM VET CARE SRL)", "lng": 21.211045}, {"beneficiar": "SC  IATSA  TIMISOARA 1 SA", "lat": 45.769186, "adresa": " Miresei nr.1", "data": "03.12.2013", "descriere": "Lucrari de tip h)-Constructii cu caracter provizoriu.Amplasare firma luminoasa pe fatada cladirii aferenta spatiului comercial si amplasare steaguri (catarge) in curtea imobilului,pe durata contractului de inchiriere nr. 3774/2013 pentru SC UNIX Auto SRL.", "lng": 21.2201999}, {"beneficiar": "BAR MIRELA", "lat": 45.7332668, "adresa": " CORNELIU BABA nr.17", "data": "12.12.2013", "descriere": "Lucrari de tip a)-Demolare casa existenta in regim P.", "lng": 21.1882375}, {"beneficiar": "CERNESCU  LIGIA  CARMEN", "lat": 45.7345202, "adresa": " Dr. IOAN  MURESAN nr.23", "data": "12.12.2013", "descriere": "Lucrari de tip d) Imprejmuiri - Refacere imprejmuire teren proprietate, Zona C", "lng": 21.2298742}, {"beneficiar": "TAMPLARU MARIAN , TAMPLARU TATIANA", "lat": 45.722122, "adresa": " VANATORILOR nr.37", "data": "12.12.2013", "descriere": "Lucrari de tip c). - Retele edilitare - gaz. Bransament gaze naturale prin pozare subterana", "lng": 21.224294}, {"beneficiar": "POPESCU CAMELIA DOINA", "lat": 45.7550079, "adresa": " VALISOARA nr.25", "data": "12.12.2013", "descriere": "Lucrari de tip c) - Retele edilitare - canal -  Racord canal - Zona afectata de lucrari se va aduce obligatoriu la stadiul initial.Zona D", "lng": 21.279157}, {"beneficiar": "MIRON DOREL,MIRON SORINA BOGDANA  ", "lat": 45.73395, "adresa": "  LIVIU REBREANU nr.30", "data": "03.12.2013", "descriere": "Lucrari de tip h)-Constructii cu caracter provizoriu -Amplasare firme pe fatada aferenta spatiului pe perioada contractului de inchiriere cu SC GROUPAMA ASIGURARI SA", "lng": 21.2240162}, {"beneficiar": "MIHAI  NASTASIA si MIHAI DINU", "lat": 45.7367739, "adresa": " ISFVAN ANDREI nr.10-14 sc.C et.P ap.2", "data": "03.12.2013", "descriere": "Lucrari de tip a)- Constructii pentru sanatate- Schimbare destinatie din locuinta (ap.2) in cabinet medical. Amenajari interioare. Creare acces din exterior. Lucrari de tip h)- Constructii cu caracter provizoriu- Amplasare firma pe fatada pe durata contractului de inchiriere. Zona C.", "lng": 21.247789}, {"beneficiar": "SC SEDAKO SRL", "lat": 45.757547, "adresa": " Paul Chinezu nr.2", "data": "03.12.2013", "descriere": "Lucro?=ri de tip h )- Construco?=ii cu caracter provizoriu.Amplasare firmo?= pe fao?=ada clo?=dirii pe durata contractului de o?=nchiriere 10/05.05.2006", "lng": 21.230814}, {"beneficiar": "ASOIATIA DE PROPRIETARI", "lat": 45.753087, "adresa": " PIATA VICTORIEI nr.1/A", "data": "12.12.2013", "descriere": "Lucrari de tip c)-Retele edilitare -gaz-Extindere retea gaze naturale prin pozare subterana si bransament gaze naturale\nprin pozare subterana.Zona afectata de lucrari se va aduce obligatoriu la stadiul initial. Zona A.", "lng": 21.225987}, {"beneficiar": "DAVID ARON MIRCEA si sotia DAVID ELEONORA", "lat": 45.76585, "adresa": " GR.ALEXANDRESCU nr.46/B", "data": "12.12.2013", "descriere": "Lucrari de tip c) - Retele edilitare - apa, canal - Bransament apa si racord canal. Zona afectata de lucrari se va aduce obligatoriu la stadiul initial.Zona D", "lng": 21.195342}, {"beneficiar": "CHIRILA ION si CHIRILA MARIA", "lat": 45.726997, "adresa": " BACALBASA nr.80", "data": "29.11.2013", "descriere": "Lucrari de tip c) - Retele edilitare - apa. Bransament apa.Zona afectata de lucrari se va aduce obligatoriu la stadiul initial. Zona D", "lng": 21.189036}, {"beneficiar": "DAS IOAN DORU ,DAS  EUGENIA   MIANA ", "lat": 45.7295585, "adresa": " MURES nr.60", "data": "29.11.2013", "descriere": "obtinere A.C. - lucrari de tip c) - Retele edilitare -  gaz.-  Bransament gaze naturale prin pozare subterana", "lng": 21.2226865}, {"beneficiar": "ROMAN VIORICA", "lat": 45.76359, "adresa": " MESTEACANULUI nr.7", "data": "12.12.2013", "descriere": "Lucrari de tip c) - Retele edilitare - canal - Racord canal. Zona afectata de lucrari se va aduce obligatoriu la stadiul initial. Zona C", "lng": 21.192478}, {"beneficiar": "ROGOJAN COSMIN", "lat": 45.727064, "adresa": " TRAIAN VUIA nr.64", "data": "12.12.2013", "descriere": "Lucrari de tip c). - Reo?=ele edilitare - apo?=, canal .Bransament apo?= o?=i racord canal. ", "lng": 21.223607}, {"beneficiar": "STOICHESCU ION si sotia STOICHESCU AURELIA DANIELA", "lat": 45.72685, "adresa": " EDGAR QUINET nr.13", "data": "29.11.2013", "descriere": "Lucrari de tip c) - Retele edilitare: gaz o?= Bransament gaze naturale prin pozare subterana. Zona afectata de lucrari se va aduce obligatoriu la stadiul initial. Zona C", "lng": 21.24447}, {"beneficiar": "PERIAN  DANIELA FLAVIA", "lat": 45.74118199999999, "adresa": " 1 DECEMBRIE nr.32 ap.1", "data": "29.11.2013", "descriere": "Lucrari de tip c) - Retele edilitare - gaz o?= Bransament gaze naturale prin pozare subterana. Zona afectata de lucrari se va aduce obligatoriu la stadiul initial. Zona B", "lng": 21.230749}, {"beneficiar": "PRECUP IOAN, PRECUP ECATERINA", "lat": 45.72663, "adresa": " GAVRIL MUSICESCU nr.30A", "data": "29.11.2013", "descriere": "lucrari de tip c). - Retele edilitare - apa,canal- Bransament apa si racord canal.", "lng": 21.21528}, {"beneficiar": "HORVATH LUDOVIC GAVRIL, HORVATH MARIA", "lat": 45.7198909, "adresa": " MARGARITARILOR nr.18", "data": "29.11.2013", "descriere": "lucrari de tip c) - Retele edilitare - apa-canal -. Bransament apa si racord canal", "lng": 21.214841}, {"beneficiar": "UNIVERSITATEA POLITEHNICA TIMISOARA", "lat": 45.724676, "adresa": " GAVRIL MUZICESCU nr.138", "data": "10.12.2013", "descriere": "Lucrari de tip c) - Retele edilitare: energie electrica o?= Continuare lucrari autorizate cu A.C. nr.1776/19.11.2012 - Alimentare cu energie electrica prin pozare subterana. Zona afectata de lucrari se va aduce obligatoriu la stadiul initial. Zona C", "lng": 21.23369}, {"beneficiar": "MUNICIPIUL TIMISOARA-DIRECTIA DEZVOLTARE", "lat": 45.7433431, "adresa": " CIRCUMVALATIUNII  nr.4", "data": "10.12.2013", "descriere": "Lucrari de tip c) - Retele edilitare - GAZ- Bransament  gaze naturale prin pozare subterana . Zona afectata de lucrari se va aduce obligatoriu la stadiul initial. Se vor respecta conditiile impuse de regiile detinatoare de gospodarii subterane. Zona B.", "lng": 21.2344337}, {"beneficiar": "DUMITRASCU  IOAN VIOREL  SI  FARCAS  ELENA", "lat": 45.75212440000001, "adresa": " MEHADIA  nr.6", "data": "10.12.2013", "descriere": "lucrari de tip a) - Construco?=ii pt. locuinte- Demolare caso?= existento?= ", "lng": 21.2434171}, {"beneficiar": "IORDACHE  MARIA BRIGHITA  BERTA", "lat": 45.755954, "adresa": " 9 Mai  nr.1", "data": "10.12.2013", "descriere": "Lucro?=ri de tip b)-Construco?=ii pentru comero?=-Modifico?=ri interioare o?=i exterioare ( renovare fao?=ade  o?=i amenajo?=ri interioare ), lucro?=ri de tip h)-Construco?=ii cu caracter provizoriu-Amplasare firmo?= pe fao?=ado?= pe durata contractului  de o?=nchiriere 27.10.2012,2/01.10.2012- legalizare conform mo?=surilor dispuse prin P.V.1/29.05.2013 o?=ncheiat de Direco?=ia Polio?=iei Locale", "lng": 21.227932}, {"beneficiar": "MIRCEA  VLAD SERBAN  cu  sotia MIRCEA  ANISOARA ", "lat": 45.7533685, "adresa": " DAN CAPITAN nr.5", "data": "10.12.2013", "descriere": "Lucrari de tip a) - Constructii pentru  locuinte - Mansardare casa existenta in regim P  ( AP.1 ) rezultind casa in regim P+M, modificari exterioare- refatadizare. ( Sc= 74,59mp , St=745)", "lng": 21.2035957}, {"beneficiar": "STOICA OVIDIU FICA", "lat": 45.744784, "adresa": " VICTOR BABES nr.11 et.1 ap.6", "data": "29.11.2013", "descriere": "Lucrari de tip c) - Retele edilitare: gaz o?= Bransament gaze naturale prin pozare subterana. Zona afectata de lucrari se va aduce obligatoriu la stadiul initial. Zona B", "lng": 21.2320389}, {"beneficiar": "MICULESCU VALERIA-DORINA si PARASCHIV CATALIN-ADRIAN", "lat": 45.721629, "adresa": " CALEA MARTIRILOR nr.176", "data": "28.11.2013", "descriere": "Lucrari de tip c) - Retele edilitare apa, canal - Redimensionare si reamplasare bransament apa si racord canal. Zona afectata de lucrari se va aduce obligatoriu la stadiul initial. Zona C", "lng": 21.236558}, {"beneficiar": "PETRE  OANA  PAULA ( fosta  NISTOR)", "lat": 45.755211, "adresa": " VERONICA MICLE nr.14", "data": "21.11.2013", "descriere": "Lucrari de tip a) -Constructii pt. locuinte- Modificare la constructie autorizata cu AC 573/2011, mansardare corp C2 - intrare in legalitate conform Proces Verbal de Constatare a Contraventiei cu nr.146/452/2012, rezultind  casa in regim P+M    (Sc=35,7mp, St=644mp )", "lng": 21.198903}, {"beneficiar": "ARNAUTU MARIAN - CATALIN si sotia ARNAUTU ALINA - GABRIELA", "lat": 45.726625, "adresa": " EDGAR QUINET nr.15", "data": "28.11.2013", "descriere": "Lucrari de tip c) - Retele edilitare: gaz o?= Bransament gaze naturale prin pozare subterana. Zona afectata de lucrari se va aduce obligatoriu la stadiul initial. Zona C", "lng": 21.244427}, {"beneficiar": "BANCA NATIONALA A ROMANIEI", "lat": 45.758316, "adresa": " I.C. BRATIANU nr.1", "data": "28.11.2013", "descriere": "Lucrari de tip b) -Constructii pentru institutii publice. Continuare lucro?=ri la A.C. nr.11/07.01.2011- \"Reparao?=ii o?=i amenajare etaj I (Salo?= de conferino?=e o?=i spao?=ii auxiliare).\"", "lng": 21.23282}, {"beneficiar": "CRACIUN  MONICA  RENATTE SI  CRACIUN FLORIN DOREL ", "lat": 45.766845, "adresa": " CRISAN  nr.69", "data": "21.11.2013", "descriere": "Lucro?=ri de tip a)- Desfiino?=o?=ri- Demolare constructii   o?=n regim de o?=no?=lo?=ime Parter .Zona B ", "lng": 21.200056}, {"beneficiar": "BADESCU BOGDAN", "lat": 45.760597, "adresa": " BALTA VERDE nr.16A", "data": "21.11.2013", "descriere": "Lucrari tip a - Constructii pentru locuinte- Construire casa P. Zona C.Sc=Sd=57 mp, St=296 mp", "lng": 21.2036659}, {"beneficiar": "GOLUMBA RADU  SI  GOLUMBA OFELIA", "lat": 45.7340648, "adresa": " MACEDONSKI nr.42", "data": "21.11.2013", "descriere": "Lucro?=ri de tip a) - Construco?=ii pentru locuino?=e si servicii - Construire cladire o?=n regim de o?=no?=lo?=ime P+2E, avand SAD la parter si 2 apartamente (la et. 1 si 2). Lucro?=ri de tip d) - o?=mprejmuiri - o?=mprejmuire proprietate.\nSc=123,6 mp; Sd=370,8 mp; Steren=309 mp.\nZona B.", "lng": 21.2207416}, {"beneficiar": "CIRPACI IOAN", "lat": 45.7581493, "adresa": " I.Creanga nr.1", "data": "28.11.2013", "descriere": "Lucrari de tip b)Legalizare lucrari cu privire la:nerespectarea autorizatiei de construire nr.2845/14.12.2009 privind regimul de inaltime de la P+Mp la P+Ep conf.masurilor dispuse prin PV nr.16/252 din 09.05.2013; legalizare lucrari cu privire la:amenajare demisol si parter conf. masurilor dispuse prin PV nr. 9/255 din 01.11.2013.Zona D", "lng": 21.2538931}, {"beneficiar": "LIUBA MARIUS DIONISIE, LIUBA SABINA ANTOANETA", "lat": 45.749228, "adresa": " SPL. TUDOR VLADIMIRESCU nr.12", "data": "28.11.2013", "descriere": "Lucrari de tip b) - Constructii pentru comert si servicii - Schimbare destinatie spatiu (partial) din casa P+2E in SAD (birouri). Zona B", "lng": 21.220198}, {"beneficiar": "SC \" REBRISOREANA\" SRL ", "lat": 45.7216189, "adresa": " BUJORILOR nr.90", "data": "21.11.2013", "descriere": " Lucrari de tip a) - Constructii pentru locuinte - Construire casa regim de inaltime  P+1E pentru  2 familii;Sc=101,52mp,Sd=191,95mp", "lng": 21.207582}, {"beneficiar": "PAVELOIU  ANA", "lat": 45.744895, "adresa": " CARPATI nr.9", "data": "21.11.2013", "descriere": "Lucrari de tip h)- Constructii cu caracter provizoriu- Amplasare reclama pe fatada. Zona C.", "lng": 21.245422}, {"beneficiar": "SC  FARMACIA  BOSCU SRL", "lat": 45.756412, "adresa": " CORIOLAN BREDICEANU nr.13-15 sc.B-C ap.17-31", "data": "21.11.2013", "descriere": "Lucrari de tip h) - C-tii cu caracter provizoriu - Amplasare reclama si cruce luminoasa pe fatada cladirii pe durata contractului de inchiriere (pana la 03.06.2018). Zona A ", "lng": 21.219372}, {"beneficiar": "S.C.  GLOBAL  COMMUNICATION  S.R.L.", "lat": 45.762064, "adresa": " MIRCEA CEL BATRAN nr.32", "data": "10.12.2013", "descriere": "Lucrari de tip a) - C-tii pentru locuinte si servicii - Modificare AC nr.1370/14.07.2009 prin modificare numar de apartamente rezultand - Locuinte colective si servicii in regim de inaltime D+P+3E+2Er cu 19 apartamente si 24 locuri de parcare conf. PUZ aprobat prin HCL 76/24.02.2009.", "lng": 21.205897}, {"beneficiar": "CATRINOIU ROMELIA, CATRINOIU ION", "lat": 45.753223, "adresa": " Canalul Bega nr.14", "data": "28.11.2013", "descriere": "Lucrari de tip c)Retele edilitare-gaz.Bransament gaze naturale prin pozare subterana.Zona afectata de lucrari se va aduce obligatoriu la stadiul initial. Zona D", "lng": 21.280847}, {"beneficiar": "MUNICIPIUL TIMISOARA prin DIRECTIA CLADIRI, TERENURI si DOTARI DIVERSE", "lat": 45.723309, "adresa": " ALUNIS nr.36", "data": "28.11.2013", "descriere": "Lucrari de tip a) Constructii pentru invatamant - Extindere in regim P+M la cladirie existenta in regim P, rezultand - Unitate de invatamant pentru ciclu primar in regim P+Mp, Zona C, St=1765 mp, Sc=137,25 mp, Sd=137,25 mp", "lng": 21.2265419}, {"beneficiar": "SC SPIRAL COLONADE SI SC CANOVA CCM SRL", "lat": 45.723903, "adresa": " BUJORILOR nr.49", "data": "28.11.2013", "descriere": "Lucrari de tip c) - Retele edilitare: gaz o?= Bransament gaze naturale prin pozare subterana. Zona afectata de lucrari se va aduce obligatoriu la stadiul initial. Zona C", "lng": 21.206409}, {"beneficiar": "CADARIU  FLORENTINA  GEORGETA DOINA  ", "lat": 45.764927, "adresa": " CLOSCA nr.37", "data": "21.11.2013", "descriere": "Lucrari tip a - Constructii pentru sanatate - Schimbare destinatie spatiu din locuinta in cabinet medical de specialitate. Zona B.", "lng": 21.203281}, {"beneficiar": "PINTEA VIOREL , PINTEA FIRA", "lat": 45.719784, "adresa": " MARGARITARILOR nr.20", "data": "21.11.2013", "descriere": "Lucrari de tip a) - Constructii pentru locuinte  -  Extindere casa existenta cu un corp cladire in regim de inaltime P+M;Sc=103,33mp,Sd=201,37mp", "lng": 21.214947}, {"beneficiar": " ASOCIATIA  DE  PROPRIETARI", "lat": 45.733633, "adresa": " ALEEA POIANA RUSCAI nr.1 sc.A+B", "data": "21.11.2013", "descriere": "Lucrari de tip a) - Constructii pentru locuinte - Reabilitare termica bloc existent S+P+4E. Zona D", "lng": 21.206342}, {"beneficiar": "SC SPIRAL COLONADE SRL SI SC CANOVA CCM SRL", "lat": 45.723903, "adresa": " BUJORILOR  nr.49", "data": "28.11.2013", "descriere": "Lucrari de tip c) - Retele edilitare - apa, cana - Bransament apa si racord canal. Zona afectata de lucrari se va aduce obligatoriu la stadiul initial. Zona C", "lng": 21.206409}, {"beneficiar": "S.C. SEDAKO GRUP SRL", "lat": 45.7783159, "adresa": " Nicolae Table nr.6", "data": "27.11.2013", "descriere": "Lucrari de tip c) - Retele edilitare apa, canal - Bransament apa si racord canal. Zona afectata de lucrari se va aduce obligatoriu la stadiul initial. Zona B", "lng": 21.2174109}, {"beneficiar": "BUNGAU ADRIAN  si sotia BUNGAU OANA-RALUCA", "lat": 45.768277, "adresa": " PAN HALIPA nr.6 bl.A9", "data": "27.11.2013", "descriere": "Lucrari tip a). - Constructii pentru locuinte - Mansardare bloc de locuinte in regim de inaltime S+P+4E rezultand bloc in regim S+P+4E+M  (cu 4 apartamente la mansarda)  si  reabilitare termica conform HCL 141/2007. Sc = 200,00 mp. Zona D.", "lng": 21.213825}, {"beneficiar": "ONITA -MARSU MIHAELA -ANISOARA", "lat": 45.741369, "adresa": " 16 DECEMBRIE 1989 nr.46", "data": "27.11.2013", "descriere": "Lucrari de tip b)-Constructii pentru locuinte-Consolidare sarpanta cu mentinerea formei, inaltimii si a tipului de invelitoare  (completarea documentatie la A.C.Nr.550/16.05.2013-emisa pentru Executare lucro?=ri de construire o?=n regim de urgeno?=o?= consto?=nd o?=n consolidare sarpanta cu mentinerea formei, tipului de invelitoare, tipului si dimensiunilor existente -conform Legii 50/1991, Art.7, alin.16.).", "lng": 21.211459}, {"beneficiar": "BORDEA IOSIF ALEXANDRU", "lat": 45.7634789, "adresa": " HORIA nr.36", "data": "27.11.2013", "descriere": "Lucrari tip a - Constructii pentru locuinte - Desfiintari - Desfiintare casa P. Zona C.", "lng": 21.205077}, {"beneficiar": "STANOIEV IOAN", "lat": 45.7405121, "adresa": " ION BARAC nr.11 ap.1", "data": "21.11.2013", "descriere": "Lucrari de tip a)-Constructii pentru comert si servicii-Schimbare destinatie partiala din pivnite (2 pivnite) in spatiu comercial-legalizare conform Art.28 din Legea 50/1991 rep.si act. si conform P.V.Nr.23/271 din 25.10.2013.", "lng": 21.1975294}, {"beneficiar": "SC  RIMI  SRL", "lat": 45.7375865, "adresa": " PIATA AXENTE SEVER nr.19", "data": "21.11.2013", "descriere": "Lucrari tip a) - Constructii pt. locuinte - Construire casa in regim D+P+1Ep. Lucrari de tip d) - imprejmuiri - realizare imprejmuire, acces auto si pietonal. Intrare in legalitate conform procesului verbal de constatare si sanctionare a contraventiilor nr. 28/1051/01.11.2013. Zona C.  Sc=125,00mp; Sd=307,20mp; Steren=548mp", "lng": 21.2304486}, {"beneficiar": "SC TELLURIUM CHEMICAL CO SRL", "lat": 45.71540599999999, "adresa": " SAGULUI nr.138/C", "data": "20.11.2013", "descriere": "Lucrari de tip c) - Retele edilitare - gaz. Bransament gaze naturale prin pozare subterana. Zona afectata de lucrari se va aduce obligatoriu la stadiul initial. Zona D", "lng": 21.194297}, {"beneficiar": "LUKACS ARPAD si LUKACS IULIANA", "lat": 45.753591, "adresa": " Jules Verne nr.11", "data": "27.11.2013", "descriere": "Lucrari de tip a)Constructii pentru locuinte.Extindere pergola din lemn la casa autorizata cu AC nr.1263/25.06.2004(fara afectarea structurii de rezistenta a casei). Zona D.Scp=13.90 mp;Sdp=13,90mp.", "lng": 21.277615}, {"beneficiar": "NOVAC VINICIUS", "lat": 45.75555, "adresa": " VALISOARA nr.14", "data": "20.11.2013", "descriere": "Lucrari de tip c) - Retele edilitare - apa, canal - Bransament apa si racord canal. Zona afectata de lucrari se va aduce obligatoriu la stadiul initial.", "lng": 21.277173}, {"beneficiar": "BICHIS  PAUL  ANDREI", "lat": 45.75358199999999, "adresa": " DUNAREA nr.4B", "data": "20.11.2013", "descriere": "Lucrari de tip c) - Retele edilitare: gaz o?= Extindere retea de gaze naturale si bransament gaze naturale prin pozare subterana. Zona afectata de lucrari se va aduce obligatoriu la stadiul initial. \nZona D", "lng": 21.2080202}, {"beneficiar": "BLOCAU SEBASTIAN DANIEL si sotia BLOCAU ELENA DANIELA", "lat": 45.754102, "adresa": " Stefan Octavian Iosif nr.28 ap.9", "data": "20.11.2013", "descriere": "Lucrari de tip a)Constructii pentru locuinte.Modificari interioare si exterioare la ap.9 autorizat cu AC nr.656/21.05.2012. Scmentinuta=48,83mp.; Sdmentnuta=140,08 mp.Zona C.", "lng": 21.253349}, {"beneficiar": "RADU IOAN si sotia RADU LUCIA", "lat": 45.760726, "adresa": " EROII DE LA PAULIS nr.12", "data": "20.11.2013", "descriere": "Lucrari tip a - Constructii pentru locuinte - Reparare, consolidare, mansardare casa P rezultand P+M si extindere  in regim P+1E - intrare in legalitate conform L50/91 rep.(P.V. 11/1998 din 07.08.2013). Zona C. Sc=45.5 mp, Sd=141 mp. ", "lng": 21.203049}, {"beneficiar": "CRISAN LIDIA ELISABETA", "lat": 45.72158, "adresa": " APICULTORILOR nr.9", "data": "11.11.2013", "descriere": "Lucrari de tip c) - Retele edilitare: gaz o?= Bransament gaze naturale prin pozare subterana. Zona afectata de lucrari se va aduce obligatoriu la stadiul initial. Zona C", "lng": 21.2343699}, {"beneficiar": " ASOCIATIA DE PROPRIETARI", "lat": 45.7300759, "adresa": "  INTRAREA PLANTELOR  nr.1 sc.A,B.C", "data": "08.11.2013", "descriere": "Lucrari de tip a) - Constructii pentru locuinte - Reabilitare termica bloc existent S+P+4E", "lng": 21.208569}, {"beneficiar": "ASOCIATIA DE PROPRIETARI", "lat": 45.774697, "adresa": " Linistei nr.23", "data": "07.11.2013", "descriere": "Lucrari de tip a)-Constructii pentru locuinte.Lucrari de reabilitare termica la bloc existent P+4E- Intrare in legalitate conform art.28 din Legea 50/91 rep. si act.(ch.nr. 7253191/03.06.2013)", "lng": 21.225701}, {"beneficiar": "BORTUN ILIE SI BORTUN CRISTINA MARIA", "lat": 45.754732, "adresa": " Lucian Blaga nr.1 ap.4", "data": "27.11.2013", "descriere": "Lucro?=ri de tip b)-Schimbare destinao?=ie de spao?=iu din locuino?=o?= ( ap.4) o?=n S.A.D.", "lng": 21.227735}, {"beneficiar": "BORTUN MIRCEA CIPRIAN", "lat": 45.754732, "adresa": " Lucian Blaga nr.1 ap.17", "data": "27.11.2013", "descriere": "Lucro?=ri de tip b)- Construco?=ii pentru comero?=- Schimbare destinao?=ie de spao?=iu din locuino?=o?= ( ap.17 ) o?=n S.A.D.", "lng": 21.227735}, {"beneficiar": "DEMJEN DEZIDERIU si sotia DEMJEN TUNDE IBOLYA", "lat": 45.729386, "adresa": " C.BUZIASULUI nr.60", "data": "20.11.2013", "descriere": "Lucrari de tip a)- Constructii pentru comert si servicii- Schimbare destinatie spatiu din casa P+M si anexa P autorizata cu AC 287/20.02.2006 in spatiu comercial la parter si birouri la mansarda. Lucrari de tip h)- Constructii cu caracter provizoriu- Amplasare firma pe fatada cladirii. Zona D.", "lng": 21.26817}, {"beneficiar": "MARZA MARCEL", "lat": 45.7653352, "adresa": " TELEGRAFULUI nr.48", "data": "20.11.2013", "descriere": "Lucrari tip a), d)- Constructii pentru locuinte- Construire casa P+M, refacere imprejmuire. Zona B. Sc=99,54 mp ; Sd= 192,78 mp.", "lng": 21.2540525}, {"beneficiar": "CROITORU  ANA  MARIA", "lat": 45.7785182, "adresa": " TIMIS nr.14 bl.36 sc.A et.IX ap.34", "data": "07.11.2013", "descriere": "Lucrari de tip a) Constructii pentru locuinte - Modificari interioare la ap.11 pentru imbunatatirea confortului. Zona D.", "lng": 21.2120382}, {"beneficiar": "ORGONAS  VIORICA ", "lat": 45.72310299999999, "adresa": " DIMITRIE DINICU nr.11", "data": "07.11.2013", "descriere": "Lucrari de tip a-Constructii pentru locuinta- Construire casa in regim parter, refacere imprejmuire.Zona D. Scd= Sc= 106,93 mp.", "lng": 21.262432}, {"beneficiar": "DUMITRESCU - ELIAN ADRIAN VALENTIN si sotia DUMITRESCU - ELIAN MARIANA  ANDREIA", "lat": 45.7400254, "adresa": " MEMORANDULUI nr.47", "data": "07.11.2013", "descriere": "Lucrari tip d) - Imprejmuire - Realizare imprejmuire teren proprietate privata.", "lng": 21.2303929}, {"beneficiar": "POPESCU ADRIAN,POPESCU SONIA CRISTINA", "lat": 45.733511, "adresa": " TRAIAN VUIA nr.12", "data": "06.11.2013", "descriere": "Lucrari de tip c). - Retele edilitare- gaz.  Bransament gaze naturale prin pozare subterana.", "lng": 21.224212}, {"beneficiar": " PAROHIA ORTODOXA ROMANA TIMISOARA FABRIC -ARHIEPISCOPIA ORTODOXA ROMANA A TIMISOAREI", "lat": 45.7581506, "adresa": " Moise Nicoara nr.17", "data": "27.11.2013", "descriere": "Lucrari de tip b)Constructii pentru invatamant. Consolidare, modificare, extindere, rebilitare si schimbare destinatie cladire existenta in scoala ''ANTIM IVIREANUL'' clasele I-VIII.", "lng": 21.2580735}, {"beneficiar": "S.C. TIMISOARA CITY BUSINESS CENTRE ONE S.A.", "lat": 45.756417, "adresa": " CORIOLAN BREDICEANU nr.10A", "data": "18.11.2013", "descriere": "Lucrari tip a) - Desfiintari -  Demontare firma  luminoasa  autorizata cu AC 1684/06.11.2012. \n", "lng": 21.22109}, {"beneficiar": "GHERGHINA  COSMIN CONSTANTIN  si sotia GHERGHINA ANDREEA", "lat": 45.762859, "adresa": " MIRCEA CEL BATRAN  nr.115B", "data": "18.11.2013", "descriere": "Lucrari tip a - Constructii pentru locuinte - Construire casa familiala in regim P+1E cu garaj inclus, acces auto si imprejmuire. Zona C. Sc=116 mp, Sd=230mp, St=326 mp", "lng": 21.192279}, {"beneficiar": "CZIFRA LADISLAU EMERIC ", "lat": 45.72227400000001, "adresa": " VINATORILOR nr.38", "data": "06.11.2013", "descriere": "Lucrari de tip c). - Retele edilitare - gaz. Bransament gaze naturale prin pozare subterana", "lng": 21.224466}, {"beneficiar": "MIHOC  OVIDIU ZENO", "lat": 45.7376867, "adresa": " VULTURILOR nr.81", "data": "06.11.2013", "descriere": "Lucrari de tip c)-Retele edilitare-gaz-Bransament gaze naturale prin pozare subterana.\nZona afectata de lucrari se va aduce obligatoriu la stadiul initial.", "lng": 21.1996189}, {"beneficiar": "MILUTINOVICI EUGEN SI MILUTINOVICI VALENTINA-EMILIA", "lat": 45.7357127, "adresa": " TOLSTOI nr.2/A", "data": "06.11.2013", "descriere": "Lucrari de tip c) - Retele edilitare - apa. Bransament apa. Zona afectata de lucrari se va aduce obligatoriu la stadiul initial. Zona B", "lng": 21.2177661}, {"beneficiar": "S.C. M.S.N. DISTRIBUTION S.R.L.", "lat": 45.7421209, "adresa": " C.BRANCOVEANU nr.1 ap.2", "data": "26.11.2013", "descriere": "Lucrari de tip b) - Constructii pentru comert - Schimbare destinatie spatiu din locuinta (ap. 2) in spatiu comercial, modificari interioare si creare 2 accese din exterior. Zona B", "lng": 21.2135597}, {"beneficiar": "SC  ROMTELECOM SA", "lat": 45.763419, "adresa": " TEIULUI  nr.7", "data": "26.11.2013", "descriere": "Lucrari tip a) - Constructii pentru servicii( centrala telefonica ) - Compartimentari interioare  si  lucrari de tip h) - Constructii cu caracter provizoriu - Amplasare firma  pe fatada cladirii pe perioada contractului de inchiriere  nr. 100/08/02/7229 din 14.08.2013 - SC SYNEVO ROMANIA SRL ", "lng": 21.218342}, {"beneficiar": "CIOBANU ION", "lat": 45.770112, "adresa": " FRIGULUI  nr.1", "data": "26.11.2013", "descriere": "Lucrari de tip a) - Desfiintari - Demolare casa. Zona B", "lng": 21.249119}, {"beneficiar": "OPREANU  CALIN ", "lat": 45.762951, "adresa": " HORIA  nr.20", "data": "15.11.2013", "descriere": "Lucrari de tip a)- Constructii pentru locuinte - Construire anexa gospodareasca in regim P - intrare in legalitate conform procesului verbal de constatare si sanctionare nr.16/199  din data de 01.10.2013. St=666mp  Sc=55,34 mp", "lng": 21.207343}, {"beneficiar": "SCHELEAN DORINA si sotul SCHELEAN  NICUSOR -DOREL", "lat": 45.7563411, "adresa": " ZOLTAN FRANYO nr.5", "data": "15.11.2013", "descriere": "Lucrari de tip c) - Retele edilitare: gaz o?= Reamplasare bransament gaze naturale prin pozare subterana. Zona afectata de lucrari se va aduce obligatoriu la stadiul initial. Zona B.", "lng": 21.2127707}, {"beneficiar": "JUPINEANT TEODOR IOAN si sotia JUPINEANT AURICA", "lat": 45.763685, "adresa": " CALEA GHIRODEI nr.77", "data": "15.11.2013", "descriere": "Lucrari de tip c) - Retele edilitare - apa, canal - Bransament apa si racord canal. Zona afectata de lucrari se va aduce obligatoriu la stadiul initial.", "lng": 21.283446}, {"beneficiar": "DRAPANOTIS  SORIN  MIHAI", "lat": 45.726897, "adresa": " FRAGILOR nr.4", "data": "15.11.2013", "descriere": "Lucrari de tip c) - Retele edilitare - apa, canal. Bransament apa si racord canal. Zona afectata de lucrari se va aduce obligatoriu la stadiul initial. Zona D", "lng": 21.182066}, {"beneficiar": "PURDEA  NICULINA  FLORINA ,PURDEA OVIDIU", "lat": 45.726441, "adresa": " TRAIAN VUIA nr.74", "data": "06.11.2013", "descriere": "Lucrari de tip a) - Construco?=ii pentru locuinte - Construire casa unifamilialo?= in regim de inaltime P+M ;Lucrari de tip d)-Imprejmuire-Realizare imprejmuire posterioara si laterala spate;Sc=63,67mp,Sd=127,34mp", "lng": 21.22353}, {"beneficiar": "COVACI ELENA", "lat": 45.7505637, "adresa": " C.D.LOGA nr.35 et.I ap.2", "data": "06.11.2013", "descriere": "Lucrari de tip b)- Locuinte- Reparatii interioare la ap.nr.2 ( reparatii pardoseli, tencuieli, zugraveli interioare ). Zona A.", "lng": 21.2262484}, {"beneficiar": "SC SPIRAL COLONADE SRL", "lat": 45.727106, "adresa": " Muzicescu  nr.23", "data": "05.11.2013", "descriere": "Lucrari de tip a) - Constructii pentru locuinte -Continuare de lucrari; modificari interioare si exterioare la imobil (locuinte colective D+P+2E+Er cu 22 apartamente,26 locuri de parcare) autorizat cu A.C. nr. 2728/07.10.2008", "lng": 21.21129}, {"beneficiar": "AGEU PETRISOR,GORNIC SILVANA SI GORNIC EUGEN", "lat": 45.75667300000001, "adresa": " Eugeniu de Savoya nr.10", "data": "26.11.2013", "descriere": "Lucrari de tip b)-Constructii pentru locuinte-Continuare lucrari autorizate cu A.C. nr. 2079/06.08.2007-Reamenajare subsol,parter,supraetajare,amenajare acces imobil.", "lng": 21.229243}, {"beneficiar": "SC  GGDIAGNOSTICA SRL", "lat": 45.757952, "adresa": " C.Negruzzi nr.23", "data": "15.11.2013", "descriere": "Lucrari de tip c)-Retele edilitare-gaz.Bransament gaze naturale prin pozare subterana.Zona afectata de lucrari se va aduce obligatoriu la stadiul initial.", "lng": 21.253099}, {"beneficiar": "CRETU RALUCA DIANA", "lat": 45.75550500000001, "adresa": " BABA DOCHIA bl.D2 sc.A et.P ap.4", "data": "14.11.2013", "descriere": "Lucrari de tip a)-Constructii pentru locuinte - Construire balcon conform HCL.35/2008 la apartamentul 4 pentru imbunatatirea confortului. Zona D.", "lng": 21.253477}, {"beneficiar": "STANCU PAMPI", "lat": 45.7526579, "adresa": " CAMIL PETRESCU nr.2", "data": "05.11.2013", "descriere": "Lucrari de tip d)- Imprejmuire- Inlocuire imprejmuire existenta spre vecinatati. Amenajare incinta. Zona B.", "lng": 21.233704}, {"beneficiar": "BIROU EXECUTOR JUDECATORESC JURCHESCU  CRISTIAN  MIHAI  ", "lat": 45.75768, "adresa": " Paul Chinezu nr.1", "data": "05.11.2013", "descriere": "Lucro?=ri de tip b)- Construco?=ii pentru funco?=iuni caracteristice zonei centrale- Reparao?=ii de urgeno?=o?= la cornio?=o?= o?=i zonele adiacente  -lucro?=ri de interveno?=ie o?=n primo?= urgeno?=o?= conform Legea 50/1991 art.7 alin (16) o?=i (16)^ , Zona A", "lng": 21.230695}, {"beneficiar": "CINCU TRAIAN  SI CINCU CORNELIA", "lat": 45.773212, "adresa": " Carei nr.4 sc.B et.parter ap.3", "data": "04.11.2013", "descriere": "Lucrari de tip a)-Constructii pentru locuinte-Construire 2 balcoane conform HCL nr.35/2008 la apartamentul nr.3 pentru imbunatatirea confortului.", "lng": 21.220387}, {"beneficiar": "BOLGEA MARIUS-ADRIAN SI BOLGEA ANDREEA LAURA", "lat": 45.738499, "adresa": " BUDAI DELEANU nr.22 ap.3", "data": "04.11.2013", "descriere": "Lucrari de tip a)-Constructii pentru servicii-Schimbare destinatie din locuinta in birouri la ap. nr.3", "lng": 21.205309}, {"beneficiar": "MANESCU MIHAELA", "lat": 45.736014, "adresa": " SIRIUS nr.1/B bl.93 sc.D et.1 ap.4", "data": "26.11.2013", "descriere": "Lucrari de tip a)- Constructii pentru locuinte- Modificari interioare si exterioare apartament nr.4. Zona D.", "lng": 21.247337}, {"beneficiar": "PENTIA MIRCEA CONSTANTIN", "lat": 45.7466201, "adresa": " TREBONIU LAUREAN nr.10", "data": "26.11.2013", "descriere": "Lucro?=ri de tip b) - Construco?=ii pentru locuinte - Reparatii capitale sarpanta si elemente planseu pod, inlocuire invelitoare existenta cu invelitoare din tigla ceramica rosie; reparatii si zugravire fatade. Lucrari de tip d) - Imprejmuire - Reparatii si inaltare imprejmuire. Zona B.", "lng": 21.2185569}, {"beneficiar": "CRAINIC VIOREL SI CRAINIC MARIA", "lat": 45.7557649, "adresa": " Cezar Boliac nr.10/A", "data": "14.11.2013", "descriere": "Lucrari de tip a) constructii pentru locuinte.Extindere casa in regim de inaltime P(ap.nr.3),Scp=Sdp=33,47 mp.Zona C.", "lng": 21.259901}, {"beneficiar": "SC SIRREM SRL", "lat": 45.73095929999999, "adresa": " C.BRANCOVEANU nr.104", "data": "14.11.2013", "descriere": "Constructii pentru SAD- Schimbare destinatie spatiu partial din casa in SAD- spatiu comercial. Zona C", "lng": 21.2187682}, {"beneficiar": "INSPECTORATUL DE POLITIE AL JUDETULUI TIMIS", "lat": 45.7599321, "adresa": " TAKE IONESCU nr.44-46", "data": "14.11.2013", "descriere": "Lucrari de tip a),d) Amenajare 2 locuri de parcare acoperite in incinta IPJ TIMIS.Zona B", "lng": 21.240886}, {"beneficiar": "POMPIDOU  KARIN ( nascuta POPP) ", "lat": 45.756252, "adresa": " AUREL COSMA nr.8 et.P ap.1", "data": "14.11.2013", "descriere": "Lucrari de  tip b)- Constructii pt. sanatate- Schimbare destinatie spatiu ( fara modificari interioare ) din locuinta in cabinet medical  ,,ADESA MED SRL \"si amplasare firma pe fatada", "lng": 21.222174}, {"beneficiar": "ASOCIATIA  DE  PROPRIETARI", "lat": 45.751577, "adresa": " PIATA VICTORIEI nr.8", "data": "04.11.2013", "descriere": "Lucrari de tip b) - Constructii pentru locuinte, servicii, comert - Lucrari pentru interventia de urgenta privind lucrari de punere in siguranta la nivelul fatadei si anume: controlul detaliat al intregii suprafete a fatadei pt. depistarea tuturor zonelor cu tencuiala degradata/fisurata/umezita in vederea indepartarii si refacerii ei; controlul detaliat al elementelor la nivelul streasinei acoperisului pt. depistarea tuturor elementelor din lemn degradate in vederea indepartarii si inlocuirii lor; demontarea accesoriilor metalice deteriorate ale streasinei si inlocuirea acestora cu altele noi; curatirea manuala a zonelor degradate ale elementelor metalice de la balcoanele fatadei, repararea si protejarea lor impotriva coroziunii; finisarea zonelor de interventie ale fatadei principale se va face cu materiale poroase (care sa permita respiratia peretelui utilizand aceleasi culori ca cele existente pe fatada  (conf. Aviz DCCPCN al jud. Timis nr. 2119/21.10.2013; p-v control ISC-DRC Vest nr. 22183/20139/ 09.10.2013), conform Legea 50/1991 art. 7 alin (16) o?=i (16)^. Zona A ", "lng": 21.224079}, {"beneficiar": "ASOCIATIA DE PROPRIETARI", "lat": 45.748607, "adresa": " BV. 16 DECEMBRIE 1989 nr.5", "data": "26.11.2013", "descriere": "Lucrari de tip b) - Constructii pentru locuinte, servicii, comert - Lucrari pentru interventia de urgenta privind lucrari de punere in siguranta la nivelul fatadei si anume: verificarea in camp a tencuielilor si desfacerera celor desprinse de pe suport; elementele decorative cu pericol de desprindere de suport se vor desface cu grija in vederea utilizarii lor pentru rconstituirea partilor lipsa; se va contacta o firma de proiectare pentru a releva fatada si a realiza documentarul fotografic in vederea intocmirii documentatiei pt. obtinerea Autorizatiei de construire pentru reabilitare/restaurare fatada conform legii; se va efectua in paralel documentatia pt. reabilitare/restaurare fatada, avand in vedere existenta elementelor decorative aflate in stare de degradare si pt. a se putea realiza reconstituirea intregii fatade, in scopul punerii in valoare si aducerea la forma initiala (conf. Aviz DCCPCN al jud. Timis nr. 1160/17.06.2013; P-V control ISC-DRC Vest nr. 11991/19897/ 07.06.2013), conform Legea 50/1991 art. 7 alin (16) o?=i (16)^. Zona B", "lng": 21.219114}, {"beneficiar": "SERBESCU  IOAN", "lat": 45.76750699999999, "adresa": " RENASTERII nr.35/B", "data": "25.11.2013", "descriere": "Lucrari de tip c) - Retele edilitare - gaz  - Extindere retea si bransament gaze naturale de presiune redusa prin pozare subterana - Zona B", "lng": 21.254335}, {"beneficiar": "PIRVUT AUGUSTINA-FLORENTINA", "lat": 45.755598, "adresa": " SEMICERC nr.24 C", "data": "25.11.2013", "descriere": "Lucrari de tip c) - Retele edilitare - gaz. Bransament gaze naturale prin pozare subterana. Zona afectata de lucrari se va aduce obligatoriu la stadiul initial. Zona D", "lng": 21.195297}, {"beneficiar": "STANGU  ION STELIAN  si sotia STANGU FELICIA", "lat": 45.76364299999999, "adresa": " HORIA  nr.43", "data": "14.11.2013", "descriere": "Lucrari tip d - Imprejmuiri - Realizare imprejmuire pe limita de proprietate. Zona C.", "lng": 21.204063}, {"beneficiar": "ONCEA NICOLETA ANA", "lat": 45.760604, "adresa": " MOISE DOBOSAN nr.90", "data": "14.11.2013", "descriere": "Lucrari tip a - Constructii pentru locuinte - Consolidare corp cladire C2, modificari interioare si exterioare. Zona C.", "lng": 21.191429}, {"beneficiar": "MATIUTA  OLIMPIU  SI  MATIUTA GABRIELA", "lat": 45.7313637, "adresa": " AGRONOMIEI nr.15", "data": "14.11.2013", "descriere": "Lucrari de tip c)-Retele edilitare-apa-canal-Bransament apa si racord canal.\nZona afectata de lucrari se va aduce in mod obligatoriu la stadiul initial.", "lng": 21.1859428}, {"beneficiar": "NUTU  LAVINIA  MIHAELA si NUTU GHEORGHE COSMIN", "lat": 45.733068, "adresa": " DAMBOVITA  nr.33", "data": "14.11.2013", "descriere": "Lucrari de tip a) - Constructii pentru comert - Schimbare destinatie spatiu din casa P+1E cu casa scarii in spatiu comercial. Zona D", "lng": 21.204554}, {"beneficiar": "GHELSINGHER  NICOLAE,URSAN DOINA", "lat": 45.73037799999999, "adresa": " ULPIA TRAIANA  nr.70", "data": "31.10.2013", "descriere": "Lucrari de tip c) - Retele edilitare - apa, canal - Bransament apa, racord canal ", "lng": 21.226214}, {"beneficiar": "CHIRILA DUMITRU SI CHIRILA GEORGETA", "lat": 45.738288, "adresa": " CRIZANTEMELOR nr.42-44 ap.1", "data": "31.10.2013", "descriere": "Lucrari de tip c) -Retele edilitare-gaz-Bransament gaze naturale prin pozare subterana.\nZona afectata de lucrari se va aduce obligatoriu la stadiul initial.", "lng": 21.203797}, {"beneficiar": "MISIUNEA CRESTINA CRISTOS pentru ROMANIA ", "lat": 45.7577594, "adresa": " BANUL MARACINE  nr.25", "data": "25.11.2013", "descriere": "Lucrari de tip c)- Retele edilitare- Gaz- Reamplasare bransament gaze naturale prin pozare subterana.  Zona afectata de lucrari se va aduce obligatoriu la stadiul initial. Zona D", "lng": 21.2072186}, {"beneficiar": "GYULAY ANA", "lat": 45.762304, "adresa": " MATRAGUNEI nr.48", "data": "25.11.2013", "descriere": "Lucrari de tip c) - Retele edilitare - apa, canal - Bransament apa si racord canal. Zona afectata de lucrari se va aduce obligatoriu la stadiul initial.Zona D", "lng": 21.282585}, {"beneficiar": "SC LIDL ROMANIA SCS", "lat": 45.778056, "adresa": " I. I. DE LA BRAD nr.15A", "data": "25.11.2013", "descriere": "lucrari de tip c) - Retele edilitare - gaz. Extindere reo?=ea o?=i bransament gaze naturale prin pozare subterana. Zona afectata de lucrari se va aduce obligatoriu la stadiul initial. Zona D.", "lng": 21.242186}, {"beneficiar": "BALINT DANIEL  si sotia BALINT RAMONA EDELINA", "lat": 45.7589715, "adresa": " BRUXELLES nr.24", "data": "14.11.2013", "descriere": "Lucrari tip a) -Desfiintari - Demolare casa existenta P. Zona C.", "lng": 21.186377}, {"beneficiar": "FLONTA AUREL SI FLONTA MARIA", "lat": 45.773784, "adresa": " Haga nr.1", "data": "14.11.2013", "descriere": "Lucrari de tip a)-Constructii pentru locuinte-Extindere cu pergola la casa P+1E existenta si Modificare la constructie autorizata cu A.C. nr. 2854/17.11.2005,prin extindere laterala dreapta- intrare in legalitate conform art. 28 din Legea nr 50/1991 rep si act.(ch.nr. 7360018/15.10.2013)", "lng": 21.228569}, {"beneficiar": "SC  PRIME  PROPRIETATI SRL  ", "lat": 45.75361239999999, "adresa": " B-dul REPUBLICII nr.10 sc.A ap.57", "data": "14.11.2013", "descriere": "Lucro?=ri de tip b)- Construco?=ii pt. servicii- Reparao?=ii de urgeno?=o?= la invelitoare peste terasa necirculabila P -lucro?=ri de interveno?=ie o?=n primo?= urgeno?=o?= conform Legea 50/1991 art.7 alin (16) o?=i (16)^ , Zona A", "lng": 21.2232095}, {"beneficiar": "FILIPAS SLAGIAN si sotia FILIPAS ANDREEA - LARISA, FILIPAS EMIL si FILIPAS IULIANA", "lat": 45.7395315, "adresa": " COZIA nr.48", "data": "31.10.2013", "descriere": "Lucrari de tip c) - Retele edilitare apa, canal - Bransament apa si racord canal. Zona afectata de lucrari se va aduce obligatoriu la stadiul initial. Zona C", "lng": 21.2331288}, {"beneficiar": "  RISCUTA ALEX-CORNELIU,RISCUTA  FLAVIA MARIA, RISCUTA  CORNELIU-ARTHUR  RISCUTA ELISABETA,  HAJOUAN", "lat": 45.741932, "adresa": " IANCU VACARESCU  nr.2 ap.4", "data": "21.11.2013", "descriere": "Lucrari de tip b)-Constructii pentru servicii si comert-Modificari interioare, schimbare destinatie din locuinta in SAD (spatiu cu alta destinatie) si realizare acces din exterior.", "lng": 21.2106602}, {"beneficiar": "CEOARA CRISTIAN  NICOLAE SI CEOARA EMILIA", "lat": 45.773824, "adresa": " Liege  nr.18", "data": "14.11.2013", "descriere": "Lucrari de tip a)-Constructii pentru locuinte-\"Intrare in legalitate conform proces verbal-reparatii,consolidari si izolare termica\",conform Sentintei civile nr.3551/14.10.2012 pronuntata de Tribunalul Timis in dosar nr. 7575/30/2011 ramasa definitiva si irevocabila prin Decizia civila nr. 6240/03.07.2013 pronuntata de Curtea de Apel Timisoara. in dosar nr. 7575/30/2011", "lng": 21.218967}, {"beneficiar": "IERCAN DANIEL, IERCAN ANA MARIA", "lat": 45.745799, "adresa": " BV. MIHAI VITEAZU nr.20 ap.2", "data": "14.11.2013", "descriere": "Lucrari de tip b) - Constructii pt. sanatate - Schimbare destinatie din ap. 2 in cabinet medical (cabinet de medicina dentara). Lucrari de tip h) - Constructii cu caracter provizoriu - Amplasare firma pe fatada, pe durata contractului de comodat. Zona B.", "lng": 21.2251179}, {"beneficiar": "LICA OPREA si sotia LICA DORINA", "lat": 45.754573, "adresa": " GHIOCEILOR  nr.10/B", "data": "31.10.2013", "descriere": "Lucrari de tip c)- Retele edilitare-  Canal- Racord canal. Zona afectata de lucrari se va aduce obligatoriu la stadiul initial. Zona C", "lng": 21.2071141}, {"beneficiar": "SZOKOL CLEMANSA", "lat": 45.721694, "adresa": " N. PAGANINI nr.38", "data": "31.10.2013", "descriere": "Lucrari de tip c) - Retele edilitare - apa. Bransament apa.Zona afectata de lucrari se va aduce obligatoriu la stadiul initial. Zona D", "lng": 21.17929}, {"beneficiar": "GODO  ZOLTAN  STEFAN", "lat": 45.723047, "adresa": " N. PAGANINI nr.16/D", "data": "31.10.2013", "descriere": "Lucrari de tip c) - Retele edilitare - gaz. Extindere retea si bransament gaze naturale prin pozare subterana. Zona afectata de lucrari se va aduce obligatoriu la stadiul initial. Zona D", "lng": 21.177161}, {"beneficiar": "DOBRE DANIEL LUCIAN si sotia DOBRE LUCIA DANA", "lat": 45.72552400000001, "adresa": " MATEI MILLO nr.32", "data": "13.11.2013", "descriere": "Lucrari de tip c)- Retele edilitare-canal. Racord canal. Zona C.", "lng": 21.262417}, {"beneficiar": "RUGEA FLORIAN ,RUGEA ILEANA", "lat": 45.72604399999999, "adresa": " GAVRIL MUSICESCU nr.55A", "data": "13.11.2013", "descriere": "Lucrari de tip c). - Retele edilitare - energie electrica. : Reglementare instalatii electrice apartinand SC ENEL Distributie Banat SA - Mutare stalp ENEL", "lng": 21.2214509}, {"beneficiar": "ISPILANTE  ELENA", "lat": 45.7636646, "adresa": " MATASARILOR nr.47", "data": "31.10.2013", "descriere": "Lucrari de tip c)- Retele edilitare-apa,canal. Bransament apa si racord canal. Zona afectata de lucrari se va aduce obligatoriu la stadiul initial.", "lng": 21.2624537}, {"beneficiar": "TRIFA DOREL si sotia TRIFA VIORICA", "lat": 45.763831, "adresa": " RENASTERII nr.9A", "data": "31.10.2013", "descriere": "Lucrari de tip c) - Retele edilitare: gaz o?= Bransament gaze naturale prin pozare subterana. Zona afectata de lucrari se va aduce obligatoriu la stadiul initial. Zona B", "lng": 21.255494}, {"beneficiar": "AXINIA NICOLAE si sotia AXINIA DANIELA", "lat": 45.762107, "adresa": " PRIETENIEI nr.21", "data": "31.10.2013", "descriere": "Lucrari tip a)- Constructii pt. locuinte- Construire anexa parter- Intrare in legalitate conform procesului verbal de constatare si sanctionare a contraventiilor nr. 29/AX030304/20.05.2013. Zona D  Sc=Sd=104 mp", "lng": 21.285242}, {"beneficiar": "S.C. ART S.R.L.", "lat": 45.756088, "adresa": " CORIOLAN BREDICEANU nr.6A", "data": "31.10.2013", "descriere": "Lucrari de tip c) - Retele edilitare - gaz. Extindere retea gaze naturale si bransament gaze naturale presiune redusa prin pozare subterana. Zona afectata de lucrari se va aduce obligatoriu la stadiul initial. ", "lng": 21.225266}, {"beneficiar": "OPRA  RAMONA -  CRISTIANA  SI OPRA CIPRIAN", "lat": 45.775181, "adresa": " Linistei nr.7-9", "data": "13.11.2013", "descriere": "Lucrari de tip c)-Retele edilitare-Extindere retea gaze naturale si bransament gaze naturale prin pozare subterana.Zona afectata de lucrari se va aduce obligatoriu la stadiul initial", "lng": 21.223388}, {"beneficiar": "SZOKE ZSOLT si sotia SZOKE IREN", "lat": 45.762424, "adresa": " MIRCEA CEL BATRAN  nr.85", "data": "13.11.2013", "descriere": "Lucreari tip c) - Retele edilitare - Reamplasare bransament gaze naturale presiune redusa , prin pozare subterana. Zona C. Zona afectata de lucrari se va aduce obligatoriu la stadiul initial.", "lng": 21.198829}, {"beneficiar": "MURESAN  DANIEL  AUREL si sotia MURESAN  MARIANA  ALINA", "lat": 45.72152, "adresa": " APICULTORILOR nr.15", "data": "13.11.2013", "descriere": "Lucrari de tip c) - Retele edilitare apa, canal - Bransament apa si racord canal. Zona afectata de lucrari se va aduce obligatoriu la stadiul initial. Zona D", "lng": 21.235295}, {"beneficiar": "MARINCA VALENTIN BOGDAN si MARINCA AMALIA LOREDANA", "lat": 45.760636, "adresa": " MOISE DOBOSAN nr.101A", "data": "31.10.2013", "descriere": "Lucrari de tip c) - Retele edilitare - gaz - Bransament gaze naturale prin pozare subterana.Zona afectata de lucrari se va aduce obligatoriu la stadiul initial. Zona C", "lng": 21.190477}, {"beneficiar": "GAL TIBERIU  si GAL ANA", "lat": 45.753525, "adresa": " Vasile Carlova nr.8/A", "data": "13.11.2013", "descriere": "Lucrari de tip c) - Retele edilitare: gaz o?= Bransament gaze naturale prin pozare subterana. Zona afectata de lucrari se va aduce obligatoriu la stadiul initial. Zona C", "lng": 21.2602939}, {"beneficiar": "SC AKROS SRL", "lat": 45.7315627, "adresa": " BRANCOVEANU nr.107", "data": "13.11.2013", "descriere": "Lucrari de tip c) - Racordare la SEN a panourilor fotovoltaice pentru producere energiei electrice amplasate pe acoperis - pozare cablu subteran 160m ", "lng": 21.2189646}, {"beneficiar": "PAUNCU TIBERIU,PAUNCU ELENA ANA", "lat": 45.725651, "adresa": " V.HUGO nr.28", "data": "13.11.2013", "descriere": "Lucrari de tip c). - Retele edilitare - apa,canal - Bransament apa,racord canal ", "lng": 21.212513}, {"beneficiar": "ARNAUTU MARIAN CATALIN si ARNAUTU ALINA GABRIELA", "lat": 45.726625, "adresa": " EDGAR QUINET nr.15", "data": "13.11.2013", "descriere": "Lucrari de tip c) - Retele edilitare apa, cana l- Bransament apa si racord canal. Zona afectata de lucrari se va aduce obligatoriu la stadiul initial. Zona C", "lng": 21.244427}, {"beneficiar": "ASOCIATIA  DE  LOCATARI", "lat": 45.729895, "adresa": " RECOLTEI nr.13 bl.F2", "data": "31.10.2013", "descriere": "Lucrari de tip c)- Retele edilitare-gaz. Extindere retea si bransament gaze naturale prin pozare subterana. Zona C.", "lng": 21.259433}, {"beneficiar": "BILEA PETRU VIRGIL", "lat": 45.764563, "adresa": " AMFOREI nr.13 ap.4", "data": "30.10.2013", "descriere": "Lucrari de tip a)-Constructii pentru locuinte-Construire balcon conform HCL.35/2008 la apartamentul 4 pentru imbunatatirea confortului", "lng": 21.214568}, {"beneficiar": "DIMITRIU SERGIU CRISTIAN si DIMITRIU LAURENTIU", "lat": 45.757565, "adresa": " DAN CAPITAN nr.38", "data": "30.10.2013", "descriere": "Lucrari de tip d)- Constructii pt. locuinte-  Realizare acces auto . ZONA. C", "lng": 21.202711}, {"beneficiar": "STOICHESCU ION si STOICHESCU AURELIA DANIELA", "lat": 45.72685, "adresa": " EDGAR QUINET nr.13", "data": "13.11.2013", "descriere": "Lucrari de tip c) - Retele edilitare apa, canal - Bransament apa si racord canal. Zona afectata de lucrari se va aduce obligatoriu la stadiul initial. Zona C", "lng": 21.24447}, {"beneficiar": "POPESCU  IOAN  SI VERGINA", "lat": 45.775073, "adresa": " ALBINELOR nr.98", "data": "12.11.2013", "descriere": "Lucrari de tip a) - Constructii pentru locuinte - Modificari interioare si exterioare la cladire autorizata cu A.C. nr. 658/11.05.2010 - \"Extindere si amenajare mansarda in pod existent rezultand locuinta P+M. St = 318,00 mp, Sc = 11,52 mp, Sd = 136,16 mp.\" - intrare in legalitate cu apl. art.28/ L.50/91act. - PVR nr. 92/76/19.08.2010. Zona C. ", "lng": 21.250368}, {"beneficiar": "GHELTOFAN  LOREDANA- CAMELIA si  MICULA IOAN- MARIUS", "lat": 45.76134099999999, "adresa": " PELICANULUI nr.18", "data": "12.11.2013", "descriere": "Lucrari de tip c) - Retele edilitare - apa, canal - Bransament apa si racord canal. Zona afectata de lucrari se va aduce obligatoriu la stadiul initial.", "lng": 21.279692}, {"beneficiar": "TEMCIUC IOAN ,TEMCIUC SABINA", "lat": 45.722357, "adresa": " HERCULANE nr.75 ap.2", "data": "30.10.2013", "descriere": "Lucrari de tip a) -Constructii pentru locuinte- Modificari interioare si exterioare.Extindere si schimbare destinatie din sopron in spatiu de locuit cu intrare in legalitate  conf. P.V.nr.262/484 din 05.12.2008, Sc=Sd=28,13mp", "lng": 21.215038}, {"beneficiar": "CIUPA  GHEORGHE  si sotia CIUPA  MARIA ", "lat": 45.7521962, "adresa": " TABORULUI nr.23", "data": "30.10.2013", "descriere": "Lucrari de tip a) -Constructii pt locuinte- Extindere casa in regim P. ( Sc=43,39mp, St=840mp)", "lng": 21.1911023}, {"beneficiar": "PETCOV  GHEORGHE si sotia PETCOV MARIA", "lat": 45.76202199999999, "adresa": " MIRCEA CEL BATRAN nr.28", "data": "30.10.2013", "descriere": "Lucrari de tip a) - Demolare  - Demolare casa si spatiu comercial in regim parter. Sc  = 182,55 mp. Sdem  = 182,55 mp. St=681mp,Zona C.", "lng": 21.206366}, {"beneficiar": "RADU DANIELA", "lat": 45.752012, "adresa": " Bulevardul MIHAI EMINESCU nr.18", "data": "30.10.2013", "descriere": "Lucro?=ri de tip a)-Construco?=ii pentru locuino?=e - Reparatie sarpanta existenta cu acoperis din tigla, realizare termosistem - izolare exterioara la imobil existent D+P+E+pod. Lucrari de tip d) Imprejmuiri - Reparatii la imprejmuire existenta. Zona A.", "lng": 21.231258}, {"beneficiar": "IOCHIM AUREL", "lat": 45.720517, "adresa": " EMIL ZOLA nr.82 ap.3", "data": "30.10.2013", "descriere": "Lucrari de tip a) - Constructii pentru locuinte - Construire anexa gospodareasca in regim P, Sc=Sd=49mp", "lng": 21.2127969}, {"beneficiar": "NICA  GHEORGHE SI SOTIA NICA MARIOARA", "lat": 45.720101, "adresa": " CERCULUI nr.29", "data": "21.10.2013", "descriere": "Lucrari de tip c)- Retele edilitare-gaz- Extindere retea gaze naturale si bransament gaze naturale prin pozare subterana. Zona D.", "lng": 21.219277}, {"beneficiar": "GRUNTZER IOAN  SI  GRUNTZER ROZALIA", "lat": 45.75303, "adresa": " Caprioarei nr.8/3", "data": "21.10.2013", "descriere": "Lucrari de tip c) - Retele edilitare: gaz o?= Extindere retea gaze naturale si bransament gaze naturale prin pozare subterana. Zona afectata de lucrari se va aduce obligatoriu la stadiul initial. Zona D", "lng": 21.261316}, {"beneficiar": "ILIESCU RADU ANTIM si ILIESCU ALINA", "lat": 45.73763539999999, "adresa": " ULPIA TRAIANA nr.6", "data": "21.10.2013", "descriere": "Lucrari de tip c). - Retele edilitare-canal. Racord canal.   Zona afectata de lucrari se va aduce obligatoriu la stadiul initial. Zona : C", "lng": 21.2236628}, {"beneficiar": "BOSTINA FLORIN SI BOSTINA MANUELA", "lat": 45.73236900000001, "adresa": " CONSTANTIN SILVESTRI nr.2/g", "data": "21.10.2013", "descriere": "Lucrari de tip c)-Retele edilitare-gaz-Bransament gaze naturale prin pozare subterana -S.C. CONSULT BYA S.R.L", "lng": 21.1800849}, {"beneficiar": "MUNICIPIUL TIMISOARA", "lat": 45.7505637, "adresa": " BV. CONSTANTIN DIACONOVICI LOGA nr.2", "data": "11.11.2013", "descriere": "Lucrari de tip b) - Constructii pentru institutii publice (cultura) - Lucrari pentru interventia de urgenta privind lucrari interioare: refacerea tencuielii interioare, avariata de la infiltratiile pluviale; revopsirea peretilor avariati holuri, Sala de concert, intrare foaier, grupuri sanitare; refacerea izolarii termice si fonice interioare a acoperisului de tabla al salii; inlocuirea tiglelor de pe acoperis care sunt lipsa sau grav avariate; curatirea jgheaburilor si burlanelor de scurgere si a canalizarii filarmonicii; inlocuirea tevilor de alimentare cu apa si a instalatiilor sanitare; curatirea si etanseizarea instalatiei de clima si caldura, a salii de concert (conf. Aviz DCCPCN a jud. Timis nr. 2100/05.11.2013; Acord ISC-DRC Vest nr. 22700/20153/ 15.10.2013), conform Legea 50/1991 art. 7 alin (16) o?=i (16)^. Zona A ", "lng": 21.2262484}, {"beneficiar": "BELEA IOAN DANIEL, STRELET RADU-CONSTANTIN, STRELET MINODORA, OPRIS CAMELIA", "lat": 45.7366925, "adresa": " GLAD nr.65B", "data": "11.11.2013", "descriere": "Lucrari de tip c) - Retele edilitare - gaz - Bransament gaze naturale prin pozare subterana.Zona afectata de lucrari se va aduce obligatoriu la stadiul initial. Zona C", "lng": 21.2241116}, {"beneficiar": "CRISTETI MARIA, CRISTETI RODICA", "lat": 45.7429116, "adresa": " ODOBESCU nr.37", "data": "11.11.2013", "descriere": "Lucrari de tip c) - Retele edilitare - gaz o?= Bransament gaze naturale prin pozare subterana. Zona afectata de lucrari se va aduce obligatoriu la stadiul initial. Zona B", "lng": 21.2205587}, {"beneficiar": "UNIVERSITATEA POLITEHNICA TIMISOARA", "lat": 45.7535292, "adresa": " PIATA VICTORIEI nr.2", "data": "28.10.2013", "descriere": "Lucrari de tip b) - Constructii pentru invatamant si servicii - Lucrari pentru interventia de urgenta privind lucrari de punere in siguranta la nivelul fatadei si anume: verificarea in co?=mp a tencuielilor si desfacerea celor care sunt desprinse de suport; elementele decorative cu pericol de desprindere de suport se vor desface cu grija in vederea utilizarii lor pt. reconstituirea partilor lipsa; consolidarea planseelor de la balcoane, prin curatire cu metoda de sablare sau jet de aer, inlocuirea armaturii corodate sau rupte prin sudare, refacerea stratului de beton prin torcretare si refacerea tencuielilor; refacerea si rigidizarea prinderii balustradei de la balcoanele interioare; refacerea in totalitate a instalatiilor electrice existente; refacerea in totalitate a instalatiilor de scurgere, apa-canal existente; reparatii la finisajele fatadei (conf. Aviz DCCPCN al jud. Timis nr. 2093/17.10.2013; Acord ISC-DRC Vest nr. 21379/20127/ 01.10.2013), conform Legea 50/1991 art. 7 alin (16) o?=i (16)^. Zona A ", "lng": 21.2249286}, {"beneficiar": "SUCIU  MARIA  , NOVACOVICI  NISTOR, NOVACOVICI LENUTA", "lat": 45.719675, "adresa": " CERCULUI nr.27", "data": "28.10.2013", "descriere": " lucrari de tip c) - Retele edilitare - apa,canal-  Bransament apa si  racord canal ", "lng": 21.2189729}, {"beneficiar": "SC CIOCANUL PRODIMPEX SRL", "lat": 45.76911399999999, "adresa": " CALEA TORONTALULUI nr.17", "data": "18.10.2013", "descriere": "Lucrari de tip h) - Constructii cu caracter provizoriu - Amplasare mesh publicitar  pe  cladire pe perioada contractului de inchiriere    nr.  86/28.08.2012  -  SC  BIOCLINICA  SA  ", "lng": 21.219866}, {"beneficiar": "NICORICI PETRE si sotia NICORICI RODICA", "lat": 45.75788499999999, "adresa": " NICOLAE URSU nr.11", "data": "18.10.2013", "descriere": "Lucrari tip a)- Constructii pentru locuinte- Consolidare si mansardare casa existenta ( corp C1) P rezultand casa regim P+M partial. Zona D. Sd= 175 mp", "lng": 21.276301}, {"beneficiar": "HASNA  DESA si HASNA  DOREL", "lat": 45.734592, "adresa": " DREPTATEA nr.22", "data": "18.10.2013", "descriere": "Lucrari de tip a) - Constructii pentru locuinte - Modificari interioare si creare gol fereastra la fatada principala, la casa P existenta. Zona D", "lng": 21.198843}, {"beneficiar": "POPINCIUC LUCIAN si sotia POPINCIUC COSMINA SIMONA", "lat": 45.767714, "adresa": " ALPINISTILOR nr.21", "data": "28.10.2013", "descriere": "Lucrari de tip c) - Retele edilitare: gaz o?= Bransament gaze naturale prin pozare subterana. Zona afectata de lucrari se va aduce obligatoriu la stadiul initial. Zona D", "lng": 21.265013}, {"beneficiar": "SC LIDL ROMANIA SCS", "lat": 45.778056, "adresa": " I. I. DE LA BRAD nr.15A", "data": "28.10.2013", "descriere": "Lucrari de tip c). - Retele edilitare - apa, canal. Bransament apa si racord canal. Zona afectata de lucrari se va aduce obligatoriu la stadiul initial.Zona D.", "lng": 21.242186}, {"beneficiar": "STOITA TERENTE si sotia STOITA FLORICA AURICA", "lat": 45.742078, "adresa": " 1 DECEMBRIE nr.42", "data": "18.10.2013", "descriere": "Lucrari de tip a) Constructii pentru locuinte - Amenajare si mansardare casa P, rezultand casa in regim de inaltime  P+M, Zona B, Sd=100 mp", "lng": 21.232959}, {"beneficiar": "NOVAC  ROBERT", "lat": 45.73476, "adresa": " VULTURILOR nr.89/2", "data": "18.10.2013", "descriere": "Lucrari de tip a)-Constructii pentru locuinte-Extindere si etajare casa existenta in regim P rezultand casa in regim P+1E.\nScpropusa=30,00 mp; Sdpropusa=134,58 mp", "lng": 21.204334}, {"beneficiar": "S.C. DE IMI S.R.L.", "lat": 45.7372556, "adresa": " MACEDONSKI nr.8", "data": "18.10.2013", "descriere": "Lucrari de tip a) - Constructii pentru servicii, birouri si comert - Construire imobil pentru birouri in regim Dp+P+1E+M. Sc = 215,80 mp, Scd = 705,08 mp", "lng": 21.218583}, {"beneficiar": "SC LUKOIL ROMANIA SRL", "lat": 45.746135, "adresa": " BULEVARDUL EROILOR DE LA TISA nr.22A", "data": "18.10.2013", "descriere": "Lucrari de tip a)-Constructii pt servicii- Modernizare si reamenajare statie de distribuire produse petroliere  existenta in regim P- reamplasare pompe distributie, copertina, signalistica, reamenajare incinta- accese auto, parcaje, zone verzi.  (Sc=509,38mp, St=2000mp)", "lng": 21.23919}, {"beneficiar": "TONI ARPAD  si TONI NICOLETA-DANIELA ", "lat": 45.749209, "adresa": " Rotunda  nr.22", "data": "25.10.2013", "descriere": "Lucrari de tip c) - Retele edilitare: gaz o?= Bransament gaze naturale prin pozare subterana. Zona afectata de lucrari se va aduce obligatoriu la stadiul initial. Zona D", "lng": 21.290072}, {"beneficiar": "DERMENDJIN FLOREAN si sotia DERMENDJIN MARIOARA DOINA", "lat": 45.721747, "adresa": " ANUL 1848 nr.45", "data": "25.10.2013", "descriere": "Lucrari de tip a) Constructii pentru locuinte - Extindere in regim P+Mp cu garaj inclus si anexa P la casa P existenta, rezultand casa in regim P+Mp cu garaj inclus si anexa P - Intrare in legalitate cu aplicarea art. 28 din Legea 50/1991 rep. si act., conform sentintei civile nr. 4030/2013 din 23.07.2013 a Tribunalului Timis, Zona C, St=534 mp, Sc=53,41 mp, Sd=126,79 mp", "lng": 21.2292479}, {"beneficiar": "TOMUS NICOLAE si sotia TOMUS ADRIANA PAULA", "lat": 45.75333, "adresa": " C.A.ROSETTI nr.17", "data": "25.10.2013", "descriere": "Lucrari tip a) - Locuinte - Continuare lucrari la AC.2645/20.09.2007 - Construire casa in regim S+P+1E.", "lng": 21.185309}, {"beneficiar": "ASOCIATIA  DE  PROPRIETARI", "lat": 45.7449073, "adresa": " BUCEGI nr.6 bl.A13/c", "data": "25.10.2013", "descriere": "Lucrari de tip a)- Constructii pentru locuinte- Reabilitare termica bloc existent in regim de inaltime P+4E. Zona B.", "lng": 21.2437431}, {"beneficiar": "FURCEA CRISTINA", "lat": 45.723375, "adresa": " PAGANINI nr.10", "data": "17.10.2013", "descriere": "Lucrari de tip a) - Constructii pentru locuinte - Construire casa in regim de inaltime P+M cu garaj dublu alipit. Lucrari de tip d) - Imprejmuiri - Realizare imprejmuire la frontul; stradal. Sc=166,20 mp. Sd=247,69 mp. St=557 mp. Zona D", "lng": 21.176538}, {"beneficiar": "ASOCIATIA  DE  PROPRIETARI", "lat": 45.75859699999999, "adresa": " CALEA BOGDANESTILOR nr.32", "data": "17.10.2013", "descriere": "Lucrari tip a) - Amenajeri exterioare - Realizare rampa de acces pentru persoane cu dizabilitati. Zona B.", "lng": 21.2081429}, {"beneficiar": "MOLDOVAN NICOLAE si MOLDOVAN CARMELIA", "lat": 45.73361269999999, "adresa": " ENEAS nr.48", "data": "17.10.2013", "descriere": "Lucrari de tip a) - Constructii pentru locuinte - Extindere casa existenta in regim P. Sc=Sd=119,31 mp. Zona C.", "lng": 21.2171952}, {"beneficiar": "PETRUTIU VIRGIL", "lat": 45.7207753, "adresa": " POLONA nr.2 bl.G.80 ap.205-206", "data": "25.10.2013", "descriere": "Lucrari de tip c)-Constructii pentru locuinte- Modificari interioare la ap. nr.205-206.", "lng": 21.1580134}, {"beneficiar": "ARMANCA FLAVIA OLIMPIA  ( fosta BISTREAN)", "lat": 45.760319, "adresa": " MISTRAL nr.11", "data": "25.10.2013", "descriere": "Lucrari tip a)- Constructii pt. locuinte- Construire anexa gospodareasca din lemn in regim P. Zona D. Sc=Sd=47,13 mp", "lng": 21.267088}, {"beneficiar": "TRIFAN CONSTANTA", "lat": 45.7623279, "adresa": " MATRAGUNEI nr.40", "data": "24.10.2013", "descriere": "Lucrari de tip c) - Retele edilitare- gaz o?= Bransament gaze naturale presiune redusa pozat subteran. Zona afectata de lucrari se va aduce obligatoriu la stadiul initial. ", "lng": 21.281546}, {"beneficiar": " MICULA RALUCA si sotul MICULA SEBASTIAN- DANIEL, LUCACIU CORNEL si sotia LUCACIU ROZALIA ANA, LUCAC", "lat": 45.762815, "adresa": " LAPTARILOR nr.3", "data": "24.10.2013", "descriere": "Lucrari de tip c) - Retele edilitare - apa - Bransament apa. Zona afectata de lucrari se va aduce obligatoriu la stadiul initial.", "lng": 21.282443}, {"beneficiar": "BOTI MIHAELA", "lat": 45.739334, "adresa": " MANGALIA nr.9", "data": "17.10.2013", "descriere": "Lucrari  de tip a)-Constructii pentru locuinte-Demolare partiala, exindere si mansardare corp C2 si C3, rezultand casa in regim de inaltime P+M-legalizare conform Art 28 din Legea 50/1991 rep.si act. si conform P.V.Nr. 17/269/07.10.2013.\nScpropusa =79,64 mp; Sdpropusa=159,89 mp\nZona C.", "lng": 21.2062392}, {"beneficiar": "SC BEGA INVEST SA ", "lat": 45.778056, "adresa": " I. I. DE LA BRAD nr.15", "data": "16.10.2013", "descriere": "Lucrari de tip a) - Demolare partiala depozit universal, platforma betonata, cladire post trafo, grup sanitar. Zona D", "lng": 21.242186}, {"beneficiar": "SERACIN GHEORGHE ANTONIU necasatorit si STOICHESCU AGNES MARIA necasatorita", "lat": 45.748956, "adresa": " BITOLIA nr.4", "data": "16.10.2013", "descriere": "Lucrari tip a) - Constuctii pentru locuinte. Extindere si mansardare locuinta parter rezultand locuinta P+M. Zona C. Sc = 48,35 mp, Scd = 91,43 mp", "lng": 21.257193}, {"beneficiar": "SIMIONESCU MARIA, SIMIONESCU CATALIN, SIMIONESCU ION", "lat": 45.763412, "adresa": " DRAGOS VODA  nr.9", "data": "24.10.2013", "descriere": "Lucrari de tip c) - Retele edilitare: gaz o?= Bransament gaze naturale prin pozare subterana. Zona afectata de lucrari se va aduce obligatoriu la stadiul initial. Zona C", "lng": 21.200227}, {"beneficiar": "VOICA CLAUDIU NELU SI VOICA TATIANA", "lat": 45.7602005, "adresa": " STEPHENSON nr.2A", "data": "24.10.2013", "descriere": "Lucrari de tip c) - Retele edilitare: gaz o?= Bransament gaze naturale prin pozare subterana. Zona afectata de lucrari se va aduce obligatoriu la stadiul initial. Zona C", "lng": 21.1835289}, {"beneficiar": "BISERICA REFORMATA TIMISOARA", "lat": 45.7481846, "adresa": " TIMOTEI CIPARIU nr.1", "data": "24.10.2013", "descriere": "Lucrari de tip b) - Constructii pentru culte -  Reparatii de urgenta ale tiglelor de coama de la cele doua turnuri ale cladirii Bisericii Reformate Timisoara si montarea parazapezilor (conf.Aviz DCPNJ Timis nr.2027/09.10.2013,Proces Verbal Control nr.18675/20054/30.08.2013 al D.R.C.Vest )- IN REGIM DE URGENTA  conf. L 50/91rep. art. 7, alin. 16.", "lng": 21.218382}, {"beneficiar": "BEJINARIU CONSTANTIN ION SI BEJINARIU CRISTINA", "lat": 45.7443801, "adresa": " CLUJ nr.15", "data": "24.10.2013", "descriere": "Lucrari de tip a)- Constructii pentru sanatate- Schimbare destinatie spatiu din casa de locuit in Cabinet Medical si lucrari de tip h)- Amplasare firme luminoase pe fatada cladirii si curte pe perioada contractului de inchiriere. Zona B.", "lng": 21.2365675}, {"beneficiar": "JALIL SEMIIR si JALIL ILEANA MARGARETA", "lat": 45.72968669999999, "adresa": " MURES nr.45", "data": "16.10.2013", "descriere": "Lucrari tip a)- Constructii pentru locuinte- Modificari interioare si exterioare constructie autorizata cu A.C. nr. 1167/06.08.2012 (casa in regim P+2E cu 2 apartamente). Zona C . Sd=81 mp", "lng": 21.2209558}, {"beneficiar": "LUNGU FELIX-DANIELsi sotia LUNGU MARIANA-IOANA, TOMA ANCA-OANA si sotul TOMA TEODOR", "lat": 45.7720428, "adresa": " Aleea VIILOR nr.20/A", "data": "23.10.2013", "descriere": "Lucrari de tip a) - Constructii pentru locuinte- Construire locuinta pentru doua familii in regim de inaltime P+1E. Lucrari de tip d)- Imprejmuire- Realizare imprejmuire, accese auto si pietonale. Zona D. Scd = 89,93 mp; Sc = 162,00 mp; S teren = 384,00 mp", "lng": 21.2028494}, {"beneficiar": "CIRPACI IOAN", "lat": 45.7634749, "adresa": " SIMION BARNUTIU nr.34", "data": "22.10.2013", "descriere": "Lucrari tip h)- Constructii cu caracter provizoriu- Amplasare firma pe cladire pe durata contractului de inchiriere - SC BIPMOBILE SRL. Zona B", "lng": 21.2543349}, {"beneficiar": "SC LIDL ROMANIA SCS", "lat": 45.778056, "adresa": " I.I. DE LA BRAD nr.15A", "data": "22.10.2013", "descriere": "Lucrari de tip a), d), h), f) - Constructie pentru comert - Construire Supermarket Lidl o?=i amenajare locuri de parcare (98 locuri) o?=n incinto?=, amplasare panouri publicitare pe teren proprietate o?=i fao?=ado?=, amplasare totem pe teren proprietate, o?=mprejmuire proprietate, organizare de o?=antier, conf. PUD aprobat aprobat prin HCL 429/2013. Zona D. Sc=1868mp", "lng": 21.242186}, {"beneficiar": "LAJOS  TIBERIU  o?=i LAJOS   CARINA", "lat": 45.758984, "adresa": " Matei Corvin nr.6 ap.3", "data": "16.10.2013", "descriere": "Lucro?=ri de tip b)- Construco?=ii pentru funco?=iuni specifice zonei centrale- Schimbare destinao?=ie de spao?=iu din locuino?=o?= ( ap.3 ) o?=n S.A.D., Reparao?=ii  fao?=ado?= imobil o?=i reparao?=ii la acoperio?=", "lng": 21.230082}, {"beneficiar": "GHILEA VASILE", "lat": 45.7638, "adresa": " MESTEACANULUI nr.9", "data": "16.10.2013", "descriere": "Lucrari de tip c) - Retele edilitare: canal - Racord canal. Zona afectata de lucrari se va aduce obligatoriu la stadiul initial. Zona C", "lng": 21.192521}, {"beneficiar": "BICHIS PAUL  ANDREI", "lat": 45.75358199999999, "adresa": " DUNAREA nr.4B", "data": "16.10.2013", "descriere": "Lucrari de tip c)  Retele edilitare -apa  - Bransament apa . Zona afectata de lucrari se va aduce obligatoriu la stadiul initial. Zona C", "lng": 21.2080202}, {"beneficiar": "DUBOSAN  ADRIAN  si DUBOSAN  ANA", "lat": 45.729183, "adresa": " MURES nr.99", "data": "16.10.2013", "descriere": "Lucrari de tip c) - Retele edilitare: canal - Racord canal. Zona afectata de lucrari se va aduce obligatoriu la stadiul initial. Zona D", "lng": 21.230135}, {"beneficiar": "DOBRISAN ION si DOBRISAN ANDREI", "lat": 45.7687957, "adresa": " Dr. R. KOCH nr.19", "data": "16.10.2013", "descriere": "Lucrari de tip c). - Retele edilitare- energie electrica. Alimentare cu energie electrica prin pozare subterana. Zona afectata de lucrari se va aduce obligatoriu la stadiul initial", "lng": 21.241302}, {"beneficiar": "ARON VALERIU SI ARON ELENA ", "lat": 45.74922400000001, "adresa": " CASSIAN MUNTEANU nr.14", "data": "16.10.2013", "descriere": "Lucrari de tip c) - Retele edilitare: gaz o?= Bransament gaze naturale prin pozare subterana. Zona afectata de lucrari se va aduce obligatoriu la stadiul initial. Zona C.", "lng": 21.188386}, {"beneficiar": "MINUT OTILIA si GALAMBOS AGNETA", "lat": 45.723949, "adresa": " PAGANINI nr.32-32/A ap.1", "data": "16.10.2013", "descriere": "Lucrari de tip c) - Retele edilitare - apa. Bransament apa. Zona afectata de lucrari se va aduce obligatoriu la stadiul initial. Zona D", "lng": 21.175861}, {"beneficiar": "SCHIPOR DUMITRU cu sotia SCHIPOR MAGDALENA", "lat": 45.75606800000001, "adresa": " VIDIN nr.6", "data": "16.10.2013", "descriere": "Lucrari de tip a)- Locuinta - Amenajare mansarda in pod existent la casa existenta P, rezultind casa in regim P+M, extindere casa in regim P, consolidari si modificare partiala la acoperis. Zona C. \n ( Sc=9,10mp, Sd=121,5mp, St=598mp )", "lng": 21.198737}, {"beneficiar": "DOMUTA DOREL GRIGORE, BANATEANU LUMINITA ALICE, BANATEANU MARIUS AUREL", "lat": 45.760566, "adresa": " AGRICULTORILOR  nr.40", "data": "16.10.2013", "descriere": "Lucrari tip h) - Constructii cu caracter provizoriu - Amplasare banner pe fatada cladirii pe perioada contractului de inchiriere nr.1/22.03.2013 cu firma S.C. Danard Retail S.R.L..", "lng": 21.194131}, {"beneficiar": "HORVATH LUDOVIC  GAVRIL, HORVATH MARIA", "lat": 45.7198909, "adresa": " MARGARITARILOR nr.18", "data": "16.10.2013", "descriere": "Lucrari de tip a) - Desfiintari - Desfiintare constructii existente.", "lng": 21.214841}, {"beneficiar": "CENTRUL  REFORMAT TIMISOARA", "lat": 45.760423, "adresa": " Morarilor nr.1/b", "data": "15.10.2013", "descriere": "Lucrari de tip a)Rectificare  valoare lucrare  la AC nr.30/10.01.2013-''Continuarea lucrarilor de constructii la lacasul de cult cu denumirea ''CENTRUL REFORMAT TIMISOARA'' -autorizata cu AC nr.1082/1998 si AC nr.135/30.01.2004.Zona D.\n", "lng": 21.256861}, {"beneficiar": "POPA MAGDALENA, POPA DANIEL casat. cu POPA ADELA", "lat": 45.770566, "adresa": " STUPARILOR nr.20", "data": "15.10.2013", "descriere": "Lucrari de tip a) - Constructii pentru locuinte si servicii - Construire imobil duplex in regim P+1E+M cu birouri la parter si locuinte la etaj si mansarda(2 apartamente). Zona B. Sc=159,75mp; Sd=479,25mp;St=735mp", "lng": 21.245063}, {"beneficiar": "ARGINTAR-GAINA VALENTIN MARIAN", "lat": 45.736379, "adresa": " ION ROMANU nr.42", "data": "15.10.2013", "descriere": "Lucrari de tip a)-Constructii pentru locuinte-Construire casa in regim de inaltime P+1E cu garaj si anexa gospodareasca si imprejmuire teren.\nSc=124,56 mp; Sd=212,81 mp", "lng": 21.182564}, {"beneficiar": "BAYA MARIUS si sotia BAYA CAMELIA SEMENICA", "lat": 45.763741, "adresa": " HORIA  nr.44", "data": "15.10.2013", "descriere": "Lucrari tip a - Desfiintari - Desfiintare casa P. Zona D", "lng": 21.204054}, {"beneficiar": "TUCICOVSCHI MIHAI ION", "lat": 45.7656841, "adresa": " ZURICH nr.6", "data": "15.10.2013", "descriere": "Lucrari tip a)- Legalizare garaj , conform Sentintei Civile nr. 3535/13.11.2012 si Deciziei Civile nr. 8432/11.09.2013 irevocabila. S=24,30 mp. Zona C", "lng": 21.2468404}, {"beneficiar": " ASOCIATIA  DE  PROPRIETARI", "lat": 45.728675, "adresa": " HARNICIEI nr.6 bl.12 sc.C", "data": "15.10.2013", "descriere": "Lucrari tip a)- Constructii pentru locuinte- Reabilitare termica bloc existent in regim de inaltime S+P+4E. Zona D", "lng": 21.209216}, {"beneficiar": "SC DETERGENo?=I SA", "lat": 45.740417, "adresa": " CALEA STAN VIDRIGHIN nr.5", "data": "15.10.2013", "descriere": "Lucrari de tip a)- Construco?=ii industriale - Modifico?=ri interioare o?=i amenajare cantino?= o?=n clo?=direa administrativo?= la parter. ", "lng": 21.256611}, {"beneficiar": "LICULESCU VIORICA si sotul LICULESCU MIRCEA", "lat": 45.766512, "adresa": " CRISAN nr.64", "data": "15.10.2013", "descriere": "Lucrari de tip a) - Desfiintari - Demolare casa P.  Zona C. S c = 80,00 mp", "lng": 21.201593}, {"beneficiar": "STRUGARIU  DELIA si STRUGARIU  PETRICA", "lat": 45.756679, "adresa": " GHEORGHE TITEICA nr.9", "data": "14.10.2013", "descriere": "Lucrari tip c)-Retele edilitare - gaz - Bransament gaze naturale presiune redusa prin pozare subterana. Zona D.  Zona afectata de lucrari se va aduce obligatoriu la stadiul initial", "lng": 21.275993}, {"beneficiar": "MEICI  VALERIA", "lat": 45.722149, "adresa": " E.Zola nr.57", "data": "14.10.2013", "descriere": "Lucrari de tip a) - Constructii pentru locuinte -Modificare AC nr. 876/17.07.2013 prin   extindere P+M ,modificari interioare si exterioare la casa in curs de executie Sc=26,19mp;Sd=52,3mp", "lng": 21.215754}, {"beneficiar": "BALINT PETRE , DUBINA GABRIELA", "lat": 45.7241659, "adresa": " HERCULANE nr.20", "data": "11.10.2013", "descriere": "Lucrari de tip a) - Constructii locuinte - Modificari interioare si exterioare ,extindere si mansardare casa  rezultand casa P+M;Sc=27,40mp;Sd=139,10mp", "lng": 21.212017}, {"beneficiar": " ASOCIATIA  DE  PROPRIETARI", "lat": 45.75716, "adresa": " N.Filipescu nr.6 sc.A+B", "data": "09.10.2013", "descriere": "Lucrari de tip b) - Constructii pentru locuinte -  Punerea in siguranta imobil D+P+2E(conf.Aviz DCPNJ Timis nr.1735/06.09.2013,Proces Verbal Control nr.20952/20106/26.09.2013 al D.R.C.Vest )- IN REGIM DE URGENTA  conf. L 50/91rep. art. 7, alin. 16.", "lng": 21.23812}, {"beneficiar": "PREDISCAN ANDREI", "lat": 45.766998, "adresa": "Str. Iancu Flondor nr.1A", "data": "09.10.2013", "descriere": "Lucrari de tip c) - Retele edilitare - apa, canal - Bransament apa si racord canal . Zona afectata de lucrari se va aduce obligatoriu la stadiul initial.", "lng": 21.215134}, {"beneficiar": "SC  AGROCOMERT  SA TIMIo?=OARA", "lat": 45.756012, "adresa": " C.Brediceanu nr.2 ap.16", "data": "09.10.2013", "descriere": "Lucro?=ri de tip c)- Reo?=ele edilitare- gaz- Extindere reo?=ea ( portiunea dintre str. Ungureanu 1 pana la str. Brediceanu nr.2 ) o?=i brano?=ament gaze naturale prin pozare subterano?=", "lng": 21.226829}, {"beneficiar": "BORCOI MARIA", "lat": 45.727311, "adresa": " CHEVERESULUI nr.5", "data": "09.10.2013", "descriere": "Lucrari de tip c) - Retele edilitare - apa, canal - Bransament apo?= o?=i racord canal.  Zona afectata de lucrari se va aduce obligatoriu la stadiul initial.", "lng": 21.277011}, {"beneficiar": "PARVU  OVIDIU", "lat": 45.729586, "adresa": " TOSCA nr.36-36/A ap.2", "data": "09.10.2013", "descriere": "Lucrari de tip c) - Retele edilitare apa, canal - Bransament apa si racord canal. Zona afectata de lucrari se va aduce obligatoriu la stadiul initial. Zona C", "lng": 21.2507759}, {"beneficiar": "ANTOHI BOGDAN SI ANTOHI DANIELA", "lat": 45.771344, "adresa": " Calea Torontalului nr.44", "data": "09.10.2013", "descriere": "L ucrari de tip c)-Retele edilitare-apa,canal.Bransament apa si racord canal.Zona afectata de lucrari se va aduce obligatoriu la stadiul initial.", "lng": 21.217802}, {"beneficiar": "WICK GABRIEL  si WICK ADRIANA ALINA", "lat": 45.759422, "adresa": " Timocului nr.7 ap.2+3", "data": "08.10.2013", "descriere": "Lucrari de tip b) Constructii pentru locuinte.Legalizare conf.masurilor dispuse prin procesul verbal nr.5/253 din 19.09.2013 - desfiintare partiala,reconstruire si mansardare apartament nr.2+3, extindere in regim P+M  si imprejmuire.Zona D.Scp=98,06 mp;Sdp=195,70 mp.", "lng": 21.249709}, {"beneficiar": "CABINET PNEUMOLOGIE DR. STOIA CLAUDIA MARIA", "lat": 45.7640576, "adresa": " TEIULUI  nr.10 sc.B ap.3", "data": "07.10.2013", "descriere": "Lucrari de tip a) - C-tii pt. sanatate . Schimbare destinatie  spatiu din locuinta in cabinet medical , modificari interioare , creare acces din exterior   si  amplasare firma   pe fatada  . Zona D.", "lng": 21.2200337}, {"beneficiar": "PETRISOR  ANDREI  ROMULUS si sotia PETRISOR LEILA", "lat": 45.7634276, "adresa": " SIMION BARNUTIU nr.42", "data": "07.10.2013", "descriere": "Lucrari tip a)- Constructii pentru servicii/SAD- Lucrari de reabilitare fatade si acoperis imobil S+P+M+4E, schimbare destinatie in spatii pt. S.A.D. Zona B", "lng": 21.2555355}, {"beneficiar": "ALDEA TEODOR si sotia ALDEA LIVIA , TUTU ANA MARIA ", "lat": 44.42812929999999, "adresa": " BUCURESTI nr.17", "data": "03.10.2013", "descriere": "Lucrari tip c)- Retele edilitare- apa, canal- Redimensionare bransament apa si mutare camin apometru pe domeniul public. Zona afectata de lucrari se va aduce obligatoriu la stadiul initial.Zona B.", "lng": 26.052832}, {"beneficiar": "VOICA CLAUDIU NELU SI VOICA TATIANA", "lat": 45.7602005, "adresa": " STEPHENSON nr.2A", "data": "03.10.2013", "descriere": "Lucrari de tip c) - Retele edilitare - apa, canal - Bransament apa si racord canal. Zona afectata de lucrari se va aduce obligatoriu la stadiul initial.", "lng": 21.1835289}, {"beneficiar": "LAUTARU ION si sotia LAUTARU CRISTINA AURORA", "lat": 45.729086, "adresa": " NORMA nr.6", "data": "03.10.2013", "descriere": "Lucrari de tip c) - Retele edilitare apa, canal - Bransament apa si racord canal. Zona afectata de lucrari se va aduce obligatoriu la stadiul initial. Zona C", "lng": 21.251781}, {"beneficiar": "ANI FENIA-FELICIA SI ANI GRIGORE", "lat": 45.766792, "adresa": " CRISAN nr.67", "data": "03.10.2013", "descriere": "Lucrari de tip c) - Retele edilitare - apa - Bransament apa . Zona afectata de lucrari se va aduce obligatoriu la stadiul initial.", "lng": 21.200247}, {"beneficiar": "YESILIRMAK OMER FARUK", "lat": 45.72637, "adresa": " CALEA MARTIRILOR nr.110/b", "data": "03.10.2013", "descriere": "Lucrari de tip c) - Retele edilitare apa, canal - Bransament apa si racord canal. Zona afectata de lucrari se va aduce obligatoriu la stadiul initial. Zona C", "lng": 21.236849}, {"beneficiar": "KOVACS FRANCISC si sotia KOVACS ERICA", "lat": 45.754777, "adresa": " VALISOARA nr.30", "data": "03.10.2013", "descriere": "Lucrari de tip c)-Retele edilitare - canal- Racord canal. Zona afectata de lucrari se va aduce obligatoriu la stadiul initial. Zona D", "lng": 21.280006}, {"beneficiar": "KUBAJI  DANIELA VIOLETA", "lat": 45.7648579, "adresa": " OVIDIU BALEA  nr.19", "data": "03.10.2013", "descriere": "Lucrari de tip c) - Retele edilitare - apa, canal - Bransament apa si racord canal. Zona afectata de lucrari se va aduce obligatoriu la stadiul initial.", "lng": 21.187227}, {"beneficiar": "CIMPOIERU VIOREL SI CIMPOIERU FLORICA", "lat": 45.7591085, "adresa": " ALEXANDRU DONICI nr.1A", "data": "03.10.2013", "descriere": "Lucrari de tip c) - Retele edilitare: gaz o?= Bransament gaze naturale prin pozare subterana. Zona afectata de lucrari se va aduce obligatoriu la stadiul initial. Zona C", "lng": 21.1849546}, {"beneficiar": "COTTA FLAVIUS  EMANUEL", "lat": 45.722628, "adresa": " HERCULANE nr.69", "data": "03.10.2013", "descriere": "Lucrari de tip c) - Retele edilitare - canal. Racord canal.Zona afectata de lucrari se va aduce obligatoriu la stadiul initial. Zona C", "lng": 21.214604}, {"beneficiar": "BULARDA COJOCARU NICOLAE , BULARDA COJOCARU VIOLETA", "lat": 45.760801, "adresa": " BISTRITA nr.2B", "data": "03.10.2013", "descriere": "Lucrari de tip c) - Retele edilitare - apa, canal - Bransament apa si racord canal. Zona afectata de lucrari se va aduce obligatoriu la stadiul initial.", "lng": 21.192754}, {"beneficiar": "CHETRINESCU GABRIELA SILVIA ANA", "lat": 45.7449238, "adresa": " CLUJ nr.22", "data": "03.10.2013", "descriere": "Lucrari de tip c) - Retele edilitare: gaz o?= Bransament gaze naturale prin pozare subterana. Zona afectata de lucrari se va aduce obligatoriu la stadiul initial. Zona B", "lng": 21.2360771}, {"beneficiar": "SECRETEANU NICOLAE cu sotia SECRETEANU STELIANA ", "lat": 45.746248, "adresa": " GHEORGHE BARITIU nr.12", "data": "03.10.2013", "descriere": "Lucrari de tip a)- Locuinte- Demolare- Desfiintare partiala la casa existenta in regim P ( 2 bucatarii, 2 camare alimente si 1 camera de locuit )", "lng": 21.2015533}, {"beneficiar": "CZIFRA  LADISLAU EMERIC", "lat": 45.72227400000001, "adresa": " VANATORILOR nr.38", "data": "03.10.2013", "descriere": "Lucrari de tip a)- Constructii pentru locuinte- Construire casa in regim P+M. Scd=142 mp; Sc=71 mp", "lng": 21.224466}, {"beneficiar": "BADAI GHEORGHE, BADAI RODICA", "lat": 45.763156, "adresa": " HORIA nr.29", "data": "03.10.2013", "descriere": "Lucrari de tip a) - Desfiintari - Desfiintari casa in regim P. Zona C.", "lng": 21.206021}, {"beneficiar": "MARCHIS GHEORGHE o?=i MARCHIS MARIA", "lat": 45.7391934, "adresa": " Ciprian Porumbescu  nr.43 ap.1+2", "data": "02.10.2013", "descriere": "Lucro?=ri de tip a)-Construco?=ii pentru locuino?=e-Modifico?=ri interioare la ap.1+2, pentru o?=mbuno?=to?=o?=irea confortului", "lng": 21.2188911}, {"beneficiar": "BUS COSTICA si sotia BUS ANGELA", "lat": 45.7611324, "adresa": " DOROBANTILOR nr.8", "data": "02.10.2013", "descriere": "Lucrari tip a)- Constructii pt. SAD- Schimbare partiala destinatie din locuinta in SAD, fara modificari interioare. Zona D", "lng": 21.2598718}, {"beneficiar": "MARCHIS GHEORGHE si MARCHIS GETA", "lat": 45.7391934, "adresa": " CIPRIAN PORUMBESCU nr.43 ap.3", "data": "02.10.2013", "descriere": "Lucrari de tip a) - Constructii pentru comert - Schimbare partiala destinatie spatiu din locuinta ap.3 in spatiu comercial si mansardare. Lucrari de tip h) Amplasare firma pe fatada - Intrare in legalitate cu aplicarea art.28 din Legea 50/91 rep. si act (proces verbal de constatare si sanctionare a contraventiilor nr. 12/425/20.08.2013 )", "lng": 21.2188911}, {"beneficiar": "SC  METALTIM SA", "lat": 45.768313, "adresa": " DIVIZIA 9 CAVALERIE nr.68", "data": "02.10.2013", "descriere": "Lucrari de tip a) - Constructii  pentru alimentatie publica - Modificari interioare si recompartimentare locala spatiu comercial in spatiu pt. restaurant tip fastfood si comert. Amplasare firma luminoasa pe fatada cladirii pentru SC SAM ATRACTION SRL, pe durata contractului de inchiriere cu nr. E863 din 24.11.2011", "lng": 21.235357}, {"beneficiar": "IUHASZ CORNELIA  , IUHASZ SIMONA  , AVRAM DANIELA ", "lat": 45.7720871, "adresa": " AL VIILOR nr.19", "data": "02.10.2013", "descriere": "Lucrari de tip a) Constructii pentru locuinte - Continuare lucrari autorizate cu A.C. nr.2544/22.09.2008, Zona C", "lng": 21.2014051}, {"beneficiar": "ASOCIATIA DE PROPRIETARI", "lat": 45.769409, "adresa": " SOROCA nr.4 bl.46", "data": "01.10.2013", "descriere": "Lucrari tip a) - Constructii pentru locuinte - Reabilitare termica bloc existent P+4E. Zona D.", "lng": 21.215068}, {"beneficiar": "GOLDMAN CARMEN - MARIA si sotul GOLDMAN VLADIMIR", "lat": 45.7433522, "adresa": " ODOBESCU nr.35/a ap.1", "data": "01.10.2013", "descriere": "Lucrari tip a) - Constructii pentru locuinte - Extindere apartament 1 in regim parter, modificari interioare, exterioare si refacere acoperis. Sc = 14,00 mp, Scd = 14,00 mp", "lng": 21.2199708}, {"beneficiar": "ILIOIU  AURICA", "lat": 45.762327, "adresa": " MOLDOVEI nr.25", "data": "01.10.2013", "descriere": "Lucrari tip a)- Constructii pentru locuinte- Construire casa familiala P+1E. Zona D. Sc=160 mp; Sd=270 mp.", "lng": 21.27013}, {"beneficiar": "RISTA  VIOREL  SI  RISTA ZAMFIRA", "lat": 45.727415, "adresa": " EMIL RACOVITA nr.6", "data": "30.09.2013", "descriere": "Lucrari de tip c)- Retele edilitare-apa,canal- Bransament apa. Racord canal. Zona D.", "lng": 21.259237}, {"beneficiar": "NISTOR  DORINEL  SI  SI NISTOR  AURELIA  FLOAREA", "lat": 45.768499, "adresa": " SAMUIL SAGOVICI nr.79", "data": "30.09.2013", "descriere": "Lucrari de tip c) - Retele edilitare - apa, canal - Bransament apa si racord canal. Zona afectata de lucrari se va aduce obligatoriu la stadiul initial.", "lng": 21.197063}, {"beneficiar": "PUCHIU FLOARE", "lat": 45.758063, "adresa": " GHEORGHE TITEICA nr.25", "data": "30.09.2013", "descriere": "Lucrari de tip c)-Retele edilitare-apa,canal.Bransament apa si racord canal.Zona afectata de lucrari se va aduce obligatoriu la stadiul initial.", "lng": 21.276389}, {"beneficiar": "SC MECATIM SA", "lat": 45.734428, "adresa": " STAN VIDRIGHIN nr.9", "data": "27.09.2013", "descriere": "Lucrari de tip a) - Constructii industriale - Desfiino?=are paro?=ialo?= construco?=ii industriale cu retele aferente (rezervor , moaro?= P, vopsitorie P+1E, magazie P, depozit P, halo?= vopsitorie P - legalizare conform art.28 din L50/91rep. si act.- PV 45/AX030312/04.07.2013, recipient, cabino?= P, rampo?=, rampo?=, baraco?= , bazin, elevator, o?=opron, 4 magazii P, rezervor, stao?=ie P, atelier P, magazie P o?=i halo?= montaj / produco?=ie P in proporo?=ie de 60% ) o?=i dezafectare pisto?= testare mao?=ini. Sc =17915mp, Sd= 20709mp", "lng": 21.258892}, {"beneficiar": "PIROSICIU DOREL si PIROSICIU  SNEJENA", "lat": 45.729458, "adresa": " FRUCTELOR nr.13 sc.A+B", "data": "27.09.2013", "descriere": "Lucrari de tip a) - Constructii pentru locuinte - Etajare bloc de locuinte S+P+4E, rezultand bloc de locuinte in regim S+P+5E (cu 4 apartamente la scara A si 4 apartamente la scara B) Reabilitare termica. Scd=581,30 mp.Zona D", "lng": 21.20245}, {"beneficiar": "VITIAN DRAGOS  MARIUS, VITIAN DRAGOS LAURA  CARMINA", "lat": 45.738364, "adresa": " COSMINULUI  nr.8", "data": "26.09.2013", "descriere": " Lucrari de tip a) - Constructii pentru sanatate - Modificari interioare si exterioare la casa P.Schimbare destinatie spatiu  din locuinta in cabinet stomatologic, lucrari de tip h) - Constructii cu caracter provizoriu - Amplasare firma pe fatada. ", "lng": 21.2326896}, {"beneficiar": "SC  MACEDONSKI SRL", "lat": 45.7342357, "adresa": " Macedonski nr.13", "data": "26.09.2013", "descriere": "Lucro?=ri de tip c)-Amplasare instalao?=ie fotovoltaico?= pe terasa apartamentului o?=i racordare la SEN", "lng": 21.2207748}, {"beneficiar": "DAS IOAN- DORU si DAS EUGENIA MIANA", "lat": 45.7295585, "adresa": " MURES nr.60", "data": "26.09.2013", "descriere": "Lucrari de tip a)- Constructii pentru invatamant- Consolidare,  mansardare siextindere casa existenta in regim P rezultand casa in regim P+M. Schimbare destinatie din casa familiala in gradinita si club de vacanta .Zona C. Scd=437,33 mp; Sc=220,00 mp.", "lng": 21.2226865}, {"beneficiar": "FERDEAN ADRIAN SORIN", "lat": 45.76115, "adresa": " MOISE DOBOSAN nr.60A ", "data": "24.09.2013", "descriere": "Lucrari tip a - Constructii pentru locuinte - Construire casa in regim Dp+P+1E cu acces auto, conform PUD aprobat prin HCL 99/2013. Sc=112,60 mp, Sd=221,50 mp, St=759 mp", "lng": 21.197419}, {"beneficiar": "SAMOILA JENICA si sotia SAMOILA MARTA", "lat": 45.770992, "adresa": " ION ROATA nr.31", "data": "24.09.2013", "descriere": "Lucrari de tip d) - Constructii pentru locuinte - Imprejmuire teren proprietate privata.", "lng": 21.239448}, {"beneficiar": "ARMAS CIOFLEC ADRIANA", "lat": 45.74365359999999, "adresa": " Constano?=a nr.7", "data": "24.09.2013", "descriere": "Lucrari de tip a) Constructii pentru locuinte - Construire casa in regim P+1E; Sc=168,72 mp, Sd=337,44 mp o?=i lucrari de tip d) Imprejmuire -Refacere o?=mprejmuire teren. ", "lng": 21.2383855}, {"beneficiar": "POPINCIUC LUCIAN si POPINCIUC COSMINA SIMONA", "lat": 45.767714, "adresa": " ALPINISTILOR nr.21", "data": "24.09.2013", "descriere": "Lucrari tip a - Constructii pentru locuinte - Mansardare casa P rezultand casa cu regim de inaltime P+M.Zona C. Sc=86 mp", "lng": 21.265013},